     3.02           OBSERVATION DATA    G: GPS              RINEX VERSION / TYPE
OSPtoRINEX V2.0     RUNBY               20160802 201243 LCL PGM / RUN BY / DATE 
MRKNAM                                                      MARKER NAME         
MRKNUM                                                      MARKER NUMBER       
OBSERVER            AGENCY                                  OBSERVER / AGENCY   
5xp__5.5.21-R32+5xptSiRF                                    REC # / TYPE / VERS 
Antenna#            AntennaType                             ANT # / TYPE        
  4332403.0000  1054059.0000  4546112.0000                  APPROX POSITION XYZ 
        0.0000        0.0000        0.0000                  ANTENNA: DELTA H/E/N
G    4 C1C L1C D1C S1C                                      SYS / # / OBS TYPES 
     1.000                                                  INTERVAL            
  2016    03    03    22    54   59.4300000                 TIME OF FIRST OBS   
                                                            END OF HEADER       
> 2016 03 03 22 54 59.4300000  0  9      0.030345592000   
G04  20581084.231 6         0.000 6      1427.654 6        36.000 6
G10  24222593.926 4         0.000 4         0.000 4        27.000 4
G16  21005844.494 3         0.000 3         0.000 3        22.000 3
G18  22282962.461 7         0.000 7     -2189.012 7        44.000 7
G20  22270688.757 6         0.000 6      1103.258 6        39.000 6
G21  21049337.116 5         0.000 5       617.773 5        30.000 5
G26  20496702.143 5         0.000 5       446.081 5        34.000 5
G27  23091586.430 3         0.000 3         0.000 3        18.000 3
G29  23079124.193 6         0.000 6      2761.920 6        36.000 6
> 2016 03 03 22 55  0.4300000  0  9      0.030405444000   
G04  20581363.382 6         0.000 6      1427.223 6        36.000 6
G10  24221903.494 4         0.000 4     -3684.480 4        27.000 4
G16  21005559.514 3         0.000 3         0.000 3        22.000 3
G18  22282553.377 7         0.000 7     -2188.652 7        44.000 7
G20  22270906.091 6         0.000 6      1102.991 6        39.000 6
G21  21049462.346 5         0.000 5       619.128 5        30.000 5
G26  20496794.468 5         0.000 5       446.153 5        34.000 5
G27  23091054.183 3         0.000 3         0.000 3        18.000 3
G29  23079657.256 6         0.000 6      2761.817 6        36.000 6
> 2016 03 03 22 55  1.4300000  0  9      0.030465299000   
G04  20581641.590 5         0.000 5      1428.787 5        35.000 5
G10  24221208.578 4         0.000 4     -3683.018 4        27.000 4
G16  21005272.567 3         0.000 3         0.000 3        22.000 3
G18  22282143.335 7         0.000 7     -2187.950 7        44.000 7
G20  22271122.515 6         0.000 6      1103.919 6        39.000 6
G21  21049586.628 5         0.000 5       619.378 5        30.000 5
G26  20496885.886 5         0.000 5       447.440 5        33.000 5
G27  23090546.178 3         0.000 3         0.000 3        18.000 3
G29  23080189.336 6         0.000 6      2762.427 6        36.000 6
> 2016 03 03 22 55  2.4200000  0  9      0.030525102000   
G04  20581927.053 5         0.000 5      1429.419 5        35.000 5
G10  24220522.273 4         0.000 4     -3681.123 4        27.000 4
G16  21004982.293 3         0.000 3         0.000 3        22.000 3
G18  22281740.821 7         0.000 7     -2187.698 7        44.000 7
G20  22271346.205 6         0.000 6      1104.254 6        39.000 6
G21  21049718.182 5         0.000 5       620.051 5        30.000 5
G26  20496984.646 5         0.000 5       447.487 5        33.000 5
G27  23090023.566 3         0.000 3         0.000 3        18.000 3
G29  23080728.462 6         0.000 6      2762.464 6        36.000 6
> 2016 03 03 22 55  3.4300000  0  9      0.030584966000   
G04  20582211.497 5         0.000 5      1430.035 5        35.000 5
G10  24219833.010 4         0.000 4     -3682.324 4        27.000 4
G16  21004713.807 3         0.000 3         0.000 3        22.000 3
G18  22281336.618 7         0.000 7     -2187.441 7        44.000 7
G20  22271568.835 6         0.000 6      1105.023 6        39.000 6
G21  21049848.528 5         0.000 5       619.836 5        30.000 5
G26  20497082.263 5         0.000 5       449.068 5        33.000 5
G27  23089493.058 3         0.000 3         0.000 3        18.000 3
G29  23081266.706 6         0.000 6      2762.576 6        36.000 6
> 2016 03 03 22 55  4.4300000  0  9      0.030644809000   
G04  20582493.860 5         0.000 5      1430.815 5        35.000 5
G10  24219142.121 4         0.000 4     -3684.285 4        28.000 4
G16  21004434.026 3         0.000 3         0.000 3        22.000 3
G18  22280930.594 7         0.000 7     -2186.405 7        44.000 7
G20  22271789.409 6         0.000 6      1105.731 6        39.000 6
G21  21049976.792 5         0.000 5       621.170 5        31.000 5
G26  20497177.861 5         0.000 5       448.903 5        33.000 5
G27  23088975.654 3         0.000 3         0.000 3        18.000 3
G29  23081802.665 6         0.000 6      2763.551 6        36.000 6
> 2016 03 03 22 55  5.4200000  0  9      0.030704629000   
G04  20582774.828 5         0.000 5      1432.396 5        35.000 5
G10  24218450.450 4         0.000 4     -3684.593 4        28.000 4
G16  21004140.325 3         0.000 3         0.000 3        22.000 3
G18  22280523.473 7         0.000 7     -2186.210 7        44.000 7
G20  22272008.647 6         0.000 6      1106.173 6        39.000 6
G21  21050103.734 5         0.000 5       620.369 5        31.000 5
G26  20497272.180 5         0.000 5       449.981 5        33.000 5
G27  23088449.556 3         0.000 3         0.000 3        18.000 3
G29  23082337.030 6         0.000 6      2763.726 6        36.000 6
> 2016 03 03 22 55  6.4200000  0  9      0.030764479000   
G04  20583055.316 5         0.000 5      1431.965 5        35.000 5
G10  24217757.473 4         0.000 4     -3681.411 4        28.000 4
G16  21003871.312 3         0.000 3         0.000 3        22.000 3
G18  22280115.495 7         0.000 7     -2186.251 7        44.000 7
G20  22272227.362 6         0.000 6      1106.399 6        39.000 6
G21  21050230.085 5         0.000 5       621.899 5        31.000 5
G26  20497365.935 5         0.000 5       450.012 5        32.000 5
G27  23087916.433 3         0.000 3         0.000 3        18.000 3
G29  23082870.924 6         0.000 6      2763.716 6        36.000 6
> 2016 03 03 22 55  7.4300000  0  9      0.030824360000   
G04  20583334.874 5         0.000 5      1431.636 5        35.000 5
G10  24217063.508 4         0.000 4     -3681.862 4        28.000 4
G16  21003583.222 3         0.000 3         0.000 3        22.000 3
G18  22279706.254 7         0.000 7     -2186.107 7        44.000 7
G20  22272445.161 6         0.000 6      1106.809 6        39.000 6
G21  21050355.389 5         0.000 5       623.059 5        31.000 5
G26  20497458.706 5         0.000 5       450.525 5        32.000 5
G27  23087389.981 3         0.000 3         0.000 3        18.000 3
G29  23083403.949 6         0.000 6      2762.761 6        37.000 6
> 2016 03 03 22 55  8.4300000  0  9      0.030884214000   
G04  20583614.252 5         0.000 5      1432.960 5        34.000 5
G10  24216369.853 4         0.000 4     -3680.620 4        28.000 4
G16  21003295.021 3         0.000 3         0.000 3        22.000 3
G18  22279297.098 7         0.000 7     -2186.025 7        44.000 7
G20  22272662.813 6         0.000 6      1107.753 6        39.000 6
G21  21050480.523 5         0.000 5       622.135 5        31.000 5
G26  20497551.367 5         0.000 5       451.449 5        32.000 5
G27  23086859.842 2         0.000 2         0.000 2        17.000 2
G29  23083936.592 6         0.000 6      2763.459 6        37.000 6
> 2016 03 03 22 55  9.4200000  0  9      0.030944044000   
G04  20583892.777 5         0.000 5      1432.632 5        34.000 5
G10  24215675.499 4         0.000 4     -3681.298 4        28.000 4
G16  21003009.765 3         0.000 3         0.000 3        22.000 3
G18  22278887.378 7         0.000 7     -2184.916 7        44.000 7
G20  22272879.636 6         0.000 6      1108.903 6        39.000 6
G21  21050604.854 5         0.000 5       622.956 5        31.000 5
G26  20497643.293 5         0.000 5       451.972 5        32.000 5
G27  23086334.395 2         0.000 2         0.000 2        17.000 2
G29  23084468.206 6         0.000 6      2763.541 6        37.000 6
> 2016 03 03 22 55 10.4200000  0  9      0.031003903000   
G04  20584171.028 5         0.000 5      1435.085 5        34.000 5
G10  24214980.331 4         0.000 4     -3679.522 4        28.000 4
G16  21002739.337 3         0.000 3         0.000 3        22.000 3
G18  22278477.031 7         0.000 7     -2184.783 7        44.000 7
G20  22273096.172 6         0.000 6      1110.360 6        39.000 6
G21  21050728.804 5         0.000 5       622.751 5        31.000 5
G26  20497734.872 5         0.000 5       453.183 5        32.000 5
G27  23085810.897 2         0.000 2         0.000 2        16.000 2
G29  23084999.562 6         0.000 6      2763.654 6        37.000 6
> 2016 03 03 22 55 11.4200000  0  8      0.031063763000   
G04  20584449.040 5         0.000 5      1434.962 5        34.000 5
G10  24214284.719 4         0.000 4     -3682.796 4        29.000 4
G16  21002453.566 3         0.000 3         0.000 3        22.000 3
G18  22278066.433 7         0.000 7     -2184.485 7        44.000 7
G20  22273312.509 6         0.000 6      1108.965 6        39.000 6
G21  21050852.498 5         0.000 5       623.993 5        31.000 5
G26  20497826.261 5         0.000 5       452.783 5        32.000 5
G29  23085530.605 6         0.000 6      2763.664 6        37.000 6
> 2016 03 03 22 55 12.4200000  0  8      0.031123625000   
G04  20584726.501 5         0.000 5      1435.074 5        34.000 5
G10  24213588.346 4         0.000 4     -3681.852 4        29.000 4
G16  21002165.460 3         0.000 3         0.000 3        22.000 3
G18  22277655.253 7         0.000 7     -2184.105 7        44.000 7
G20  22273528.334 6         0.000 6      1110.463 6        39.000 6
G21  21050975.609 5         0.000 5       623.017 5        31.000 5
G26  20497917.128 5         0.000 5       453.809 5        32.000 5
G29  23086061.011 6         0.000 6      2763.161 6        37.000 6
> 2016 03 03 22 55 13.4200000  0  8      0.031183487000   
G04  20585004.027 5         0.000 5      1435.736 5        34.000 5
G10  24212892.089 4         0.000 4     -3679.723 4        29.000 4
G16  21001867.411 3         0.000 3         0.000 3        22.000 3
G18  22277244.081 7         0.000 7     -2182.715 7        44.000 7
G20  22273744.195 6         0.000 6      1111.309 6        39.000 6
G21  21051098.728 5         0.000 5       624.438 5        31.000 5
G26  20498007.991 5         0.000 5       454.994 5        32.000 5
G29  23086591.387 6         0.000 6      2764.931 6        37.000 6
> 2016 03 03 22 55 14.4200000  0  7      0.031243350000   
G04  20585281.458 5         0.000 5      1438.579 5        34.000 5
G10  24212195.727 4         0.000 4     -3680.606 4        29.000 4
G16  21001588.680 3         0.000 3         0.000 3        22.000 3
G20  22273959.971 6         0.000 6      1112.048 6        39.000 6
G21  21051221.707 5         0.000 5       625.639 5        31.000 5
G26  20498098.755 5         0.000 5       455.795 5        31.000 5
G29  23087121.561 6         0.000 6      2764.408 6        37.000 6
> 2016 03 03 22 55 15.4200000  0  9      0.031303215000   
G04  20585558.351 5         0.000 5      1437.552 5        34.000 5
G10  24211498.747 4         0.000 4     -3680.401 4        29.000 4
G16  21001298.890 3         0.000 3         0.000 3        22.000 3
G18  22276420.888 7         0.000 7     -2182.325 7        44.000 7
G20  22274175.236 6         0.000 6      1113.146 6        39.000 6
G21  21051344.136 5         0.000 5       626.009 5        31.000 5
G26  20498188.994 5         0.000 5       456.482 5        31.000 5
G27  23083158.636 1         0.000 1         0.000 1         4.000 1
G29  23087651.155 6         0.000 6      2764.675 6        37.000 6
> 2016 03 03 22 55 16.4200000  0  9      0.031363081000   
G04  20585835.073 5         0.000 5      1436.409 5        33.000 5
G10  24210801.436 4         0.000 4     -3681.359 4        29.000 4
G16  21001010.039 3         0.000 3         0.000 3        22.000 3
G18  22276008.792 7         0.000 7     -2182.309 7        44.000 7
G20  22274390.318 6         0.000 6      1112.947 6        39.000 6
G21  21051466.292 5         0.000 5       624.259 5        31.000 5
G26  20498279.085 5         0.000 5       456.334 5        31.000 5
G27  23082650.872 1         0.000 1         0.000 1         6.000 1
G29  23088180.464 6         0.000 6      2764.352 6        37.000 6
> 2016 03 03 22 55 17.4200000  0  9      0.031422933000   
G04  20586111.996 5         0.000 5      1437.076 5        33.000 5
G10  24210104.396 4         0.000 4     -3680.559 4        29.000 4
G16  21000724.551 3         0.000 3         0.000 3        22.000 3
G18  22275597.012 7         0.000 7     -2182.289 7        44.000 7
G20  22274605.626 6         0.000 6      1113.419 6        39.000 6
G21  21051588.651 5         0.000 5       625.871 5        31.000 5
G26  20498369.444 5         0.000 5       457.320 5        31.000 5
G27  23082136.098 1         0.000 1         0.000 1         8.000 1
G29  23088709.827 6         0.000 6      2764.804 6        37.000 6
> 2016 03 03 22 55 18.4200000  0  9      0.031482802000   
G04  20586388.098 5         0.000 5      1439.159 5        33.000 5
G10  24209406.277 5         0.000 5     -3679.645 5        30.000 5
G16  21000443.275 3         0.000 3         0.000 3        22.000 3
G18  22275184.186 7         0.000 7     -2181.242 7        44.000 7
G20  22274820.098 6         0.000 6      1114.979 6        39.000 6
G21  21051710.109 5         0.000 5       626.179 5        31.000 5
G26  20498458.954 5         0.000 5       459.526 5        31.000 5
G27  23081619.822 1         0.000 1         0.000 1         9.000 1
G29  23089238.303 6         0.000 6      2764.568 6        37.000 6
> 2016 03 03 22 55 19.4200000  0  9      0.031542671000   
G04  20586664.301 5         0.000 5      1438.903 5        33.000 5
G10  24208708.068 5         0.000 5     -3680.405 5        30.000 5
G16  21000149.125 3         0.000 3         0.000 3        22.000 3
G18  22274771.449 7         0.000 7     -2181.355 7        44.000 7
G20  22275034.691 6         0.000 6      1115.769 6        39.000 6
G21  21051831.661 5         0.000 5       625.799 5        31.000 5
G26  20498548.572 5         0.000 5       458.767 5        31.000 5
G27  23081075.050 1         0.000 1         0.000 1        10.000 1
G29  23089766.851 6         0.000 6      2765.337 6        37.000 6
> 2016 03 03 22 55 20.4200000  0  8      0.031602542000   
G04  20586939.950 5         0.000 5      1441.227 5        33.000 5
G10  24208009.300 5         0.000 5     -3680.852 5        30.000 5
G16  20999857.381 3         0.000 3         0.000 3        22.000 3
G20  22275248.706 6         0.000 6      1115.045 6        39.000 6
G21  21051952.597 5         0.000 5       626.963 5        31.000 5
G26  20498637.657 5         0.000 5       459.562 5        31.000 5
G27  23080558.690 1         0.000 1         0.000 1        10.000 1
G29  23090294.727 6         0.000 6      2765.516 6        37.000 6
> 2016 03 03 22 55 21.4200000  0  9      0.031662413000   
G04  20587215.669 5         0.000 5      1440.463 5        33.000 5
G10  24207310.478 5         0.000 5     -3681.760 5        30.000 5
G16  20999573.529 3         0.000 3         0.000 3        22.000 3
G18  22273944.840 7         0.000 7     -2180.554 7        44.000 7
G20  22275462.854 6         0.000 6      1116.724 6        39.000 6
G21  21052073.602 5         0.000 5       625.666 5        31.000 5
G26  20498726.872 5         0.000 5       458.397 5        31.000 5
G27  23080013.443 1         0.000 1         0.000 1        11.000 1
G29  23090822.621 6         0.000 6      2764.845 6        37.000 6
> 2016 03 03 22 55 22.4200000  0  8      0.031722273000   
G04  20587491.371 5         0.000 5      1439.590 5        33.000 5
G10  24206611.788 5         0.000 5     -3681.226 5        30.000 5
G16  20999273.270 3         0.000 3         0.000 3        21.000 3
G20  22275677.010 6         0.000 6      1117.042 6        39.000 6
G21  21052194.625 5         0.000 5       626.045 5        31.000 5
G26  20498816.122 5         0.000 5       461.056 5        31.000 5
G27  23079470.913 1         0.000 1         0.000 1        10.000 1
G29  23091350.378 6         0.000 6      2764.824 6        37.000 6
> 2016 03 03 22 55 23.4200000  0  9      0.031782195000   
G04  20587767.517 5         0.000 5      1441.469 5        33.000 5
G10  24205912.405 5         0.000 5     -3681.544 5        30.000 5
G16  20998974.855 3         0.000 3         0.000 3        21.000 3
G18  22273118.139 7         0.000 7     -2179.559 7        44.000 7
G20  22275891.519 6         0.000 6      1118.192 6        39.000 6
G21  21052315.799 5         0.000 5       627.862 5        31.000 5
G26  20498905.591 5         0.000 5       460.389 5        31.000 5
G27  23078927.687 1         0.000 1         0.000 1        11.000 1
G29  23091878.730 6         0.000 6      2765.245 6        36.000 6
> 2016 03 03 22 55 24.4200000  0  9      0.031842028000   
G04  20588043.034 5         0.000 5      1443.101 5        33.000 5
G10  24205213.733 5         0.000 5     -3679.810 5        31.000 5
G16  20998664.047 1         0.000 1         0.000 1         4.000 1
G18  22272704.977 7         0.000 7     -2179.446 7        44.000 7
G20  22276105.472 6         0.000 6      1117.863 6        39.000 6
G21  21052436.549 5         0.000 5       628.324 5        31.000 5
G26  20498994.702 5         0.000 5       461.764 5        31.000 5
G27  23078405.277 1         0.000 1         0.000 1        11.000 1
G29  23092405.980 6         0.000 6      2765.461 6        36.000 6
> 2016 03 03 22 55 25.4200000  0  9      0.031901899000   
G04  20588319.237 5         0.000 5      1441.931 5        33.000 5
G10  24204514.989 5         0.000 5     -3681.965 5        31.000 5
G16  20998372.263 2         0.000 2         0.000 2        12.000 2
G18  22272292.026 7         0.000 7     -2179.138 7        44.000 7
G20  22276320.134 6         0.000 6      1119.228 6        39.000 6
G21  21052557.865 5         0.000 5       627.575 5        31.000 5
G26  20499084.399 5         0.000 5       461.435 5        31.000 5
G27  23077859.050 2         0.000 2         0.000 2        16.000 2
G29  23092934.013 6         0.000 6      2765.512 6        36.000 6
> 2016 03 03 22 55 26.4200000  0  8      0.031961740000   
G04  20588595.226 5         0.000 5      1444.162 5        33.000 5
G10  24203816.380 5         0.000 5     -3680.144 5        31.000 5
G16  20998105.597 2         0.000 2         0.000 2        16.000 2
G20  22276534.561 6         0.000 6      1120.249 6        39.000 6
G21  21052678.977 5         0.000 5       629.683 5        31.000 5
G26  20499173.946 5         0.000 5       464.149 5        31.000 5
G27  23077320.368 2         0.000 2         0.000 2        17.000 2
G29  23093461.550 6         0.000 6      2767.005 6        36.000 6
> 2016 03 03 22 55 27.4200000  0  9      0.032021633000   
G04  20588871.380 5         0.000 5      1443.604 5        33.000 5
G10  24203116.966 5         0.000 5     -3682.273 5        31.000 5
G16  20997824.328 2         0.000 2         0.000 2        16.000 2
G18  22271465.740 7         0.000 7     -2178.235 7        44.000 7
G20  22276749.102 6         0.000 6      1121.692 6        39.000 6
G21  21052800.067 5         0.000 5       629.371 5        31.000 5
G26  20499263.492 5         0.000 5       463.406 5        31.000 5
G27  23076786.668 2         0.000 2         0.000 2        17.000 2
G29  23093989.390 6         0.000 6      2765.963 6        36.000 6
> 2016 03 03 22 55 28.4200000  0  8      0.032081505000   
G04  20589147.768 5         0.000 5      1446.923 5        33.000 5
G10  24202418.035 5         0.000 5     -3679.846 5        31.000 5
G16  20997542.603 2         0.000 2         0.000 2        16.000 2
G20  22276963.888 6         0.000 6      1122.620 6        39.000 6
G21  21052921.378 5         0.000 5       630.576 5        31.000 5
G26  20499353.294 5         0.000 5       462.723 5        30.000 5
G27  23076245.365 3         0.000 3         0.000 3        18.000 3
G29  23094517.286 6         0.000 6      2766.840 6        36.000 6
> 2016 03 03 22 55 29.4200000  0  9      0.032141380000   
G04  20589423.383 5         0.000 5      1446.057 5        33.000 5
G10  24201718.225 5         0.000 5     -3680.620 5        31.000 5
G16  20997251.101 2         0.000 2         0.000 2        17.000 2
G18  22270639.023 7         0.000 7     -2177.526 7        44.000 7
G20  22277177.914 6         0.000 6      1120.973 6        39.000 6
G21  21053041.848 5         0.000 5       630.418 5        31.000 5
G26  20499442.342 5         0.000 5       465.623 5        30.000 5
G27  23075706.256 3         0.000 3         0.000 3        18.000 3
G29  23095044.313 6         0.000 6      2765.799 6        36.000 6
> 2016 03 03 22 55 30.4200000  0  9      0.032201245000   
G04  20589699.303 5         0.000 5      1446.954 5        33.000 5
G10  24201018.697 5         0.000 5     -3680.698 5        31.000 5
G16  20996963.142 2         0.000 2         0.000 2        17.000 2
G18  22270225.615 7         0.000 7     -2176.537 7        44.000 7
G20  22277392.252 6         0.000 6      1123.010 6        39.000 6
G21  21053162.571 5         0.000 5       630.258 5        31.000 5
G26  20499531.654 5         0.000 5       463.605 5        30.000 5
G27  23075172.642 3         0.000 3         0.000 3        18.000 3
G29  23095571.511 6         0.000 6      2766.727 6        36.000 6
> 2016 03 03 22 55 31.4200000  0  9      0.032261128000   
G04  20589975.252 5         0.000 5      1447.851 5        34.000 5
G10  24200318.839 5         0.000 5     -3679.811 5        31.000 5
G16  20996679.699 2         0.000 2         0.000 2        17.000 2
G18  22269811.981 7         0.000 7     -2176.224 7        44.000 7
G20  22277606.567 6         0.000 6      1122.665 6        39.000 6
G21  21053283.246 5         0.000 5       630.016 5        31.000 5
G26  20499620.993 5         0.000 5       464.092 5        30.000 5
G27  23074634.243 3         0.000 3         0.000 3        19.000 3
G29  23096098.727 6         0.000 6      2766.886 6        36.000 6
> 2016 03 03 22 55 32.4300000  0  9      0.032321116000   
G04  20590264.635 5         0.000 5      1447.381 5        34.000 5
G10  24199630.932 5         0.000 5     -3679.840 5        32.000 5
G16  20996407.165 2         0.000 2         0.000 2        17.000 2
G18  22269410.756 7         0.000 7     -2176.151 7        44.000 7
G20  22277834.263 6         0.000 6      1123.406 6        39.000 6
G21  21053417.069 5         0.000 5       631.485 5        31.000 5
G26  20499723.460 5         0.000 5       467.645 5        30.000 5
G27  23074111.151 3         0.000 3         0.000 3        19.000 3
G29  23096639.652 6         0.000 6      2766.692 6        36.000 6
> 2016 03 03 22 55 33.4300000  0  9      0.032381000000   
G04  20590537.910 5         0.000 5      1448.884 5        34.000 5
G10  24198928.330 5         0.000 5     -3680.390 5        32.000 5
G16  20996114.029 2         0.000 2         0.000 2        17.000 2
G18  22268994.480 7         0.000 7     -2175.100 7        44.000 7
G20  22278045.925 6         0.000 6      1123.718 6        39.000 6
G21  21053534.982 5         0.000 5       633.255 5        31.000 5
G26  20499810.098 4         0.000 4       468.912 4        29.000 4
G27  23073563.973 3         0.000 3         0.000 3        19.000 3
G29  23097163.971 6         0.000 6      2767.990 6        36.000 6
> 2016 03 03 22 55 34.4200000  0  9      0.032440824000   
G04  20590811.185 5         0.000 5      1449.444 5        34.000 5
G10  24198226.646 5         0.000 5     -3680.220 5        32.000 5
G16  20995827.623 3         0.000 3         0.000 3        18.000 3
G18  22268578.833 7         0.000 7     -2174.971 7        44.000 7
G20  22278257.652 6         0.000 6      1125.551 6        39.000 6
G21  21053652.991 5         0.000 5       631.618 5        30.000 5
G26  20499897.603 4         0.000 4         0.000 4        26.000 4
G27  23073039.462 3         0.000 3         0.000 3        19.000 3
G29  23097687.927 6         0.000 6      2767.051 6        36.000 6
> 2016 03 03 22 55 35.4300000  0  9      0.032500766000   
G04  20591085.645 5         0.000 5      1449.197 5        34.000 5
G10  24197524.066 5         0.000 5     -3680.354 5        32.000 5
G16  20995544.808 2         0.000 2         0.000 2        17.000 2
G18  22268162.956 7         0.000 7     -2174.765 7        44.000 7
G20  22278470.474 6         0.000 6      1125.766 6        39.000 6
G21  21053771.872 5         0.000 5       631.875 5        30.000 5
G26  20499987.041 4         0.000 4         0.000 4        24.000 4
G27  23072497.404 3         0.000 3         0.000 3        20.000 3
G29  23098213.484 6         0.000 6      2767.400 6        36.000 6
> 2016 03 03 22 55 36.4200000  0  9      0.032560524000   
G04  20591347.111 5         0.000 5      1450.557 5        35.000 5
G10  24196811.088 5         0.000 5     -3679.785 5        32.000 5
G16  20995249.377 3         0.000 3         0.000 3        18.000 3
G18  22267735.926 7         0.000 7     -2173.971 7        44.000 7
G20  22278670.447 6         0.000 6      1126.222 6        39.000 6
G21  21053878.121 5         0.000 5       633.758 5        30.000 5
G26  20500059.331 4         0.000 4         0.000 4        24.000 4
G27  23071943.297 3         0.000 3         0.000 3        20.000 3
G29  23098725.287 6         0.000 6      2767.066 6        36.000 6
> 2016 03 03 22 55 37.4200000  0  9      0.032620389000   
G04  20591626.594 5         0.000 5      1450.680 5        35.000 5
G10  24196114.305 5         0.000 5     -3680.247 5        32.000 5
G16  20994958.498 3         0.000 3         0.000 3        18.000 3
G18  22267325.672 7         0.000 7     -2173.632 7        44.000 7
G20  22278888.346 6         0.000 6      1127.269 6        39.000 6
G21  21054002.070 5         0.000 5       634.753 5        30.000 5
G26  20500146.940 4         0.000 4         0.000 4        24.000 4
G27  23071411.830 3         0.000 3         0.000 3        20.000 3
G29  23099255.462 6         0.000 6      2767.035 6        36.000 6
> 2016 03 03 22 55 38.4300000  0  8      0.032680358000   
G04  20591917.965 5         0.000 5      1449.413 5        35.000 5
G10  24195427.975 5         0.000 5     -3681.688 5        32.000 5
G16  20994689.520 3         0.000 3         0.000 3        18.000 3
G20  22279118.087 6         0.000 6      1127.901 6        39.000 6
G21  21054137.641 5         0.000 5       633.877 5        30.000 5
G26  20500253.036 4         0.000 4         0.000 4        24.000 4
G27  23070893.996 3         0.000 3         0.000 3        20.000 3
G29  23099797.803 6         0.000 6      2766.959 6        36.000 6
> 2016 03 03 22 55 39.0000000  0  9      0.032714753000   
G04  20592062.241 5         0.000 5      1451.271 5        35.000 5
G10  24195011.131 5         0.000 5     -3680.579 5        32.000 5
G16  20994521.126 3         0.000 3         0.000 3        18.000 3
G18  22266674.234 7         0.000 7     -2173.708 7        44.000 7
G20  22279226.971 6         0.000 6      1126.967 6        39.000 6
G21  21054192.496 5         0.000 5       633.025 5        30.000 5
G26  20500282.016 4         0.000 4         0.000 4        24.000 4
G27  23070570.509 3         0.000 3         0.000 3        20.000 3
G29  23100086.025 6         0.000 6      2768.283 6        36.000 6
> 2016 03 03 22 55 40.0000000  0  9      0.032774610000   
G04  20592344.488 5 108213438.534 5      1451.322 5        35.000 5
G10  24194316.814 5 127141952.949 5     -3680.343 5        32.000 5
G16  20994242.089 3         0.000 3         0.000 3        18.000 3
G18  22266266.641 7 117009972.125 7     -2173.513 7        44.000 7
G20  22279447.650 6 117079278.715 6      1127.881 6        39.000 6
G21  21054319.128 5 110641138.912 5       633.682 5        30.000 5
G26  20500387.496 4         0.000 4         0.000 4        24.000 4
G27  23070034.600 3         0.000 3         0.000 3        20.000 3
G29  23100618.722 6 121394502.795 6      2767.544 6        36.000 6
> 2016 03 03 22 55 41.0000000  0  9      0.032834487000   
G04  20592620.811 6 108214890.592 6      1452.743 6        36.000 6
G10  24193616.473 5 127138272.526 5     -3679.425 5        32.000 5
G16  20993959.604 3         0.000 3         0.000 3        19.000 3
G18  22265853.096 7 117007798.932 7     -2172.287 7        43.000 7
G20  22279662.417 6 117080407.358 6      1129.353 6        39.000 6
G21  21054439.808 5 110641773.042 5       634.866 5        30.000 5
G26  20500474.245 4         0.000 4         0.000 4        24.000 4
G27  23069502.296 3         0.000 3         0.000 3        20.000 3
G29  23101145.411 6 121397270.706 6      2768.524 6        36.000 6
> 2016 03 03 22 55 42.0000000  0  9      0.032894364000   
G04  20592897.211 6 108216343.056 6      1453.153 6        36.000 6
G10  24192916.118 5 127134591.972 5     -3679.559 5        32.000 5
G16  20993665.713 3         0.000 3         0.000 3        19.000 3
G18  22265439.587 7 117005625.933 7     -2172.092 7        43.000 7
G20  22279877.274 6 117081536.436 6      1129.784 6        39.000 6
G21  21054560.500 5 110642407.407 5       635.102 5        30.000 5
G26  20500570.350 3         0.000 3         0.000 3        23.000 3
G27  23068958.892 3         0.000 3         0.000 3        20.000 3
G29  23101672.081 6 121400038.550 6      2768.452 6        36.000 6
> 2016 03 03 22 55 43.0000000  0  9      0.032954240000   
G04  20593173.923 6 108217797.170 6      1453.225 6        36.000 6
G10  24192215.988 5 127130912.484 5     -3680.072 5        32.000 5
G16  20993384.321 3         0.000 3         0.000 3        20.000 3
G18  22265026.357 7 117003454.404 7     -2172.195 7        43.000 7
G20  22280092.458 6 117082667.199 6      1129.897 6        39.000 6
G21  21054681.464 5 110643043.173 5       634.928 5        30.000 5
G26  20500667.149 3         0.000 3         0.000 3        23.000 3
G27  23068428.600 3         0.000 3         0.000 3        21.000 3
G29  23102199.005 6 121402807.597 6      2768.082 6        36.000 6
> 2016 03 03 22 55 44.0000000  0  9      0.033014117000   
G04  20593450.473 6 108219250.467 6      1453.985 6        36.000 6
G10  24191515.602 5 127127231.670 5     -3679.816 5        33.000 5
G16  20993093.980 3         0.000 3         0.000 3        20.000 3
G18  22264612.942 7 117001281.845 7     -2171.651 7        43.000 7
G20  22280307.494 6 117083797.224 6      1130.728 6        39.000 6
G21  21054802.213 5 110643677.959 5       635.523 5        30.000 5
G26  20500757.062 3         0.000 3         0.000 3        23.000 3
G27  23067892.601 3         0.000 3         0.000 3        21.000 3
G29  23102725.696 6 121405575.393 6      2768.400 6        36.000 6
> 2016 03 03 22 55 45.0000000  0  9      0.033073993000   
G04  20593727.481 6 108220706.163 6      1454.806 6        36.000 6
G10  24190815.575 5 127123552.703 5     -3679.549 5        33.000 5
G16  20992808.560 3         0.000 3         0.000 3        20.000 3
G18  22264199.934 7 116999111.464 7     -2171.056 7        43.000 7
G20  22280522.989 6 117084929.662 6      1131.570 6        39.000 6
G21  21054923.421 5 110644314.929 5       636.129 5        30.000 5
G26  20500850.159 3         0.000 3         0.000 3        23.000 3
G27  23067353.494 3         0.000 3         0.000 3        21.000 3
G29  23103252.745 6 121408345.100 6      2768.739 6        36.000 6
> 2016 03 03 22 55 46.0000000  0  8      0.033133870000   
G04  20594004.316 6 108222160.942 6      1455.463 6        36.000 6
G10  24190115.255 5 127119872.166 5     -3679.538 5        33.000 5
G16  20992515.048 3         0.000 3         0.000 3        20.000 3
G20  22280738.327 6 117086061.183 6      1132.227 6        39.000 6
G21  21055044.413 5 110644950.685 5       636.488 5        30.000 5
G26  20500946.374 3         0.000 3         0.000 3        23.000 3
G27  23066818.546 3         0.000 3         0.000 3        21.000 3
G29  23103779.522 6 121411113.408 6      2768.914 6        36.000 6
> 2016 03 03 22 55 47.0000000  0  9      0.033193746000   
G04  20594281.611 6 108223618.170 6      1456.335 6        37.000 6
G10  24189415.299 5 127116193.607 5     -3679.138 5        33.000 5
G16  20992240.760 3         0.000 3         0.000 3        21.000 3
G18  22263373.908 7 116994770.677 7     -2169.917 7        43.000 7
G20  22280954.130 6 117087195.223 6      1133.171 6        40.000 6
G21  21055165.828 5 110645588.674 5       637.155 5        30.000 5
G26  20501039.798 3         0.000 3         0.000 3        23.000 3
G27  23066280.600 3         0.000 3         0.000 3        21.000 3
G29  23104306.688 6 121413883.750 6      2769.375 6        36.000 6
> 2016 03 03 22 55 48.0000000  0  8      0.033253623000   
G04  20594558.662 6 108225074.051 6      1456.571 6        37.000 6
G10  24188715.008 5 127112513.231 5     -3679.384 5        33.000 5
G16  20991949.534 3         0.000 3         0.000 3        21.000 3
G20  22281169.688 6 117088327.953 6      1133.438 6        40.000 6
G21  21055286.916 5 110646225.172 5       637.237 5        30.000 5
G26  20501132.567 3         0.000 3         0.000 3        22.000 3
G27  23065751.612 3         0.000 3         0.000 3        21.000 3
G29  23104833.511 6 121416652.305 6      2769.160 6        36.000 6
> 2016 03 03 22 55 49.0000000  0  9      0.033313499000   
G04  20594836.157 6 108226532.271 6      1457.331 6        37.000 6
G10  24188015.048 5 127108834.615 5     -3679.200 5        33.000 5
G16  20991669.797 3         0.000 3         0.000 3        21.000 3
G18  22262548.134 7 116990431.206 7     -2169.321 7        43.000 7
G20  22281385.714 6 117089463.108 6      1134.290 6        40.000 6
G21  21055408.449 5 110646863.750 5       637.740 5        30.000 5
G26  20501233.615 3         0.000 3         0.000 3        22.000 3
G27  23065225.937 3         0.000 3         0.000 3        21.000 3
G29  23105360.695 6 121419422.734 6      2769.458 6        37.000 6
> 2016 03 03 22 55 50.0000000  0  8      0.033373375000   
G04  20595113.741 6 108227990.947 6      1457.792 6        37.000 6
G10  24187315.099 5 127105155.905 5     -3679.292 5        33.000 5
G16  20991375.966 3         0.000 3         0.000 3        21.000 3
G20  22281601.825 6 117090598.718 6      1134.741 6        40.000 6
G21  21055530.027 5 110647502.634 5       638.048 5        30.000 5
G26  20501322.703 2         0.000 2         0.000 2        13.000 2
G27  23064693.382 3         0.000 3         0.000 3        21.000 3
G29  23105887.900 6 121422193.135 6      2769.437 6        37.000 6
> 2016 03 03 22 55 51.0000000  0  9      0.033433252000   
G04  20595391.121 6 108229448.500 6      1458.244 6        37.000 6
G10  24186614.831 5 127101475.495 5     -3679.415 5        33.000 5
G16  20991076.955 3         0.000 3         0.000 3        21.000 3
G18  22261722.612 7 116986093.014 7     -2168.870 7        43.000 7
G20  22281817.737 6 117091733.243 6      1135.234 6        40.000 6
G21  21055651.328 5 110648140.078 5       638.181 5        30.000 5
G26  20501405.655 2         0.000 2         0.000 2        15.000 2
G27  23064159.910 3         0.000 3         0.000 3        22.000 3
G29  23106414.801 6 121424961.972 6      2769.447 6        37.000 6
> 2016 03 03 22 55 52.0000000  0  8      0.033493128000   
G04  20595668.952 6 108230908.445 6      1459.055 6        37.000 6
G10  24185914.897 5 127097797.003 5     -3679.077 5        33.000 5
G16  20990791.488 3         0.000 3         0.000 3        21.000 3
G20  22282034.115 6 117092870.235 6      1136.127 6        40.000 6
G21  21055773.050 5 110648779.729 5       638.808 5        30.000 5
G26  20501496.236 2         0.000 2         0.000 2        14.000 2
G27  23063623.400 3         0.000 3         0.000 3        22.000 3
G29  23106942.058 6 121427732.735 6      2769.796 6        37.000 6
> 2016 03 03 22 55 53.0000000  0  9      0.033553004000   
G04  20595946.871 6 108232368.884 6      1459.548 6        37.000 6
G10  24185214.911 5 127094118.323 5     -3679.261 5        33.000 5
G16  20990516.285 3         0.000 3         0.000 3        22.000 3
G18  22260897.725 7 116981758.165 7     -2167.966 7        43.000 7
G20  22282250.587 6 117094007.721 6      1136.620 6        40.000 6
G21  21055894.786 5 110649419.662 5       639.095 5        30.000 5
G26  20501590.693 2         0.000 2         0.000 2        14.000 2
G27  23063087.576 3         0.000 3         0.000 3        22.000 3
G29  23107469.316 6 121430503.538 6      2769.837 6        37.000 6
> 2016 03 03 22 55 54.0000000  0  8      0.033612881000   
G04  20596224.599 6 108233828.302 6      1460.102 6        38.000 6
G10  24184514.638 5 127090438.160 5     -3679.169 5        33.000 5
G16  20990233.265 3         0.000 3         0.000 3        22.000 3
G20  22282466.877 6 117095144.217 6      1137.205 6        40.000 6
G21  21056016.312 5 110650058.417 5       639.485 5        30.000 5
G26  20501676.477 2         0.000 2         0.000 2        13.000 2
G27  23062552.835 3         0.000 3         0.000 3        22.000 3
G29  23107996.291 6 121433272.857 6      2769.930 6        37.000 6
> 2016 03 03 22 55 55.0000000  0  9      0.033672757000   
G04  20596502.737 6 108235289.870 6      1460.677 6        38.000 6
G10  24183814.672 5 127086759.634 5     -3679.107 5        33.000 5
G16  20989950.870 3         0.000 3         0.000 3        22.000 3
G18  22260072.806 7 116977423.128 7     -2167.227 7        43.000 7
G20  22282683.602 6 117096282.914 6      1137.831 6        40.000 6
G21  21056138.247 5 110650699.051 5       639.793 5        30.000 5
G26  20501750.392 2         0.000 2         0.000 2        13.000 2
G27  23062021.192 3         0.000 3         0.000 3        22.000 3
G29  23108523.595 6 121436043.882 6      2770.053 6        37.000 6
> 2016 03 03 22 55 56.0000000  0  8      0.033732633000   
G04  20596781.020 6 108236752.022 6      1461.262 6        38.000 6
G10  24183114.722 5 127083081.100 5     -3679.118 5        33.000 5
G16  20989660.778 3         0.000 3         0.000 3        22.000 3
G20  22282900.448 6 117097422.254 6      1138.467 6        40.000 6
G21  21056260.218 5 110651340.039 5       640.152 5        30.000 5
G26  20501848.233 2         0.000 2         0.000 2        13.000 2
G27  23061477.337 3         0.000 3         0.000 3        22.000 3
G29  23109050.938 6 121438815.043 6      2770.197 6        37.000 6
> 2016 03 03 22 55 57.0000000  0  9      0.033792510000   
G04  20597059.107 6 108238213.189 6      1461.857 6        38.000 6
G10  24182414.487 5 127079401.053 5     -3679.056 5        33.000 5
G16  20989381.870 3         0.000 3         0.000 3        22.000 3
G18  22259248.167 7 116973089.588 7     -2166.458 7        43.000 7
G20  22283117.114 6 117098560.644 6      1139.093 6        40.000 6
G21  21056381.988 5 110651979.800 5       640.501 5        30.000 5
G26  20501939.678 2         0.000 2         0.000 2        12.000 2
G27  23060941.998 3         0.000 3         0.000 3        23.000 3
G29  23109578.001 6 121441584.729 6      2770.299 6        37.000 6
> 2016 03 03 22 55 58.0000000  0  8      0.033852386000   
G04  20597337.617 6 108239676.525 6      1462.442 6        38.000 6
G10  24181714.547 5 127075722.625 5     -3679.005 5        33.000 5
G16  20989099.655 3         0.000 3         0.000 3        23.000 3
G20  22283334.203 6 117099701.169 6      1139.658 6        40.000 6
G21  21056504.137 5 110652621.523 5       640.881 5        30.000 5
G26  20502020.088 2         0.000 2         0.000 2        12.000 2
G27  23060410.251 3         0.000 3         0.000 3        23.000 3
G29  23110105.382 6 121444356.118 6      2770.422 6        37.000 6
> 2016 03 03 22 55 59.0000000  0  9      0.033912262000   
G04  20597616.244 6 108241140.537 6      1463.119 6        38.000 6
G10  24181014.632 5 127072044.334 5     -3678.871 5        33.000 5
G16  20988812.399 3         0.000 3         0.000 3        23.000 3
G18  22258424.127 7 116968759.268 7     -2165.575 7        43.000 7
G20  22283551.434 6 117100842.533 6      1140.489 6        40.000 6
G21  21056626.368 5 110653263.726 5       641.363 5        30.000 5
G26  20502091.970 2         0.000 2         0.000 2        12.000 2
G27  23059879.907 3         0.000 3         0.000 3        23.000 3
G29  23110632.824 6 121447127.798 6      2770.710 6        37.000 6
> 2016 03 03 22 56  0.0000000  0  8      0.033972139000   
G04  20597894.723 6 108242603.679 6      1463.828 6        38.000 6
G10  24180314.454 5 127068364.624 5     -3678.717 5        33.000 5
G16  20988526.902 3         0.000 3         0.000 3        23.000 3
G20  22283768.511 6 117101982.972 6      1141.146 6        40.000 6
G21  21056748.372 5 110653904.835 5       641.846 5        30.000 5
G26  20502178.218 2         0.000 2         0.000 2        12.000 2
G27  23059342.522 3         0.000 3         0.000 3        23.000 3
G29  23111159.998 6 121449898.070 6      2770.884 6        37.000 6
> 2016 03 03 22 56  1.0000000  0  9      0.034032015000   
G04  20598173.545 6 108244068.688 6      1464.125 6        38.000 6
G10  24179614.547 5 127064686.274 5     -3678.933 5        34.000 5
G16  20988239.833 3         0.000 3         0.000 3        23.000 3
G18  22257600.068 7 116964428.905 7     -2165.010 7        43.000 7
G20  22283985.948 6 117103125.352 6      1141.515 6        40.000 6
G21  21056870.694 5 110654547.640 5       641.969 5        30.000 5
G26  20502275.005 2         0.000 2         0.000 2        13.000 2
G27  23058812.437 3         0.000 3         0.000 3        23.000 3
G29  23111687.443 6 121452669.780 6      2770.741 6        37.000 6
> 2016 03 03 22 56  2.0000000  0  9      0.034091892000   
G04  20598452.092 6 108245532.267 6      1464.269 6        39.000 6
G10  24178914.234 5 127061005.895 5     -3679.384 5        34.000 5
G16  20987957.840 3         0.000 3         0.000 3        23.000 3
G18  22257187.893 7 116962262.962 7     -2165.041 7        43.000 7
G20  22284203.120 6 117104266.367 6      1141.721 6        40.000 6
G21  21056992.720 5 110655188.772 5       641.866 5        30.000 5
G26  20502371.001 2         0.000 2         0.000 2        13.000 2
G27  23058275.339 3         0.000 3         0.000 3        23.000 3
G29  23112214.538 6 121455439.654 6      2770.484 6        37.000 6
> 2016 03 03 22 56  3.0000000  0  9      0.034151768000   
G04  20598731.213 6 108246998.801 6      1465.644 6        39.000 6
G10  24178214.388 5 127057327.961 5     -3678.512 5        34.000 5
G16  20987658.933 4         0.000 4         0.000 4        24.000 4
G18  22256776.238 7 116960099.718 7     -2163.912 7        43.000 7
G20  22284420.841 6 117105410.285 6      1143.045 6        41.000 6
G21  21057115.271 5 110655832.666 5       643.057 5        30.000 5
G26  20502486.838 2         0.000 2         0.000 2        14.000 2
G27  23057744.185 3         0.000 3         0.000 3        23.000 3
G29  23112742.101 6 121458211.934 6      2771.315 6        37.000 6
> 2016 03 03 22 56  4.0000000  0  8      0.034211644000   
G04  20599010.435 6 108248465.839 6      1466.147 6        39.000 6
G10  24177514.538 5 127053650.033 5     -3678.512 5        34.000 5
G16  20987372.615 4         0.000 4         0.000 4        24.000 4
G20  22284638.688 6 117106554.846 6      1143.691 6        41.000 6
G21  21057237.837 5 110656476.820 5       643.313 5        30.000 5
G26  20502585.846 2         0.000 2         0.000 2        15.000 2
G27  23057204.152 3         0.000 3         0.000 3        23.000 3
G29  23113269.696 6 121460984.345 6      2771.449 6        38.000 6
> 2016 03 03 22 56  5.0000000  0  9      0.034271521000   
G04  20599289.519 6 108249932.123 6      1466.927 6        39.000 6
G10  24176814.404 5 127049970.689 5     -3678.389 5        34.000 5
G16  20987087.644 4         0.000 4         0.000 4        24.000 4
G18  22255952.871 7 116955772.935 7     -2163.030 7        43.000 7
G20  22284856.405 6 117107698.650 6      1144.471 6        41.000 6
G21  21057360.241 5 110657120.036 5       643.909 5        30.000 5
G26  20502674.653 2         0.000 2         0.000 2        15.000 2
G27  23056676.851 3         0.000 3         0.000 3        23.000 3
G29  23113797.049 6 121463755.499 6      2771.716 6        38.000 6
> 2016 03 03 22 56  6.0000000  0  9      0.034331398000   
G04  20599568.646 6 108251398.697 6      1467.256 6        39.000 6
G10  24176114.246 5 127046291.182 5     -3678.512 5        34.000 5
G16  20986801.287 4         0.000 4         0.000 4        24.000 4
G18  22255541.127 7 116953609.174 7     -2162.855 7        43.000 7
G20  22285074.181 6 117108842.836 6      1144.892 6        41.000 6
G21  21057482.626 5 110657763.251 5       643.950 5        30.000 5
G26  20502774.516 2         0.000 2         0.000 2        16.000 2
G27  23056155.353 4         0.000 4         0.000 4        24.000 4
G29  23114324.365 6 121466526.499 6      2771.613 6        38.000 6
> 2016 03 03 22 56  7.0000000  0  9      0.034391274000   
G04  20599848.182 6 108252867.418 6      1467.830 6        39.000 6
G10  24175414.389 5 127042613.285 5     -3678.481 5        34.000 5
G16  20986514.585 4         0.000 4         0.000 4        24.000 4
G18  22255129.750 7 116951447.328 7     -2162.516 7        43.000 7
G20  22285292.359 6 117109989.163 6      1145.457 6        41.000 6
G21  21057605.405 5 110658408.431 5       644.340 5        30.000 5
G26  20502868.344 2         0.000 2         0.000 2        17.000 2
G27  23055607.848 4         0.000 4         0.000 4        24.000 4
G29  23114851.995 6 121469299.204 6      2771.736 6        38.000 6
> 2016 03 03 22 56  8.0000000  0  9      0.034451151000   
G04  20600127.568 6 108254335.380 6      1468.652 6        39.000 6
G10  24174714.291 5 127038934.049 5     -3678.245 5        34.000 5
G16  20986228.615 4         0.000 4         0.000 4        24.000 4
G18  22254718.186 7 116949284.493 7     -2161.931 7        43.000 7
G20  22285510.397 6 117111134.745 6      1146.288 6        41.000 6
G21  21057727.969 5 110659052.634 5       644.935 5        30.000 5
G26  20502954.272 2         0.000 2         0.000 2        17.000 2
G27  23055075.369 4         0.000 4         0.000 4        24.000 4
G29  23115379.390 6 121472070.669 6      2772.075 6        38.000 6
> 2016 03 03 22 56  9.0000000  0  9      0.034511028000   
G04  20600407.140 6 108255804.251 6      1469.555 6        39.000 6
G10  24174014.241 5 127035255.149 5     -3677.906 5        34.000 5
G16  20985951.339 4         0.000 4         0.000 4        24.000 4
G18  22254306.757 7 116947122.402 7     -2161.192 7        43.000 7
G20  22285728.624 6 117112281.338 6      1147.294 6        41.000 6
G21  21057850.678 5 110659697.559 5       645.664 5        30.000 5
G26  20503055.820 3         0.000 3         0.000 3        23.000 3
G27  23054545.325 4         0.000 4         0.000 4        24.000 4
G29  23115906.877 6 121474842.626 6      2772.567 6        38.000 6
> 2016 03 03 22 56 10.0000000  0  9      0.034570905000   
G04  20600686.772 6 108257273.444 6      1469.883 6        40.000 6
G10  24173314.175 5 127031576.103 5     -3678.050 5        34.000 5
G16  20985660.735 4         0.000 4         0.000 4        24.000 4
G18  22253895.359 7 116944960.424 7     -2161.079 7        43.000 7
G20  22285946.902 6 117113428.210 6      1147.581 6        41.000 6
G21  21057973.421 5 110660342.665 5       645.838 5        30.000 5
G26  20503153.938 3         0.000 3         0.000 3        23.000 3
G27  23054012.369 4         0.000 4         0.000 4        24.000 4
G29  23116434.328 6 121477614.421 6      2772.403 6        38.000 6
> 2016 03 03 22 56 11.0000000  0  9      0.034630781000   
G04  20600966.812 6 108258744.800 6      1470.468 6        40.000 6
G10  24172614.403 5 127027898.660 5     -3678.019 5        34.000 5
G16  20985381.019 4         0.000 4         0.000 4        24.000 4
G18  22253484.335 7 116942800.422 7     -2160.669 7        43.000 7
G20  22286165.615 6 117114577.346 6      1148.269 6        41.000 6
G21  21058096.513 5 110660989.566 5       646.064 5        30.000 5
G26  20503242.900 3         0.000 3         0.000 3        23.000 3
G27  23053475.214 4         0.000 4         0.000 4        24.000 4
G29  23116962.109 6 121480387.919 6      2772.526 6        38.000 6
> 2016 03 03 22 56 12.0000000  0  8      0.034690658000   
G04  20601246.721 6 108260215.484 6      1471.371 6        40.000 6
G10  24171914.394 5 127024219.979 5     -3677.691 5        33.000 5
G16  20985096.871 4         0.000 4         0.000 4        24.000 4
G20  22286384.209 6 117115725.828 6      1149.182 6        41.000 6
G21  21058219.448 5 110661635.633 5       646.803 5        30.000 5
G26  20503330.965 3         0.000 3         0.000 3        23.000 3
G27  23052939.102 4         0.000 4         0.000 4        24.000 4
G29  23117489.691 6 121483160.303 6      2772.988 6        38.000 6
> 2016 03 03 22 56 13.0000000  0  9      0.034750535000   
G04  20601526.681 6 108261686.460 6      1471.659 6        40.000 6
G10  24171214.349 5 127020541.099 5     -3677.886 5        33.000 5
G16  20984808.225 4         0.000 4         0.000 4        24.000 4
G18  22252661.972 7 116938478.743 7     -2159.879 7        43.000 7
G20  22286602.860 6 117116874.665 6      1149.542 6        41.000 6
G21  21058342.413 5 110662281.862 5       646.967 5        30.000 5
G26  20503432.853 3         0.000 3         0.000 3        23.000 3
G27  23052415.861 4         0.000 4         0.000 4        24.000 4
G29  23118017.233 6 121485932.524 6      2772.824 6        38.000 6
> 2016 03 03 22 56 14.0000000  0  8      0.034810412000   
G04  20601806.774 6 108263158.166 6      1472.388 6        40.000 6
G10  24170514.322 5 127016862.340 5     -3677.763 5        34.000 5
G16  20984524.838 4         0.000 4         0.000 4        24.000 4
G20  22286821.648 6 117118024.246 6      1150.291 6        41.000 6
G21  21058465.382 5 110662928.396 5       647.265 5        30.000 5
G26  20503526.788 3         0.000 3         0.000 3        23.000 3
G27  23051873.493 4         0.000 4         0.000 4        24.000 4
G29  23118544.817 6 121488705.005 6      2773.091 6        38.000 6
> 2016 03 03 22 56 15.0000000  0  9      0.034870289000   
G04  20602086.994 6 108264630.481 6      1473.003 6        40.000 6
G10  24169814.325 5 127013183.689 5     -3677.660 5        34.000 5
G16  20984239.803 4         0.000 4         0.000 4        24.000 4
G18  22251839.910 7 116934158.608 7     -2158.955 7        44.000 7
G20  22287040.558 6 117119174.466 6      1150.927 6        41.000 6
G21  21058588.498 5 110663575.579 5       647.922 5        30.000 5
G26  20503621.933 3         0.000 3         0.000 3        23.000 3
G27  23051344.944 4         0.000 4         0.000 4        24.000 4
G29  23119072.432 6 121491477.614 6      2773.214 6        38.000 6
> 2016 03 03 22 56 16.0000000  0  8      0.034930166000   
G04  20602367.303 6 108266103.290 6      1473.496 6        40.000 6
G10  24169114.305 5 127009504.987 5     -3677.711 5        33.000 5
G16  20983945.030 4         0.000 4         0.000 4        24.000 4
G20  22287259.593 6 117120325.270 6      1151.512 6        41.000 6
G21  21058711.636 5 110664222.877 5       648.035 5        30.000 5
G26  20503706.955 3         0.000 3         0.000 3        23.000 3
G27  23050803.598 4         0.000 4         0.000 4        24.000 4
G29  23119600.054 6 121494250.322 6      2773.317 6        38.000 6
> 2016 03 03 22 56 17.0000000  0  9      0.034990043000   
G04  20602647.710 6 108267576.616 6      1474.009 6        40.000 6
G10  24168414.285 5 127005826.230 5     -3677.763 5        33.000 5
G16  20983667.785 4         0.000 4         0.000 4        24.000 4
G18  22251018.090 7 116929839.801 7     -2158.349 7        44.000 7
G20  22287478.719 6 117121476.595 6      1152.025 6        41.000 6
G21  21058834.853 5 110664870.443 5       648.301 5        30.000 5
G26  20503796.466 3         0.000 3         0.000 3        23.000 3
G27  23050279.062 4         0.000 4         0.000 4        24.000 4
G29  23120127.690 6 121497023.040 6      2773.327 6        38.000 6
> 2016 03 03 22 56 18.0000000  0  8      0.035049920000   
G04  20602928.161 6 108269050.135 6      1474.204 6        40.000 6
G10  24167714.188 5 127002147.149 5     -3678.091 5        33.000 5
G16  20983394.250 4         0.000 4         0.000 4        24.000 4
G20  22287697.889 6 117122628.144 6      1152.251 6        41.000 6
G21  21058958.114 4 110665518.133 4       648.425 4        29.000 4
G26  20503897.790 3         0.000 3         0.000 3        23.000 3
G27  23049740.240 4         0.000 4         0.000 4        24.000 4
G29  23120655.286 6 121499795.532 6      2773.101 6        39.000 6
> 2016 03 03 22 56 19.0000000  0  9      0.035109797000   
G04  20603208.794 6 108270524.715 6      1475.261 6        40.000 6
G10  24167014.193 5 126998468.608 5     -3677.547 5        33.000 5
G16  20983097.123 4         0.000 4         0.000 4        24.000 4
G18  22250196.501 7 116925522.138 7     -2157.487 7        44.000 7
G20  22287917.250 6 117123780.816 6      1153.380 6        41.000 6
G21  21059081.481 4 110666166.528 4       649.133 4        29.000 4
G26  20503983.345 3         0.000 3         0.000 3        23.000 3
G27  23049202.939 4         0.000 4         0.000 4        25.000 4
G29  23121182.990 6 121502568.602 6      2773.676 6        39.000 6
> 2016 03 03 22 56 20.0000000  0  9      0.035169674000   
G04  20603489.617 6 108272000.287 6      1476.257 6        41.000 6
G10  24166314.268 5 126994790.505 5     -3677.106 5        33.000 5
G16  20982816.690 4         0.000 4         0.000 4        24.000 4
G18  22249785.931 7 116923364.532 7     -2156.707 7        44.000 7
G20  22288136.797 6 117124934.511 6      1154.396 6        41.000 6
G21  21059205.032 4 110666815.856 4       650.067 4        29.000 4
G26  20504079.333 3         0.000 3         0.000 3        23.000 3
G27  23048668.972 4         0.000 4         0.000 4        25.000 4
G29  23121710.789 6 121505342.218 6      2774.220 6        39.000 6
> 2016 03 03 22 56 21.0000000  0  9      0.035229551000   
G04  20603770.543 6 108273476.385 6      1476.739 6        41.000 6
G10  24165614.351 5 126991112.337 5     -3677.219 5        33.000 5
G16  20982521.231 4         0.000 4         0.000 4        24.000 4
G18  22249375.424 7 116921207.236 7     -2156.430 7        44.000 7
G20  22288356.467 6 117126088.755 6      1154.909 6        41.000 6
G21  21059328.620 4 110667465.335 4       650.169 4        29.000 4
G26  20504169.017 3         0.000 3         0.000 3        22.000 3
G27  23048135.722 4         0.000 4         0.000 4        25.000 4
G29  23122238.590 6 121508115.859 6      2774.210 6        39.000 6
> 2016 03 03 22 56 22.0000000  0  8      0.035289427000   
G04  20604051.808 6 108274954.270 6      1476.996 6        41.000 6
G10  24164914.661 5 126987435.477 5     -3677.445 5        33.000 5
G16  20982246.214 4         0.000 4         0.000 4        24.000 4
G20  22288576.478 6 117127244.834 6      1155.207 6        41.000 6
G21  21059452.569 4 110668116.650 4       650.477 4        29.000 4
G26  20504268.328 3         0.000 3         0.000 3        22.000 3
G27  23047610.236 4         0.000 4         0.000 4        25.000 4
G29  23122766.658 6 121510890.883 6      2774.056 6        39.000 6
> 2016 03 03 22 56 23.0000000  0 10      0.035349304000   
G04  20604332.860 6 108276431.032 6      1477.448 6        41.000 6
G10  24164214.653 5 126983756.883 5     -3677.599 5        33.000 5
G16  20981961.777 4         0.000 4         0.000 4        24.000 4
G18  22248554.757 7 116916894.502 7     -2156.122 7        44.000 7
G20  22288796.276 6 117128399.856 6      1155.731 6        41.000 6
G21  21059576.217 4 110668766.339 4       650.426 4        29.000 4
G26  20504355.893 3         0.000 3         0.000 3        22.000 3
G27  23047076.331 4         0.000 4         0.000 4        25.000 4
G29  23123294.427 6 121513664.291 6      2774.015 6        39.000 6
G31  24868372.266 3         0.000 3         0.000 3        19.000 3
> 2016 03 03 22 56 24.0000000  0 10      0.035409181000   
G04  20604614.053 6 108277908.535 6      1478.187 6        41.000 6
G10  24163514.714 5 126980078.613 5     -3677.280 5        33.000 5
G16  20981678.101 4         0.000 4         0.000 4        24.000 4
G18  22248144.413 7 116914738.040 7     -2155.558 7        44.000 7
G20  22289016.213 6 117129555.617 6      1156.470 6        40.000 6
G21  21059699.933 4 110669416.624 4       651.021 4        29.000 4
G26  20504449.719 3         0.000 3         0.000 3        22.000 3
G27  23046541.490 4         0.000 4         0.000 4        25.000 4
G29  23123822.267 6 121516438.050 6      2774.364 6        39.000 6
G31  24869001.325 3         0.000 3         0.000 3        20.000 3
> 2016 03 03 22 56 25.0000000  0 10      0.035469058000   
G04  20604895.355 6 108279386.632 6      1478.782 6        40.000 6
G10  24162814.771 5 126976400.328 5     -3677.291 5        33.000 5
G16  20981404.073 4         0.000 4         0.000 4        24.000 4
G18  22247734.136 7 116912581.930 7     -2155.209 7        44.000 7
G20  22289236.278 6 117130712.035 6      1157.126 6        40.000 6
G21  21059823.769 4 110670067.358 4       651.473 4        29.000 4
G26  20504535.707 3         0.000 3         0.000 3        22.000 3
G27  23046008.525 4         0.000 4         0.000 4        25.000 4
G29  23124350.110 6 121519211.876 6      2774.435 6        39.000 6
G31  24869641.271 3         0.000 3         0.000 3        20.000 3
> 2016 03 03 22 56 26.0000000  0  9      0.035528935000   
G04  20605176.661 6 108280864.806 6      1478.864 6        40.000 6
G10  24162114.733 5 126972721.604 5     -3677.732 5        33.000 5
G16  20981124.204 4         0.000 4         0.000 4        24.000 4
G20  22289456.354 6 117131868.558 6      1157.229 6        40.000 6
G21  21059947.594 4 110670717.917 4       651.299 4        29.000 4
G26  20504641.478 3         0.000 3         0.000 3        21.000 3
G27  23045472.827 4         0.000 4         0.000 4        25.000 4
G29  23124877.881 6 121521985.352 6      2774.087 6        39.000 6
G31  24870259.323 3         0.000 3         0.000 3        20.000 3
> 2016 03 03 22 56 27.0000000  0 10      0.035588812000   
G04  20605458.153 6 108282343.970 6      1479.849 6        40.000 6
G10  24161414.781 5 126969043.306 5     -3677.301 5        33.000 5
G16  20980836.236 4         0.000 4         0.000 4        24.000 4
G18  22246913.682 7 116908270.301 7     -2154.521 7        44.000 7
G20  22289676.621 6 117133026.109 6      1158.255 6        40.000 6
G21  21060071.572 4 110671369.232 4       652.048 4        29.000 4
G26  20504742.501 3         0.000 3         0.000 3        21.000 3
G27  23044940.405 4         0.000 4         0.000 4        25.000 4
G29  23125405.752 6 121524759.344 6      2774.600 6        39.000 6
G31  24870890.278 3         0.000 3         0.000 3        20.000 3
> 2016 03 03 22 56 28.0000000  0  9      0.035648689000   
G04  20605739.802 6 108283823.920 6      1480.640 6        40.000 6
G10  24160714.884 5 126965365.218 5     -3677.096 5        33.000 5
G16  20980560.282 4         0.000 4         0.000 4        24.000 4
G20  22289897.042 6 117134184.471 6      1159.066 6        40.000 6
G21  21060195.668 4 110672021.118 4       652.623 4        29.000 4
G26  20504839.117 3         0.000 3         0.000 3        21.000 3
G27  23044403.318 4         0.000 4         0.000 4        25.000 4
G29  23125933.672 6 121527533.673 6      2774.938 6        39.000 6
G31  24871527.158 3         0.000 3         0.000 3        20.000 3
> 2016 03 03 22 56 29.0000000  0 10      0.035708565000   
G04  20606021.851 6 108285306.060 6      1481.245 6        40.000 6
G10  24160015.308 5 126961688.876 5     -3676.921 5        33.000 5
G16  20980282.169 4         0.000 4         0.000 4        25.000 4
G18  22246093.990 7 116903962.618 7     -2153.515 7        44.000 7
G20  22290117.894 6 117135345.082 6      1159.744 6        40.000 6
G21  21060320.143 4 110672675.003 4       653.043 4        29.000 4
G26  20504925.221 3         0.000 3         0.000 3        21.000 3
G27  23043870.106 4         0.000 4         0.000 4        25.000 4
G29  23126461.940 6 121530309.754 6      2775.113 6        39.000 6
G31  24872174.538 3         0.000 3         0.000 3        20.000 3
> 2016 03 03 22 56 30.0000000  0  9      0.035768442000   
G04  20606303.761 6 108286787.403 6      1482.025 6        40.000 6
G10  24159315.452 5 126958011.135 5     -3676.747 5        33.000 5
G16  20979995.627 4         0.000 4         0.000 4        25.000 4
G20  22290338.602 6 117136504.940 6      1160.565 6        40.000 6
G21  21060444.411 4 110673327.821 4       653.557 4        29.000 4
G26  20505015.832 3         0.000 3         0.000 3        20.000 3
G27  23043337.697 4         0.000 4         0.000 4        25.000 4
G29  23126989.970 6 121533084.560 6      2775.411 6        39.000 6
G31  24872812.334 3         0.000 3         0.000 3        20.000 3
> 2016 03 03 22 56 31.0000000  0 10      0.035828319000   
G04  20606585.783 6 108288269.340 6      1482.620 6        40.000 6
G10  24158615.628 5 126954333.463 5     -3676.675 5        33.000 5
G16  20979719.228 4         0.000 4         0.000 4        25.000 4
G18  22245274.381 7 116899655.351 7     -2152.509 7        44.000 7
G20  22290559.439 6 117137665.443 6      1161.211 6        40.000 6
G21  21060568.779 4 110673981.097 4       654.008 4        29.000 4
G26  20505105.651 3         0.000 3         0.000 3        20.000 3
G27  23042810.885 4         0.000 4         0.000 4        25.000 4
G29  23127518.027 6 121535859.538 6      2775.585 6        39.000 6
G31  24873446.277 3         0.000 3         0.000 3        20.000 3
> 2016 03 03 22 56 32.0000000  0  9      0.035888196000   
G04  20606867.792 6 108289751.243 6      1482.590 6        40.000 6
G10  24157915.670 5 126950655.136 5     -3677.332 5        33.000 5
G16  20979441.578 4         0.000 4         0.000 4        25.000 4
G20  22290780.252 6 117138825.906 6      1161.170 6        40.000 6
G21  21060693.057 5 110674634.015 5       653.649 5        30.000 5
G26  20505208.256 3         0.000 3         0.000 3        20.000 3
G27  23042272.752 4         0.000 4         0.000 4        25.000 4
G29  23128045.980 6 121538633.979 6      2775.051 6        39.000 6
G31  24874079.290 3         0.000 3         0.000 3        20.000 3
> 2016 03 03 22 56 33.0000000  0 10      0.035948073000   
G04  20607150.030 6 108291234.360 6      1483.801 6        40.000 6
G10  24157215.846 5 126946977.588 5     -3676.552 5        33.000 5
G16  20979150.504 4         0.000 4         0.000 4        26.000 4
G18  22244454.953 7 116895348.994 7     -2151.739 7        44.000 7
G20  22291001.318 6 117139987.663 6      1162.464 6        40.000 6
G21  21060817.527 5 110675288.083 5       654.798 5        30.000 5
G26  20505313.470 3         0.000 3         0.000 3        19.000 3
G27  23041734.815 4         0.000 4         0.000 4        25.000 4
G29  23128574.069 6 121541409.213 6      2775.842 6        39.000 6
G31  24874717.867 3         0.000 3         0.000 3        20.000 3
> 2016 03 03 22 56 34.0000000  0  9      0.036007950000   
G04  20607432.344 6 108292717.894 6      1484.222 6        40.000 6
G10  24156515.966 5 126943299.836 5     -3676.757 5        33.000 5
G16  20978871.373 4         0.000 4         0.000 4        26.000 4
G20  22291222.470 6 117141149.867 6      1162.905 6        40.000 6
G21  21060942.043 5 110675942.293 5       654.942 5        30.000 5
G26  20505407.451 3         0.000 3         0.000 3        19.000 3
G27  23041205.241 4         0.000 4         0.000 4        25.000 4
G29  23129102.169 6 121544184.386 6      2775.780 6        39.000 6
G31  24875347.515 3         0.000 3         0.000 3        20.000 3
> 2016 03 03 22 56 35.0000000  0 10      0.036067827000   
G04  20607714.815 6 108294202.238 6      1485.032 6        40.000 6
G10  24155816.175 5 126939622.459 5     -3676.387 5        32.000 5
G16  20978586.233 4         0.000 4         0.000 4        26.000 4
G18  22243635.914 7 116891044.707 7     -2150.949 7        44.000 7
G20  22291443.771 6 117142312.923 6      1163.757 6        40.000 6
G21  21061066.665 5 110676597.048 5       655.486 5        30.000 5
G26  20505513.854 3         0.000 3         0.000 3        19.000 3
G27  23040671.061 4         0.000 4         0.000 4        24.000 4
G29  23129630.337 6 121546959.929 6      2776.150 6        39.000 6
G31  24875977.868 3         0.000 3         0.000 3        20.000 3
> 2016 03 03 22 56 36.0000000  0  9      0.036127704000   
G04  20607997.405 6 108295687.258 6      1485.659 6        40.000 6
G10  24155116.422 5 126935945.197 5     -3676.305 5        32.000 5
G16  20978310.497 4         0.000 4         0.000 4        26.000 4
G20  22291665.204 6 117143476.675 6      1164.414 6        39.000 6
G21  21061191.404 5 110677252.324 5       655.969 5        30.000 5
G26  20505618.548 3         0.000 3         0.000 3        19.000 3
G27  23040137.876 4         0.000 4         0.000 4        24.000 4
G29  23130158.549 6 121549735.703 6      2776.345 6        39.000 6
G31  24876621.807 3         0.000 3         0.000 3        20.000 3
> 2016 03 03 22 56 37.0000000  0 10      0.036187581000   
G04  20608280.105 6 108297172.785 6      1486.213 6        40.000 6
G10  24154416.651 5 126932267.850 5     -3676.357 5        32.000 5
G16  20978025.723 4         0.000 4         0.000 4        27.000 4
G18  22242817.217 7 116886742.292 7     -2150.149 7        44.000 7
G20  22291886.773 6 117144641.045 6      1165.071 6        39.000 6
G21  21061316.172 5 110677907.794 5       656.205 5        30.000 5
G26  20505732.332 3         0.000 3         0.000 3        18.000 3
G27  23039602.300 4         0.000 4         0.000 4        24.000 4
G29  23130686.764 6 121552511.545 6      2776.447 6        39.000 6
G31  24877244.075 3         0.000 3         0.000 3        20.000 3
> 2016 03 03 22 56 38.0000000  0  9      0.036247458000   
G04  20608562.851 6 108298658.497 6      1486.398 6        40.000 6
G10  24153716.818 5 126928590.198 5     -3676.654 5        32.000 5
G16  20977743.794 4         0.000 4         0.000 4        27.000 4
G20  22292108.373 6 117145805.554 6      1165.214 6        39.000 6
G21  21061440.965 5 110678563.293 5       656.235 5        30.000 5
G26  20505821.460 3         0.000 3         0.000 3        18.000 3
G27  23039065.328 4         0.000 4         0.000 4        24.000 4
G29  23131214.915 6 121555287.056 6      2776.119 6        39.000 6
G31  24877883.163 3         0.000 3         0.000 3        20.000 3
> 2016 03 03 22 56 39.0000000  0 10      0.036307335000   
G04  20608845.734 6 108300144.950 6      1487.137 6        40.000 6
G10  24153016.993 5 126924912.689 5     -3676.511 5        32.000 5
G16  20977463.792 4         0.000 4         0.000 4        27.000 4
G18  22241998.671 7 116882440.687 7     -2149.625 7        44.000 7
G20  22292330.118 6 117146970.861 6      1166.015 6        39.000 6
G21  21061565.872 5 110679219.335 5       656.779 5        30.000 5
G26  20505942.664 2         0.000 2         0.000 2        13.000 2
G27  23038532.232 4         0.000 4         0.000 4        24.000 4
G29  23131743.126 6 121558062.902 6      2776.457 6        39.000 6
G31  24878515.961 3         0.000 3         0.000 3        20.000 3
> 2016 03 03 22 56 40.0000000  0 10      0.036367212000   
G04  20609128.785 6 108301632.300 6      1488.029 6        40.000 6
G10  24152317.249 5 126921235.585 5     -3676.110 5        32.000 5
G16  20977177.557 4         0.000 4         0.000 4        27.000 4
G18  22241589.585 7 116880290.881 7     -2148.907 7        44.000 7
G20  22292552.051 6 117148137.146 6      1166.990 6        39.000 6
G21  21061690.876 5 110679876.073 5       657.477 5        30.000 5
G26  20506049.767 2         0.000 2         0.000 2        12.000 2
G27  23038002.251 4         0.000 4         0.000 4        24.000 4
G29  23132271.416 6 121560839.188 6      2776.889 6        39.000 6
G31  24879157.058 3         0.000 3         0.000 3        20.000 3
> 2016 03 03 22 56 41.0000000  0 10      0.036427089000   
G04  20609411.969 6 108303120.317 6      1488.697 6        40.000 6
G10  24151617.544 5 126917558.609 5     -3675.987 5        32.000 5
G16  20976896.544 4         0.000 4     -1477.915 4        27.000 4
G18  22241180.585 7 116878141.528 7     -2148.455 7        44.000 7
G20  22292774.112 6 117149304.080 6      1167.637 6        39.000 6
G21  21061815.987 5 110680533.241 5       657.898 5        30.000 5
G26  20506141.807 2         0.000 2         0.000 2        12.000 2
G27  23037468.523 4         0.000 4         0.000 4        24.000 4
G29  23132799.744 6 121563615.655 6      2777.073 6        39.000 6
G31  24879776.329 3         0.000 3         0.000 3        20.000 3
> 2016 03 03 22 56 42.0000000  0  9      0.036486966000   
G04  20609695.225 6 108304608.731 6      1489.097 6        40.000 6
G10  24150917.821 5 126913881.536 5     -3676.080 5        32.000 5
G16  20976616.009 4 110232618.619 4     -1477.843 4        27.000 4
G20  22292996.271 6 117150471.491 6      1168.119 6        39.000 6
G21  21061941.129 5 110681190.616 5       658.114 5        30.000 5
G26  20506249.509 2         0.000 2         0.000 2        12.000 2
G27  23036941.537 4         0.000 4         0.000 4        24.000 4
G29  23133328.063 6 121566392.099 6      2777.053 6        39.000 6
G31  24880410.136 3         0.000 3         0.000 3        20.000 3
> 2016 03 03 22 56 43.0000000  0 10      0.036546843000   
G04  20609978.511 6 108306097.310 6      1489.261 6        40.000 6
G10  24150218.022 5 126910204.043 5     -3676.500 5        32.000 5
G16  20976333.509 4 110231140.090 4     -1477.668 4        27.000 4
G18  22240362.655 7 116873843.174 7     -2148.301 7        44.000 7
G20  22293218.467 6 117151639.132 6      1168.345 6        39.000 6
G21  21062066.253 5 110681847.921 5       658.042 5        30.000 5
G26  20506357.865 2         0.000 2         0.000 2        12.000 2
G27  23036404.484 4         0.000 4         0.000 4        24.000 4
G29  23133856.340 6 121569168.244 6      2776.755 6        39.000 6
G31  24881045.479 3         0.000 3         0.000 3        20.000 3
> 2016 03 03 22 56 44.0000000  0  9      0.036606720000   
G04  20610261.947 6 108307586.662 6      1490.041 6        40.000 6
G10  24149518.268 5 126906526.824 5     -3676.223 5        32.000 5
G16  20976051.939 4 110229662.201 4     -1477.022 4        27.000 4
G20  22293440.804 6 117152807.537 6      1169.104 6        39.000 6
G21  21062191.508 5 110682505.812 5       658.627 5        30.000 5
G26  20506474.198 1         0.000 1         0.000 1        11.000 1
G27  23035871.088 4         0.000 4         0.000 4        24.000 4
G29  23134384.676 6 121571944.684 6      2777.053 6        39.000 6
G31  24881679.300 3         0.000 3         0.000 3        20.000 3
> 2016 03 03 22 56 45.0000000  0 10      0.036666597000   
G04  20610545.568 6 108309076.976 6      1490.996 6        40.000 6
G10  24148818.587 5 126902849.874 5     -3675.956 5        32.000 5
G16  20975770.796 4 110228185.175 4     -1476.159 4        27.000 4
G18  22239545.096 7 116869546.706 7     -2146.957 7        44.000 7
G20  22293663.320 6 117153976.936 6      1170.100 6        39.000 6
G21  21062316.871 5 110683164.343 5       659.263 5        30.000 5
G26  20506545.522 1         0.000 1         0.000 1        11.000 1
G27  23035337.173 4         0.000 4         0.000 4        24.000 4
G29  23134913.109 6 121574721.613 6      2777.535 6        40.000 6
G31  24882308.055 3         0.000 3         0.000 3        20.000 3
> 2016 03 03 22 56 46.0000000  0  9      0.036726474000   
G04  20610829.325 6 108310568.015 6      1491.724 6        40.000 6
G10  24148118.974 5 126899173.280 5     -3675.597 5        32.000 5
G16  20975489.713 4 110226708.982 4     -1475.328 4        27.000 4
G20  22293885.994 6 117155147.123 6      1170.890 6        39.000 6
G21  21062442.311 5 110683823.498 5       659.889 5        30.000 5
G26  20506616.066 2         0.000 2         0.000 2        12.000 2
G27  23034809.707 4         0.000 4         0.000 4        24.000 4
G29  23135441.580 6 121577498.832 6      2777.823 6        40.000 6
G31  24882941.299 3         0.000 3         0.000 3        20.000 3
> 2016 03 03 22 56 47.0000000  0 10      0.036786351000   
G04  20611113.170 6 108312059.487 6      1492.156 6        41.000 6
G10  24147419.343 5 126895496.557 5     -3675.731 5        32.000 5
G16  20975208.595 4 110225232.989 4     -1475.133 4        27.000 4
G18  22238727.920 7 116865252.331 7     -2146.166 7        44.000 7
G20  22294108.774 6 117156317.810 6      1171.393 6        39.000 6
G21  21062567.787 5 110684482.858 5       660.095 5        30.000 5
G26  20506659.166 2         0.000 2         0.000 2        13.000 2
G27  23034276.184 4         0.000 4         0.000 4        24.000 4
G29  23135970.064 6 121580276.079 6      2777.853 6        40.000 6
G31  24883581.214 3         0.000 3         0.000 3        20.000 3
> 2016 03 03 22 56 48.0000000  0 10      0.036846228000   
G04  20611397.024 6 108313551.036 6      1492.238 6        41.000 6
G10  24146719.579 5 126891819.298 5     -3676.264 5        32.000 5
G16  20974927.735 4 110223757.082 4     -1475.041 4        27.000 4
G18  22238319.333 7 116863105.094 7     -2146.330 7        44.000 7
G20  22294331.547 6 117157488.535 6      1171.434 6        39.000 6
G21  21062693.185 5 110685142.011 5       659.889 5        30.000 5
G26  20506774.362 2         0.000 2         0.000 2        14.000 2
G27  23033743.263 4         0.000 4         0.000 4        24.000 4
G29  23136498.453 6 121583052.869 6      2777.402 6        40.000 6
G31  24884217.180 3         0.000 3         0.000 3        20.000 3
> 2016 03 03 22 56 49.0000000  0 10      0.036906105000   
G04  20611681.078 6 108315043.671 6      1493.315 6        41.000 6
G10  24146019.949 5 126888142.681 5     -3675.618 5        32.000 5
G16  20974646.980 4 110222282.258 4     -1473.963 4        27.000 4
G18  22237910.911 7 116860958.757 7     -2145.438 7        44.000 7
G20  22294554.537 6 117158660.452 6      1172.625 6        39.000 6
G21  21062818.777 5 110685802.099 5       660.823 5        30.000 5
G26  20506895.562 2         0.000 2         0.000 2        15.000 2
G27  23033202.207 4         0.000 4         0.000 4        24.000 4
G29  23137026.972 6 121585830.319 6      2778.059 6        40.000 6
G31  24884849.072 3         0.000 3         0.000 3        20.000 3
> 2016 03 03 22 56 50.0000000  0 10      0.036965982000   
G04  20611965.289 6 108316537.125 6      1494.136 6        41.000 6
G10  24145320.379 5 126884466.318 5     -3675.371 5        32.000 5
G16  20974366.731 4 110220808.127 4     -1473.265 4        27.000 4
G18  22237502.602 7 116858813.051 7     -2144.801 7        44.000 7
G20  22294777.695 6 117159833.188 6      1173.436 6        39.000 6
G21  21062944.435 4 110686462.736 4       661.367 4        29.000 4
G26  20506953.937 2         0.000 2         0.000 2        17.000 2
G27  23032667.061 4         0.000 4         0.000 4        24.000 4
G29  23137555.561 6 121588608.139 6      2778.428 6        40.000 6
G31  24885480.176 3         0.000 3         0.000 3        20.000 3
> 2016 03 03 22 56 51.0000000  0 10      0.037025859000   
G04  20612249.576 6 108318030.986 6      1494.506 6        41.000 6
G10  24144620.771 5 126880789.795 5     -3675.577 5        32.000 5
G16  20974086.390 4 110219334.364 4     -1472.947 4        27.000 4
G18  22237094.326 7 116856667.560 7     -2144.627 7        44.000 7
G20  22295000.945 6 117161006.424 6      1173.897 6        39.000 6
G21  21063070.133 4 110687123.580 4       661.531 4        29.000 4
G26  20507083.647 2         0.000 2         0.000 2        17.000 2
G27  23032133.518 3         0.000 3         0.000 3        23.000 3
G29  23138084.143 6 121591385.934 6      2778.356 6        40.000 6
G31  24886112.826 3         0.000 3         0.000 3        20.000 3
> 2016 03 03 22 56 52.0000000  0  9      0.037085736000   
G04  20612533.940 6 108319525.308 6      1495.009 6        41.000 6
G10  24143921.141 5 126877113.166 5     -3675.638 5        31.000 5
G16  20973806.141 4 110217861.110 4     -1472.393 4        27.000 4
G20  22295224.283 6 117162180.090 6      1174.370 6        39.000 6
G21  21063195.911 4 110687784.685 4       661.839 4        29.000 4
G26  20507175.423 3         0.000 3         0.000 3        18.000 3
G27  23031605.225 3         0.000 3         0.000 3        23.000 3
G29  23138612.720 6 121594163.697 6      2778.366 6        40.000 6
G31  24886754.088 3         0.000 3         0.000 3        20.000 3
> 2016 03 03 22 56 53.0000000  0 10      0.037145613000   
G04  20612818.417 6 108321020.235 6      1495.614 6        41.000 6
G10  24143221.532 5 126873436.733 5     -3675.443 5        31.000 5
G16  20973525.504 4 110216388.207 4     -1472.044 4        27.000 4
G18  22236277.950 7 116852377.499 7     -2143.939 7        43.000 7
G20  22295447.753 6 117163354.445 6      1175.057 6        39.000 6
G21  21063321.730 4 110688446.161 4       662.209 4        29.000 4
G26  20507270.479 3         0.000 3         0.000 3        18.000 3
G27  23031069.885 3         0.000 3         0.000 3        23.000 3
G29  23139141.327 6 121596941.603 6      2778.510 6        40.000 6
G31  24887381.998 3         0.000 3         0.000 3        20.000 3
> 2016 03 03 22 56 54.0000000  0 10      0.037205490000   
G04  20613102.996 6 108322515.667 6      1496.117 6        41.000 6
G10  24142521.915 5 126869760.191 5     -3675.546 5        31.000 5
G16  20973245.370 4 110214915.878 4     -1471.469 4        27.000 4
G18  22235869.861 7 116850232.995 7     -2143.600 7        43.000 7
G20  22295671.329 6 117164529.343 6      1175.601 6        38.000 6
G21  21063447.532 4 110689107.902 4       662.476 4        29.000 4
G26  20507369.366 3         0.000 3         0.000 3        19.000 3
G27  23030528.372 3         0.000 3         0.000 3        23.000 3
G29  23139669.971 6 121599719.617 6      2778.623 6        40.000 6
G31  24888022.752 3         0.000 3         0.000 3        20.000 3
> 2016 03 03 22 56 55.0000000  0 10      0.037265367000   
G04  20613387.701 6 108324011.816 6      1496.836 6        41.000 6
G10  24141822.323 5 126866083.767 5     -3675.433 5        31.000 5
G16  20972963.003 4         0.000 4         0.000 4        27.000 4
G18  22235461.873 7 116848088.983 7     -2143.108 7        43.000 7
G20  22295895.014 6 117165704.961 6      1176.320 6        38.000 6
G21  21063573.446 4 110689770.203 4       663.040 4        29.000 4
G26  20507472.393 3         0.000 3         0.000 3        19.000 3
G27  23030005.649 3         0.000 3         0.000 3        23.000 3
G29  23140198.650 6 121602497.841 6      2778.828 6        40.000 6
G31  24888647.469 3         0.000 3         0.000 3        21.000 3
> 2016 03 03 22 56 56.0000000  0  9      0.037325243000   
G04  20613672.468 6 108325508.279 6      1496.573 6        41.000 6
G10  24141122.696 5 126862407.193 5     -3676.157 5        31.000 5
G16  20972684.848 4         0.000 4         0.000 4        27.000 4
G20  22296118.759 6 117166880.943 6      1176.109 6        38.000 6
G21  21063699.442 4 110690432.605 4       662.562 4        28.000 4
G26  20507555.588 3         0.000 3         0.000 3        20.000 3
G27  23029462.180 3         0.000 3         0.000 3        23.000 3
G29  23140727.302 6 121605275.935 6      2778.125 6        40.000 6
G31  24889276.878 3         0.000 3         0.000 3        21.000 3
> 2016 03 03 22 56 57.0000000  0 10      0.037385120000   
G04  20613957.049 6 108327003.773 6      1497.179 6        41.000 6
G10  24140422.783 5 126858729.121 5     -3676.075 5        31.000 5
G16  20972407.521 4         0.000 4         0.000 4        27.000 4
G18  22234645.725 7 116843800.063 7     -2143.134 7        43.000 7
G20  22296342.352 6 117168056.025 6      1176.786 6        38.000 6
G21  21063825.172 4 110691093.761 4       662.891 4        28.000 4
G26  20507657.207 3         0.000 3         0.000 3        20.000 3
G27  23028927.189 3         0.000 3         0.000 3        23.000 3
G29  23141255.659 6 121608052.573 6      2778.248 6        40.000 6
G31  24889911.806 3         0.000 3         0.000 3        21.000 3
> 2016 03 03 22 56 58.0000000  0  9      0.037444997000   
G04  20614242.488 6 108328503.824 6      1499.736 6        40.000 6
G10  24139723.657 5 126855055.068 5     -3674.062 5        31.000 5
G16  20972124.017 4         0.000 4         0.000 4        26.000 4
G20  22296566.805 6 117169235.654 6      1179.333 6        38.000 6
G21  21063951.780 4 110691759.355 4       665.325 4        28.000 4
G26  20507769.665 3         0.000 3         0.000 3        20.000 3
G27  23028392.109 3         0.000 3         0.000 3        22.000 3
G29  23141784.801 6 121610833.350 6      2780.384 6        40.000 6
G31  24890543.542 3         0.000 3         0.000 3        21.000 3
> 2016 03 03 22 56 59.0000000  0 10      0.037504874000   
G04  20614527.915 6 108330003.841 6      1499.705 6        40.000 6
G10  24139024.412 5 126851380.406 5     -3674.668 5        31.000 5
G16  20971843.481 4         0.000 4         0.000 4        26.000 4
G18  22233830.968 7 116839518.448 7     -2141.049 7        43.000 7
G20  22296791.270 6 117170415.303 6      1179.353 6        38.000 6
G21  21064078.300 4 110692424.591 4       664.965 4        28.000 4
G26  20507857.896 3         0.000 3         0.000 3        20.000 3
G27  23027855.124 3         0.000 3         0.000 3        22.000 3
G29  23142313.858 6 121613613.629 6      2779.891 6        40.000 6
G31  24891172.992 3         0.000 3         0.000 3        21.000 3
> 2016 03 03 22 57  0.0000000  0  9      0.037564752000   
G04  20614813.055 6 108331502.352 6      1499.767 6        40.000 6
G10  24138324.773 5 126847703.687 5     -3675.150 5        31.000 5
G16  20971568.234 4         0.000 4         0.000 4        26.000 4
G20  22297015.453 6 117171593.503 6      1179.476 6        38.000 6
G21  21064204.499 4 110693088.143 4       664.863 4        28.000 4
G26  20507955.790 3         0.000 3         0.000 3        21.000 3
G27  23027338.664 3         0.000 3         0.000 3        22.000 3
G29  23142842.540 6 121616391.916 6      2779.471 6        40.000 6
G31  24891810.404 3         0.000 3         0.000 3        21.000 3
> 2016 03 03 22 57  1.0000000  0 10      0.037624629000   
G04  20615098.547 6 108333002.744 6      1500.075 6        40.000 6
G10  24137625.400 5 126844028.378 5     -3675.314 5        31.000 5
G16  20971279.212 4         0.000 4         0.000 4        26.000 4
G18  22233015.826 7 116835234.880 7     -2141.049 7        43.000 7
G20  22297239.969 6 117172773.609 6      1179.805 6        38.000 6
G21  21064331.049 4 110693753.400 4       664.996 4        28.000 4
G26  20508058.271 3         0.000 3         0.000 3        21.000 3
G27  23026809.341 3         0.000 3         0.000 3        22.000 3
G29  23143371.499 6 121619171.652 6      2779.347 6        40.000 6
G31  24892442.886 3         0.000 3         0.000 3        21.000 3
> 2016 03 03 22 57  2.0000000  0  9      0.037684506000   
G04  20615384.093 6 108334503.411 6      1500.352 6        40.000 6
G10  24136925.992 5 126840352.841 5     -3675.540 5        31.000 5
G16  20970990.801 4         0.000 4         0.000 4        26.000 4
G20  22297464.560 6 117173954.035 6      1180.133 6        38.000 6
G21  21064457.531 4 110694418.625 4       664.955 4        28.000 4
G26  20508163.204 3         0.000 3         0.000 3        21.000 3
G27  23026268.577 3         0.000 3         0.000 3        22.000 3
G29  23143900.421 6 121621951.244 6      2779.204 6        40.000 6
G31  24893080.757 3         0.000 3         0.000 3        21.000 3
> 2016 03 03 22 57  3.0000000  0 10      0.037744384000   
G04  20615669.424 6 108336002.921 6      1500.773 6        40.000 6
G10  24136226.236 5 126836675.458 5     -3675.817 5        31.000 5
G16  20970718.173 4         0.000 4         0.000 4        26.000 4
G18  22232200.774 7 116830951.742 7     -2140.762 7        43.000 7
G20  22297688.926 6 117175133.313 6      1180.554 6        38.000 6
G21  21064583.825 4 110695082.581 4       665.263 4        28.000 4
G26  20508260.320 3         0.000 3         0.000 3        21.000 3
G27  23025731.090 3         0.000 3         0.000 3        22.000 3
G29  23144429.029 6 121624729.186 6      2779.122 6        40.000 6
G31  24893704.717 3         0.000 3         0.000 3        21.000 3
> 2016 03 03 22 57  4.0000000  0 10      0.037804261000   
G04  20615955.067 6 108337504.111 6      1501.875 6        40.000 6
G10  24135526.701 5 126832999.337 5     -3675.125 5        31.000 5
G16  20970445.194 4         0.000 4         0.000 4        25.000 4
G18  22231793.405 7 116828811.013 7     -2139.823 7        43.000 7
G20  22297913.633 6 117176314.349 6      1181.739 6        38.000 6
G21  21064710.371 4 110695747.927 4       666.078 4        28.000 4
G26  20508365.357 3         0.000 3         0.000 3        21.000 3
G27  23025199.095 3         0.000 3         0.000 3        22.000 3
G29  23144957.873 6 121627508.362 6      2779.783 6        40.000 6
G31  24894336.908 3         0.000 3         0.000 3        21.000 3
> 2016 03 03 22 57  5.0000000  0 10      0.037864138000   
G04  20616240.881 6 108339006.139 6      1502.707 6        40.000 6
G10  24134827.203 5 126829323.517 5     -3674.827 5        31.000 5
G16  20970158.674 4         0.000 4         0.000 4        25.000 4
G18  22231386.152 7 116826670.888 7     -2139.228 7        43.000 7
G20  22298138.514 6 117177496.246 6      1182.601 6        37.000 6
G21  21064837.078 4 110696413.904 4       666.715 4        28.000 4
G26  20508465.471 3         0.000 3         0.000 3        22.000 3
G27  23024662.930 3         0.000 3         0.000 3        21.000 3
G29  23145486.788 6 121630287.882 6      2780.132 6        40.000 6
G31  24894973.812 3         0.000 3         0.000 3        21.000 3
> 2016 03 03 22 57  6.0000000  0  9      0.037924014000   
G04  20616527.159 6 108340510.544 6      1503.476 6        40.000 6
G10  24134128.067 5 126825649.480 5     -3674.663 5        31.000 5
G16  20969880.610 4         0.000 4         0.000 4        25.000 4
G20  22298363.849 6 117178680.539 6      1183.381 6        37.000 6
G21  21064964.217 4 110697082.101 4       667.310 4        28.000 4
G26  20508561.352 3         0.000 3         0.000 3        22.000 3
G27  23024134.584 3         0.000 3         0.000 3        21.000 3
G29  23146016.068 6 121633069.364 6      2780.471 6        40.000 6
G31  24895600.517 3         0.000 3         0.000 3        21.000 3
> 2016 03 03 22 57  7.0000000  0 10      0.037983891000   
G04  20616813.254 6 108342014.022 6      1504.164 6        40.000 6
G10  24133428.691 5 126821974.036 5     -3674.448 5        31.000 5
G16  20969608.812 4         0.000 4         0.000 4        25.000 4
G18  22230572.265 7 116822393.920 7     -2138.140 7        43.000 7
G20  22298589.006 6 117179863.979 6      1184.141 6        37.000 6
G21  21065091.083 4 110697749.050 4       667.679 4        28.000 4
G26  20508655.863 3         0.000 3         0.000 3        22.000 3
G27  23023601.180 3         0.000 3         0.000 3        21.000 3
G29  23146545.082 6 121635849.436 6      2780.676 6        40.000 6
G31  24896232.762 3         0.000 3         0.000 3        21.000 3
> 2016 03 03 22 57  8.0000000  0  9      0.038043768000   
G04  20617099.381 6 108343517.701 6      1504.359 6        40.000 6
G10  24132729.234 5 126818298.288 5     -3674.755 5        30.000 5
G16  20969327.153 4         0.000 4         0.000 4        25.000 4
G20  22298814.217 6 117181047.659 6      1184.387 6        37.000 6
G21  21065217.970 4 110698416.054 4       667.741 4        28.000 4
G26  20508755.991 3         0.000 3         0.000 3        23.000 3
G27  23023069.518 3         0.000 3         0.000 3        21.000 3
G29  23147074.075 6 121638629.303 6      2780.471 6        40.000 6
G31  24896860.874 3         0.000 3         0.000 3        21.000 3
> 2016 03 03 22 57  9.0000000  0 10      0.038103645000   
G04  20617385.643 6 108345022.031 6      1505.016 6        40.000 6
G10  24132029.800 5 126814622.621 5     -3674.673 5        30.000 5
G16  20969046.867 4         0.000 4         0.000 4        25.000 4
G18  22229758.261 7 116818116.345 7     -2137.658 7        43.000 7
G20  22299039.577 6 117182232.027 6      1185.075 6        37.000 6
G21  21065344.955 4 110699083.473 4       668.152 4        28.000 4
G26  20508852.556 3         0.000 3         0.000 3        23.000 3
G27  23022532.139 3         0.000 3         0.000 3        21.000 3
G29  23147603.097 6 121641409.333 6      2780.635 6        40.000 6
G31  24897499.450 3         0.000 3         0.000 3        21.000 3
> 2016 03 03 22 57 10.0000000  0 10      0.038163522000   
G04  20617672.065 6 108346527.256 6      1505.909 6        40.000 6
G10  24131330.409 5 126810947.241 5     -3674.386 5        30.000 5
G16  20968766.588 4         0.000 4         0.000 4        25.000 4
G18  22229351.429 7 116815978.460 7     -2136.980 7        43.000 7
G20  22299265.114 6 117183417.286 6      1185.957 6        37.000 6
G21  21065472.095 4 110699751.627 4       668.891 4        28.000 4
G26  20508949.013 3         0.000 3         0.000 3        23.000 3
G27  23022006.405 3         0.000 3         0.000 3        21.000 3
G29  23148132.185 6 121644189.772 6      2781.045 6        40.000 6
G31  24898133.701 3         0.000 3         0.000 3        21.000 3
> 2016 03 03 22 57 11.0000000  0 10      0.038223399000   
G04  20617958.622 6 108348033.169 6      1506.597 6        40.000 6
G10  24130631.034 5 126807272.049 5     -3674.201 5        30.000 5
G16  20968483.179 4         0.000 4         0.000 4        25.000 4
G18  22228944.695 7 116813841.065 7     -2136.498 7        43.000 7
G20  22299490.778 6 117184603.252 6      1186.666 6        37.000 6
G21  21065599.328 4 110700420.155 4       669.260 4        28.000 4
G26  20509043.977 3         0.000 3         0.000 3        23.000 3
G27  23021482.249 3         0.000 3         0.000 3        21.000 3
G29  23148661.324 6 121646970.469 6      2781.302 6        40.000 6
G31  24898767.546 3         0.000 3         0.000 3        21.000 3
> 2016 03 03 22 57 12.0000000  0 10      0.038283276000   
G04  20618245.285 6 108349539.643 6      1507.161 6        40.000 6
G10  24129931.730 5 126803596.960 5     -3674.099 5        30.000 5
G16  20968208.021 4         0.000 4         0.000 4        25.000 4
G18  22228538.034 7 116811704.061 7     -2136.098 7        43.000 7
G20  22299716.576 6 117185789.873 6      1187.322 6        37.000 6
G21  21065726.640 4 110701089.076 4       669.660 4        28.000 4
G26  20509153.994 3         0.000 3         0.000 3        23.000 3
G27  23020946.745 3         0.000 3         0.000 3        21.000 3
G29  23149190.488 6 121649751.277 6      2781.415 6        40.000 6
G31  24899403.379 3         0.000 3         0.000 3        21.000 3
> 2016 03 03 22 57 13.0000000  0 10      0.038343153000   
G04  20618531.975 6 108351046.218 6      1507.264 6        40.000 6
G10  24129232.317 5 126799921.406 5     -3674.560 5        30.000 5
G16  20967931.179 4         0.000 4         0.000 4        25.000 4
G18  22228131.352 7 116809566.950 7     -2136.210 7        43.000 7
G20  22299942.406 6 117186976.643 6      1187.476 6        37.000 6
G21  21065853.984 4 110701757.889 4       669.547 4        28.000 4
G26  20509253.089 3         0.000 3         0.000 3        23.000 3
G27  23020416.642 3         0.000 3         0.000 3        21.000 3
G29  23149719.581 6 121652531.718 6      2781.045 6        40.000 6
G31  24900044.315 3         0.000 3         0.000 3        21.000 3
> 2016 03 03 22 57 14.0000000  0 10      0.038403030000   
G04  20618818.811 6 108352553.505 6      1507.972 6        40.000 6
G10  24128532.932 5 126796246.011 5     -3674.396 5        30.000 5
G16  20967653.483 4         0.000 4         0.000 4        25.000 4
G18  22227724.778 7 116807430.360 7     -2135.687 7        43.000 7
G20  22300168.378 6 117188164.158 6      1188.215 6        37.000 6
G21  21065981.408 4 110702427.210 4       670.050 4        28.000 4
G26  20509352.714 3         0.000 3         0.000 3        23.000 3
G27  23019893.661 3         0.000 3         0.000 3        21.000 3
G29  23150248.729 6 121655312.418 6      2781.312 6        40.000 6
G31  24900687.107 3         0.000 3         0.000 3        21.000 3
> 2016 03 03 22 57 15.0000000  0 10      0.038462907000   
G04  20619105.855 6 108354061.911 6      1509.091 6        40.000 6
G10  24127833.651 5 126792571.210 5     -3673.811 5        30.000 5
G16  20967378.686 4         0.000 4         0.000 4        25.000 4
G18  22227318.383 7 116805294.692 7     -2134.763 7        43.000 7
G20  22300394.582 6 117189352.820 6      1189.365 6        37.000 6
G21  21066108.980 4 110703097.468 4       670.995 4        28.000 4
G26  20509453.403 3         0.000 3         0.000 3        23.000 3
G27  23019349.367 3         0.000 3         0.000 3        21.000 3
G29  23150778.010 6 121658093.817 6      2782.010 6        40.000 6
G31  24901308.434 3         0.000 3         0.000 3        21.000 3
> 2016 03 03 22 57 16.0000000  0  9      0.038522784000   
G04  20619392.983 6 108355570.729 6      1509.501 6        40.000 6
G10  24127134.327 5 126788896.238 5     -3673.975 5        30.000 5
G16  20967098.005 4         0.000 4         0.000 4        25.000 4
G20  22300620.870 6 117190541.898 6      1189.786 6        37.000 6
G21  21066236.553 4 110703767.786 4       671.056 4        28.000 4
G26  20509552.091 3         0.000 3         0.000 3        23.000 3
G27  23018818.190 3         0.000 3         0.000 3        21.000 3
G29  23151307.277 6 121660875.117 6      2781.907 6        40.000 6
G31  24901937.870 3         0.000 3         0.000 3        21.000 3
> 2016 03 03 22 57 17.0000000  0 10      0.038582661000   
G04  20619680.192 6 108357079.950 6      1509.902 6        41.000 6
G10  24126434.976 5 126785221.198 5     -3674.047 5        30.000 5
G16  20966823.057 4         0.000 4         0.000 4        25.000 4
G18  22226505.713 7 116801024.017 7     -2134.312 7        43.000 7
G20  22300847.262 6 117191731.508 6      1190.309 6        37.000 6
G21  21066364.210 4 110704438.481 4       671.426 4        28.000 4
G26  20509648.472 3         0.000 3         0.000 3        23.000 3
G27  23018281.226 3         0.000 3         0.000 3        21.000 3
G29  23151836.543 6 121663656.397 6      2781.887 6        40.000 6
G31  24902562.904 3         0.000 3         0.000 3        21.000 3
> 2016 03 03 22 57 18.0000000  0  9      0.038642538000   
G04  20619967.468 6 108358589.558 6      1510.292 6        41.000 6
G10  24125735.622 5 126781546.023 5     -3674.181 5        30.000 5
G16  20966544.520 4         0.000 4         0.000 4        25.000 4
G20  22301073.702 6 117192921.453 6      1190.648 6        37.000 6
G21  21066491.877 4 110705109.193 4       671.446 4        28.000 4
G26  20509746.938 3         0.000 3         0.000 3        23.000 3
G27  23017755.258 3         0.000 3         0.000 3        21.000 3
G29  23152365.794 6 121666437.606 6      2781.815 6        40.000 6
G31  24903202.128 3         0.000 3         0.000 3        21.000 3
> 2016 03 03 22 57 19.0000000  0 10      0.038702416000   
G04  20620254.678 6 108360098.845 6      1511.544 6        41.000 6
G10  24125036.093 5 126777869.961 5     -3673.493 5        30.000 5
G16  20966278.336 4         0.000 4         0.000 4        25.000 4
G18  22225693.049 7 116796753.364 7     -2133.121 7        43.000 7
G20  22301300.113 6 117194111.151 6      1191.972 6        37.000 6
G21  21066619.460 4 110705779.390 4       672.503 4        29.000 4
G26  20509850.299 3         0.000 3         0.000 3        23.000 3
G27  23017226.704 3         0.000 3         0.000 3        21.000 3
G29  23152894.886 6 121669218.017 6      2782.595 6        40.000 6
G31  24903844.179 3         0.000 3         0.000 3        21.000 3
> 2016 03 03 22 57 20.0000000  0  9      0.038762293000   
G04  20620542.279 6 108361610.203 6      1512.047 6        41.000 6
G10  24124336.879 5 126774195.459 5     -3673.503 5        30.000 5
G16  20966001.491 4         0.000 4         0.000 4        25.000 4
G20  22301526.906 6 117195302.955 6      1192.506 6        37.000 6
G21  21066747.396 4 110706451.505 4       672.852 4        29.000 4
G26  20509957.330 3         0.000 3         0.000 3        23.000 3
G27  23016698.471 3         0.000 3         0.000 3        20.000 3
G29  23153424.305 6 121672000.098 6      2782.688 6        40.000 6
G31  24904471.909 3         0.000 3         0.000 3        21.000 3
> 2016 03 03 22 57 21.0000000  0 10      0.038822170000   
G04  20620829.992 6 108363122.114 6      1512.550 6        41.000 6
G10  24123637.683 5 126770520.894 5     -3673.616 5        30.000 5
G16  20965722.810 4         0.000 4         0.000 4        26.000 4
G18  22224881.082 7 116792486.352 7     -2132.495 7        43.000 7
G20  22301753.831 6 117196495.380 6      1193.080 6        37.000 6
G21  21066875.360 4 110707123.855 4       673.037 4        29.000 4
G26  20510056.812 3         0.000 3         0.000 3        23.000 3
G27  23016154.172 3         0.000 3         0.000 3        20.000 3
G29  23153953.733 6 121674782.219 6      2782.688 6        40.000 6
G31  24905100.380 3         0.000 3         0.000 3        21.000 3
> 2016 03 03 22 57 22.0000000  0  9      0.038882047000   
G04  20621117.807 6 108364634.527 6      1513.094 6        41.000 6
G10  24122938.475 5 126766846.506 5     -3673.390 5        30.000 5
G16  20965448.090 4         0.000 4         0.000 4        26.000 4
G20  22301980.838 6 117197688.319 6      1193.645 6        37.000 6
G21  21067003.409 4 110707796.638 4       673.520 4        29.000 4
G26  20510159.464 3         0.000 3         0.000 3        23.000 3
G27  23015616.573 3         0.000 3         0.000 3        20.000 3
G29  23154483.169 6 121677564.384 6      2782.770 6        40.000 6
G31  24905726.598 3         0.000 3         0.000 3        21.000 3
> 2016 03 03 22 57 23.0000000  0 10      0.038941924000   
G04  20621405.728 6 108366147.530 6      1513.689 6        41.000 6
G10  24122239.210 4 126763171.972 4     -3673.544 4        29.000 4
G16  20965165.974 4         0.000 4         0.000 4        26.000 4
G18  22224069.362 7 116788220.733 7     -2131.715 7        43.000 7
G20  22302207.971 6 117198881.926 6      1194.312 6        37.000 6
G21  21067131.530 4 110708469.669 4       673.766 4        29.000 4
G26  20510254.443 3         0.000 3         0.000 3        23.000 3
G27  23015089.413 3         0.000 3         0.000 3        20.000 3
G29  23155012.644 6 121680346.740 6      2782.965 6        40.000 6
G31  24906361.748 3         0.000 3         0.000 3        21.000 3
> 2016 03 03 22 57 24.0000000  0  9      0.039001801000   
G04  20621693.775 6 108367661.198 6      1514.356 6        41.000 6
G10  24121539.971 4 126759497.617 4     -3673.360 4        29.000 4
G16  20964890.323 4         0.000 4         0.000 4        26.000 4
G20  22302435.234 6 117200076.171 6      1194.948 6        37.000 6
G21  21067259.716 4 110709143.260 4       674.320 4        29.000 4
G26  20510357.686 3         0.000 3         0.000 3        23.000 3
G27  23014559.189 3         0.000 3         0.000 3        20.000 3
G29  23155542.148 6 121683129.268 6      2783.139 6        40.000 6
G31  24906994.206 3         0.000 3         0.000 3        20.000 3
> 2016 03 03 22 57 25.0000000  0  8      0.039061678000   
G04  20621981.898 6 108369175.291 6      1514.777 6        41.000 6
G10  24120840.739 4 126755823.124 4     -3673.503 4        29.000 4
G18  22223257.924 7 116783956.657 7     -2131.017 7        43.000 7
G20  22302662.596 6 117201270.899 6      1195.431 6        37.000 6
G21  21067387.907 4 110709816.960 4       674.433 4        29.000 4
G27  23014033.231 3         0.000 3         0.000 3        20.000 3
G29  23156071.656 6 121685911.777 6      2783.119 6        41.000 6
G31  24907625.811 3         0.000 3         0.000 3        20.000 3
> 2016 03 03 22 57 26.0000000  0  7      0.039121555000   
G04  20622270.104 6 108370689.818 6      1515.208 6        41.000 6
G10  24120141.512 4 126752148.662 4     -3673.473 4        29.000 4
G20  22302890.047 6 117202466.163 6      1195.964 6        37.000 6
G21  21067516.132 4 110710490.941 4       674.710 4        29.000 4
G27  23013501.979 3         0.000 3         0.000 3        20.000 3
G29  23156601.167 6 121688694.269 6      2783.098 6        41.000 6
G31  24908251.607 3         0.000 3         0.000 3        20.000 3
> 2016 03 03 22 57 27.0000000  0 11      0.039181432000   
G04  20622558.444 6 108372205.002 6      1515.865 6        41.000 6
G05  25708569.066 1         0.000 1         0.000 1        10.000 1
G10  24119442.294 4 126748474.243 4     -3673.421 4        29.000 4
G16  20964059.025 4         0.000 4         0.000 4        27.000 4
G18  22222446.720 7 116779693.774 7     -2130.309 7        43.000 7
G20  22303117.596 6 117203662.039 6      1196.580 6        37.000 6
G21  21067644.472 4 110711165.364 4       675.162 4        29.000 4
G26  20510657.430 3         0.000 3         0.000 3        22.000 3
G27  23012975.248 3         0.000 3         0.000 3        20.000 3
G29  23157130.700 6 121691476.944 6      2783.283 6        41.000 6
G31  24908890.362 3         0.000 3         0.000 3        20.000 3
> 2016 03 03 22 57 28.0000000  0 11      0.039241309000   
G04  20622846.886 6 108373720.750 6      1516.429 6        41.000 6
G05  25709128.088 1         0.000 1         0.000 1        10.000 1
G10  24118743.095 4 126744799.884 4     -3673.370 4        29.000 4
G16  20963787.695 4         0.000 4     -1452.994 4        27.000 4
G18  22222041.225 7 116777562.934 7     -2129.939 7        43.000 7
G20  22303345.294 6 117204858.580 6      1197.247 6        37.000 6
G21  21067772.864 4 110711840.097 4       675.470 4        29.000 4
G26  20510756.679 3         0.000 3         0.000 3        22.000 3
G27  23012446.401 3         0.000 3         0.000 3        20.000 3
G29  23157660.249 6 121694259.757 6      2783.416 6        41.000 6
G31  24909521.543 3         0.000 3         0.000 3        20.000 3
> 2016 03 03 22 57 29.0000000  0 10      0.039301186000   
G04  20623135.468 6 108375237.219 6      1517.158 6        41.000 6
G10  24118043.920 4 126741125.635 4     -3673.257 4        29.000 4
G16  20963506.416 4 110163943.763 4     -1452.276 4        28.000 4
G18  22221635.831 7 116775432.594 7     -2129.436 7        43.000 7
G20  22303573.116 6 117206055.837 6      1197.956 6        37.000 6
G21  21067901.400 4 110712515.306 4       675.942 4        29.000 4
G26  20510870.413 3         0.000 3         0.000 3        23.000 3
G27  23011916.919 3         0.000 3         0.000 3        20.000 3
G29  23158189.847 6 121697042.806 6      2783.652 6        41.000 6
G31  24910161.193 3         0.000 3         0.000 3        20.000 3
> 2016 03 03 22 57 30.0000000  0  9      0.039361063000   
G04  20623424.066 6 108376753.756 6      1517.220 6        41.000 6
G10  24117344.656 4 126737451.082 4     -3673.555 4        29.000 4
G16  20963228.202 4 110162490.740 4     -1452.163 4        28.000 4
G20  22303800.961 6 117207253.225 6      1198.089 6        36.000 6
G21  21068029.876 4 110713190.462 4       675.890 4        29.000 4
G26  20510974.577 3         0.000 3         0.000 3        23.000 3
G27  23011382.345 3         0.000 3         0.000 3        20.000 3
G29  23158719.385 6 121699825.510 6      2783.314 6        41.000 6
G31  24910785.938 3         0.000 3         0.000 3        20.000 3
> 2016 03 03 22 57 31.0000000  0 10      0.039420936000   
G04  20623713.988 6 108378277.289 6      1517.917 6        41.000 6
G10  24116646.593 4 126733782.805 4     -3673.585 4        29.000 4
G16  20962957.859 4 110161046.080 4     -1450.100 4        28.000 4
G18  22220826.304 7 116771178.545 7     -2129.036 7        43.000 7
G20  22304030.166 6 117208457.657 6      1198.828 6        36.000 6
G21  21068159.607 4 110713872.296 4       676.270 4        29.000 4
G26  20511084.141 3         0.000 3         0.000 3        23.000 3
G27  23010851.665 3         0.000 3         0.000 3        20.000 3
G29  23159250.159 6 121702614.736 6      2783.529 6        41.000 6
G31  24911413.898 3         0.000 3         0.000 3        20.000 3
> 2016 03 03 22 57 32.0000000  0 10      0.039480813000   
G04  20624002.866 6 108379795.412 6      1518.810 6        40.000 6
G10  24115947.493 4 126730108.891 4     -3672.918 4        29.000 4
G16  20962679.749 4 110159594.601 4     -1450.613 4        28.000 4
G18  22220421.119 7 116769049.279 7     -2128.369 7        43.000 7
G20  22304258.320 6 117209656.683 6      1199.731 6        36.000 6
G21  21068288.323 4 110714548.556 4       676.989 4        29.000 4
G26  20511188.581 3         0.000 3         0.000 3        23.000 3
G27  23010308.662 3         0.000 3         0.000 3        20.000 3
G29  23159779.811 6 121705398.051 6      2783.919 6        41.000 6
G31  24912066.659 3         0.000 3         0.000 3        20.000 3
> 2016 03 03 22 57 33.0000000  0  9      0.039540690000   
G04  20624291.853 6 108381314.033 6      1519.303 6        40.000 6
G10  24115248.310 4 126726434.665 4     -3673.236 4        29.000 4
G16  20962401.511 4 110158143.447 4     -1450.295 4        28.000 4
G18  22220016.000 7 116766920.361 7     -2128.020 7        43.000 7
G20  22304486.586 6 117210856.302 6      1200.316 6        36.000 6
G21  21068417.080 4 110715225.100 4       677.276 4        29.000 4
G26  20511282.217 3         0.000 3         0.000 3        23.000 3
G27  23009788.579 3         0.000 3         0.000 3        20.000 3
G29  23160309.484 6 121708181.477 6      2784.032 6        41.000 6
> 2016 03 03 22 57 34.0000000  0  9      0.039600567000   
G04  20624580.922 6 108382833.092 6      1519.744 6        40.000 6
G10  24114549.129 4 126722760.379 4     -3673.288 4        29.000 4
G16  20962118.020 4 110156692.689 4     -1449.895 4        28.000 4
G18  22219610.921 7 116764791.667 7     -2127.794 7        43.000 7
G20  22304714.942 6 117212056.334 6      1200.737 6        36.000 6
G21  21068545.878 4 110715901.809 4       677.440 4        29.000 4
G26  20511382.760 3         0.000 3         0.000 3        23.000 3
G27  23009259.294 3         0.000 3         0.000 3        20.000 3
G29  23160839.150 6 121710964.845 6      2783.970 6        41.000 6
> 2016 03 03 22 57 35.0000000  0  9      0.039660444000   
G04  20624870.124 6 108384352.845 6      1520.432 6        40.000 6
G10  24113849.959 4 126719086.232 4     -3673.154 4        29.000 4
G16  20961846.238 4 110155242.468 4     -1449.361 4        28.000 4
G18  22219205.939 7 116762663.482 7     -2127.281 7        43.000 7
G20  22304943.437 6 117213257.144 6      1201.517 6        36.000 6
G21  21068674.774 4 110716579.058 4       677.984 4        29.000 4
G26  20511480.845 3         0.000 3         0.000 3        23.000 3
G27  23008715.410 3         0.000 3         0.000 3        20.000 3
G29  23161368.873 6 121713748.484 6      2784.248 6        41.000 6
> 2016 03 03 22 57 36.0000000  0  8      0.039720321000   
G04  20625159.479 6 108385873.310 6      1521.151 6        40.000 6
G10  24113150.866 4 126715412.462 4     -3672.775 4        29.000 4
G16  20961574.065 4 110153793.192 4     -1448.417 4        28.000 4
G20  22305172.083 6 117214458.664 6      1202.225 6        36.000 6
G21  21068803.770 4 110717256.811 4       678.487 4        29.000 4
G26  20511588.977 3         0.000 3         0.000 3        23.000 3
G27  23008176.821 3         0.000 3         0.000 3        20.000 3
G29  23161898.636 6 121716532.340 6      2784.463 6        41.000 6
> 2016 03 03 22 57 37.0000000  0  9      0.039780198000   
G04  20625448.994 6 108387394.707 6      1522.033 6        40.000 6
G10  24112451.854 4 126711738.893 4     -3672.621 4        29.000 4
G16  20961294.177 4 110152344.628 4     -1447.749 4        27.000 4
G18  22218396.321 7 116758408.883 7     -2126.049 7        43.000 7
G20  22305400.912 6 117215661.166 6      1203.159 6        36.000 6
G21  21068932.913 4 110717935.312 4       679.195 4        29.000 4
G26  20511692.419 3         0.000 3         0.000 3        23.000 3
G27  23007649.611 3         0.000 3         0.000 3        20.000 3
G29  23162428.495 6 121719316.686 6      2784.915 6        41.000 6
> 2016 03 03 22 57 38.0000000  0  9      0.039840075000   
G04  20625738.561 6 108388916.324 6      1522.300 6        40.000 6
G10  24111752.731 4 126708065.000 4     -3672.898 4        29.000 4
G16  20961016.992 4 110150896.256 4     -1447.513 4        27.000 4
G18  22217991.594 7 116756282.006 7     -2125.977 7        43.000 7
G20  22305629.788 6 117216863.968 6      1203.508 6        36.000 6
G21  21069062.047 4 110718613.732 4       679.154 4        29.000 4
G26  20511787.717 3         0.000 3         0.000 3        23.000 3
G27  23007123.817 3         0.000 3         0.000 3        20.000 3
G29  23162958.319 6 121722100.859 6      2784.781 6        41.000 6
> 2016 03 03 22 57 39.0000000  0  9      0.039899952000   
G04  20626028.280 6 108390438.738 6      1523.101 6        40.000 6
G10  24111053.676 4 126704391.509 4     -3672.497 4        29.000 4
G16  20960741.004 4 110149448.600 4     -1446.795 4        27.000 4
G18  22217586.960 7 116754155.704 7     -2125.403 7        42.000 7
G20  22305858.819 6 117218067.586 6      1204.319 6        36.000 6
G21  21069191.282 4 110719292.715 4       679.719 4        29.000 4
G26  20511901.182 3         0.000 3         0.000 3        23.000 3
G27  23006591.510 3         0.000 3         0.000 3        19.000 3
G29  23163488.203 6 121724885.353 6      2785.100 6        41.000 6
> 2016 03 03 22 57 40.0000000  0  8      0.039959829000   
G04  20626318.132 6 108391961.887 6      1523.829 6        40.000 6
G10  24110354.644 4 126700718.205 4     -3672.313 4        29.000 4
G16  20960465.678 4 110148001.682 4     -1446.056 4        27.000 4
G20  22306088.019 6 117219272.000 6      1205.120 6        36.000 6
G21  21069320.644 4 110719972.262 4       680.283 4        29.000 4
G26  20511992.584 3         0.000 3         0.000 3        22.000 3
G27  23006050.476 3         0.000 3         0.000 3        20.000 3
G29  23164018.137 6 121727670.078 6      2785.336 6        41.000 6
> 2016 03 03 22 57 41.0000000  0  9      0.040019707000   
G04  20626607.809 6 108393484.120 6      1524.486 6        40.000 6
G10  24109655.350 4 126697043.502 4     -3672.138 4        29.000 4
G16  20960189.752 4 110146553.752 4     -1445.491 4        27.000 4
G18  22216777.700 7 116749903.101 7     -2124.397 7        42.000 7
G20  22306317.033 6 117220475.462 6      1205.736 6        36.000 6
G21  21069449.749 4 110720650.727 4       680.776 4        29.000 4
G26  20512094.122 3         0.000 3         0.000 3        22.000 3
G27  23005533.783 3         0.000 3         0.000 3        19.000 3
G29  23164547.807 6 121730453.445 6      2785.551 6        41.000 6
> 2016 03 03 22 57 42.0000000  0  9      0.040079584000   
G04  20626897.850 6 108395008.210 6      1524.774 6        40.000 6
G10  24108956.298 4 126693370.056 4     -3672.456 4        29.000 4
G16  20959914.603 4 110145107.595 4     -1445.296 4        27.000 4
G20  22306546.395 6 117221680.865 6      1206.105 6        36.000 6
G21  21069579.196 4 110721330.714 4       680.725 4        29.000 4
G26  20512209.016 3         0.000 3         0.000 3        22.000 3
G27  23005003.997 3         0.000 3         0.000 3        19.000 3
G29  23165077.746 6 121733238.227 6      2785.387 6        41.000 6
G31  24918381.741 2         0.000 2         0.000 2        17.000 2
> 2016 03 03 22 57 43.0000000  0 10      0.040139461000   
G04  20627187.969 6 108396532.616 6      1525.092 6        40.000 6
G10  24108257.213 4 126689696.311 4     -3672.754 4        29.000 4
G16  20959639.523 4 110143661.913 4     -1444.824 4        27.000 4
G18  22215968.901 7 116745652.827 7     -2124.192 7        42.000 7
G20  22306775.824 5 117222886.624 5      1206.464 5        35.000 5
G21  21069708.649 4 110722010.874 4       680.889 4        29.000 4
G26  20512309.120 3         0.000 3         0.000 3        22.000 3
G27  23004463.677 3         0.000 3         0.000 3        19.000 3
G29  23165607.658 6 121736022.872 6      2785.253 6        41.000 6
G31  24919023.889 3         0.000 3         0.000 3        19.000 3
> 2016 03 03 22 57 44.0000000  0  9      0.040199338000   
G04  20627478.257 6 108398057.996 6      1526.067 6        40.000 6
G10  24107558.221 4 126686023.088 4     -3672.231 4        29.000 4
G16  20959363.950 4 110142216.943 4     -1444.106 4        27.000 4
G20  22307005.420 5 117224093.362 5      1207.439 5        35.000 5
G21  21069838.225 4 110722691.768 4       681.628 4        29.000 4
G26  20512417.649 3         0.000 3         0.000 3        22.000 3
G27  23003922.825 3         0.000 3         0.000 3        19.000 3
G29  23166137.664 6 121738808.031 6      2785.767 6        41.000 6
G31  24919645.836 3         0.000 3         0.000 3        19.000 3
> 2016 03 03 22 57 45.0000000  0 10      0.040259215000   
G04  20627768.674 6 108399584.072 6      1526.755 6        40.000 6
G10  24106859.284 4 126682349.978 4     -3672.118 4        29.000 4
G16  20959080.185 4         0.000 4     -1443.449 4        26.000 4
G18  22215160.532 7 116741404.768 7     -2122.878 7        43.000 7
G20  22307235.149 5 117225300.850 5      1208.189 5        35.000 5
G21  21069967.896 4 110723373.120 4       682.090 4        29.000 4
G26  20512529.527 3         0.000 3         0.000 3        22.000 3
G27  23003394.200 3         0.000 3         0.000 3        19.000 3
G29  23166667.712 6 121741593.418 6      2785.992 6        41.000 6
G31  24920285.920 3         0.000 3         0.000 3        18.000 3
> 2016 03 03 22 57 46.0000000  0  9      0.040319092000   
G04  20628059.180 6 108401110.686 6      1527.299 6        40.000 6
G10  24106160.397 4 126678677.091 4     -3671.892 4        29.000 4
G16  20958806.705 4 110139328.877 4     -1442.895 4        26.000 4
G20  22307464.981 5 117226508.945 5      1208.794 5        35.000 5
G21  21070097.658 4 110724054.844 4       682.459 4        28.000 4
G26  20512627.243 3         0.000 3         0.000 3        22.000 3
G27  23002866.280 3         0.000 3         0.000 3        19.000 3
G29  23167197.794 6 121744378.909 6      2786.095 6        41.000 6
G31  24920932.481 3         0.000 3         0.000 3        18.000 3
> 2016 03 03 22 57 47.0000000  0 10      0.040378969000   
G04  20628349.804 6 108402637.868 6      1527.863 6        40.000 6
G10  24105461.468 4 126675003.956 4     -3672.138 4        29.000 4
G16  20958525.370 4         0.000 4         0.000 4        26.000 4
G18  22214352.449 7 116737158.256 7     -2122.159 7        43.000 7
G20  22307694.919 5 117227717.624 5      1209.379 5        35.000 5
G21  21070227.462 4 110724736.874 4       682.767 4        28.000 4
G26  20512731.677 3         0.000 3         0.000 3        23.000 3
G27  23002334.760 3         0.000 3         0.000 3        19.000 3
G29  23167727.886 6 121747164.504 6      2786.198 6        41.000 6
G31  24921562.355 3         0.000 3         0.000 3        18.000 3
> 2016 03 03 22 57 48.0000000  0 10      0.040438846000   
G04  20628640.498 6 108404165.434 6      1528.253 6        40.000 6
G10  24104762.511 4 126671330.917 4     -3672.046 4        29.000 4
G16  20958252.346 4         0.000 4         0.000 4        26.000 4
G18  22213948.486 7 116735035.373 7     -2121.985 7        43.000 7
G20  22307924.933 5 117228926.699 5      1209.779 5        35.000 5
G21  21070357.304 4 110725419.092 4       682.952 4        28.000 4
G26  20512827.398 3         0.000 3         0.000 3        23.000 3
G27  23001806.412 3         0.000 3         0.000 3        19.000 3
G29  23168257.960 6 121749950.001 6      2786.105 6        41.000 6
G31  24922189.827 3         0.000 3         0.000 3        18.000 3
> 2016 03 03 22 57 49.0000000  0 10      0.040498723000   
G04  20628931.379 6 108405694.039 6      1529.290 6        40.000 6
G10  24104063.611 4 126667658.274 4     -3671.646 4        29.000 4
G16  20957979.547 4         0.000 4         0.000 4        25.000 4
G18  22213544.692 7 116732913.373 7     -2121.102 7        43.000 7
G20  22308155.153 5 117230136.837 5      1210.837 5        35.000 5
G21  21070487.308 4 110726102.107 4       683.752 4        28.000 4
G26  20512937.881 3         0.000 3         0.000 3        23.000 3
G27  23001280.799 3         0.000 3         0.000 3        19.000 3
G29  23168788.141 6 121752736.102 6      2786.711 6        41.000 6
G31  24922821.930 3         0.000 3         0.000 3        18.000 3
> 2016 03 03 22 57 50.0000000  0  9      0.040558599000   
G04  20629222.661 6 108407224.699 6      1529.772 6        40.000 6
G10  24103364.990 4 126663987.062 4     -3671.789 4        29.000 4
G16  20957703.045 4         0.000 4         0.000 4        25.000 4
G20  22308385.788 5 117231349.114 5      1211.401 5        34.000 5
G21  21070617.650 4 110726787.052 4       684.101 4        28.000 4
G26  20513041.887 3         0.000 3         0.000 3        23.000 3
G27  23000740.771 3         0.000 3         0.000 3        19.000 3
G29  23169318.619 6 121755523.805 6      2786.731 6        41.000 6
G31  24923452.523 3         0.000 3         0.000 3        18.000 3
> 2016 03 03 22 57 51.0000000  0 10      0.040618476000   
G04  20629513.709 6 108408754.118 6      1530.101 6        40.000 6
G10  24102666.042 4 126660314.245 4     -3671.820 4        29.000 4
G16  20957436.350 4         0.000 4         0.000 4        25.000 4
G18  22212737.538 7 116728671.622 7     -2120.671 7        43.000 7
G20  22308616.187 5 117232560.221 5      1211.812 5        34.000 5
G21  21070747.658 4 110727470.410 4       684.091 4        28.000 4
G26  20513146.256 3         0.000 3         0.000 3        23.000 3
G27  23000213.915 3         0.000 3         0.000 3        19.000 3
G29  23169848.783 6 121758309.841 6      2786.639 6        41.000 6
G31  24924084.921 3         0.000 3         0.000 3        18.000 3
> 2016 03 03 22 57 52.0000000  0  9      0.040678353000   
G04  20629804.875 6 108410284.251 6      1530.778 6        40.000 6
G10  24101967.161 4 126656641.578 4     -3671.717 4        29.000 4
G16  20957158.397 4         0.000 4         0.000 4        25.000 4
G20  22308846.713 5 117233772.023 5      1212.458 5        34.000 5
G21  21070877.789 4 110728154.260 4       684.543 4        28.000 4
G26  20513250.021 3         0.000 3         0.000 3        23.000 3
G27  22999669.606 3         0.000 3         0.000 3        18.000 3
G29  23170378.987 6 121761096.067 6      2786.793 6        41.000 6
G31  24924708.847 3         0.000 3         0.000 3        18.000 3
> 2016 03 03 22 57 53.0000000  0 10      0.040738230000   
G04  20630096.138 6 108411814.827 6      1531.260 6        40.000 6
G10  24101268.195 4 126652968.695 4     -3671.892 4        29.000 4
G16  20956892.314 4         0.000 4         0.000 4        25.000 4
G18  22211930.350 7 116724429.749 7     -2119.901 7        43.000 7
G20  22309077.304 5 117234984.260 5      1212.941 5        34.000 5
G21  21071007.995 4 110728838.403 4       684.871 4        28.000 4
G26  20513363.913 3         0.000 3         0.000 3        23.000 3
G27  22999143.414 3         0.000 3         0.000 3        18.000 3
G29  23170909.185 6 121763882.305 6      2786.844 6        41.000 6
G31  24925333.730 3         0.000 3         0.000 3        18.000 3
> 2016 03 03 22 57 54.0000000  0  9      0.040798107000   
G04  20630387.541 6 108413346.134 6      1531.989 6        39.000 6
G10  24100569.356 4 126649296.152 4     -3671.553 4        29.000 4
G16  20956609.945 4         0.000 4         0.000 4        24.000 4
G20  22309308.082 5 117236197.350 5      1213.793 5        34.000 5
G21  21071138.309 4 110729523.109 4       685.436 4        28.000 4
G26  20513463.367 3         0.000 3         0.000 3        23.000 3
G27  22998607.748 3         0.000 3         0.000 3        18.000 3
G29  23171439.452 6 121766668.845 6      2787.142 6        41.000 6
G31  24925976.373 3         0.000 3         0.000 3        18.000 3
> 2016 03 03 22 57 55.0000000  0 10      0.040857984000   
G04  20630679.043 6 108414878.039 6      1532.584 6        39.000 6
G10  24099870.527 4 126645623.652 4     -3671.502 4        29.000 4
G16  20956336.895 4         0.000 4         0.000 4        24.000 4
G18  22211123.505 7 116720189.632 7     -2118.957 7        43.000 7
G20  22309538.976 5 117237411.043 5      1214.398 5        34.000 5
G21  21071268.632 4 110730208.180 4       685.805 4        28.000 4
G26  20513578.351 3         0.000 3         0.000 3        23.000 3
G27  22998089.754 3         0.000 3         0.000 3        18.000 3
G29  23171969.752 6 121769455.546 6      2787.306 6        41.000 6
G31  24926610.561 3         0.000 3         0.000 3        18.000 3
> 2016 03 03 22 57 56.0000000  0 10      0.040917861000   
G04  20630970.674 6 108416410.550 6      1533.190 6        39.000 6
G10  24099171.720 4 126641951.323 4     -3671.338 4        29.000 4
G16  20956055.795 4         0.000 4         0.000 4        24.000 4
G18  22210720.212 7 116718070.181 7     -2118.547 7        43.000 7
G20  22309770.016 5 117238625.395 5      1215.055 5        34.000 5
G21  21071399.004 4 110730893.572 4       686.123 4        28.000 4
G26  20513684.202 4         0.000 4         0.000 4        24.000 4
G27  22997557.991 3         0.000 3         0.000 3        18.000 3
G29  23172500.068 6 121772242.342 6      2787.399 6        41.000 6
G31  24927242.539 3         0.000 3         0.000 3        18.000 3
> 2016 03 03 22 57 57.0000000  0 10      0.040977738000   
G04  20631262.386 6 108417943.536 6      1533.672 6        39.000 6
G10  24098472.882 4 126638278.857 4     -3671.471 4        29.000 4
G16  20955788.059 4         0.000 4         0.000 4        24.000 4
G18  22210316.974 7 116715951.032 7     -2118.249 7        43.000 7
G20  22310001.167 5 117239840.250 5      1215.558 5        34.000 5
G21  21071529.447 4 110731579.289 4       686.452 4        28.000 4
G26  20513792.173 4         0.000 4         0.000 4        24.000 4
G27  22997021.324 3         0.000 3         0.000 3        18.000 3
G29  23173030.397 6 121775029.197 6      2787.460 6        41.000 6
G31  24927879.422 3         0.000 3         0.000 3        18.000 3
> 2016 03 03 22 57 58.0000000  0  9      0.041037614000   
G04  20631554.466 6 108419478.499 6      1534.073 6        39.000 6
G10  24097774.317 4 126634607.818 4     -3671.625 4        29.000 4
G16  20955513.895 3         0.000 3         0.000 3        23.000 3
G20  22310232.685 5 117241057.099 5      1215.979 5        34.000 5
G21  21071660.234 4 110732266.693 4       686.565 4        28.000 4
G26  20513894.031 4         0.000 4         0.000 4        24.000 4
G27  22996490.161 3         0.000 3         0.000 3        18.000 3
G29  23173561.022 6 121777817.555 6      2787.388 6        41.000 6
G31  24928500.485 3         0.000 3         0.000 3        18.000 3
> 2016 03 03 22 57 59.0000000  0 10      0.041097491000   
G04  20631846.403 6 108421012.713 6      1534.894 6        39.000 6
G10  24097075.495 4 126630935.459 4     -3671.368 4        29.000 4
G16  20955236.957 3         0.000 3         0.000 3        23.000 3
G18  22209511.000 7 116711715.366 7     -2117.387 7        44.000 7
G20  22310464.112 5 117242273.323 5      1216.923 5        34.000 5
G21  21071790.853 4 110732953.218 4       687.263 4        28.000 4
G26  20514006.772 4         0.000 4         0.000 4        25.000 4
G27  22995965.604 3         0.000 3         0.000 3        18.000 3
G29  23174091.429 6 121780604.756 6      2787.809 6        41.000 6
G31  24929145.178 3         0.000 3         0.000 3        18.000 3
> 2016 03 03 22 58  0.0000000  0 10      0.041157368000   
G04  20632138.462 6 108422547.590 6      1535.561 6        39.000 6
G10  24096376.686 4 126627263.252 4     -3671.214 4        29.000 4
G16  20954967.948 3         0.000 3         0.000 3        23.000 3
G18  22209108.002 7 116709597.527 7     -2116.935 7        44.000 7
G20  22310695.664 5 117243490.171 5      1217.549 5        34.000 5
G21  21071921.531 4 110733640.061 4       687.581 4        27.000 4
G26  20514112.838 4         0.000 4         0.000 4        25.000 4
G27  22995431.980 3         0.000 3         0.000 3        18.000 3
G29  23174621.863 6 121783392.116 6      2787.963 6        41.000 6
G31  24929775.616 3         0.000 3         0.000 3        18.000 3
> 2016 03 03 22 58  1.0000000  0  9      0.041217245000   
G04  20632430.610 6 108424082.975 6      1536.064 6        39.000 6
G10  24095677.898 4 126623591.194 4     -3671.061 4        29.000 4
G18  22208705.071 7 116707479.999 7     -2116.627 7        44.000 7
G20  22310927.312 5 117244707.576 5      1218.103 5        34.000 5
G21  21072052.322 4 110734327.344 4       688.012 4        27.000 4
G26  20514222.591 4         0.000 4       559.961 4        29.000 4
G27  22994900.426 3         0.000 3         0.000 3        18.000 3
G29  23175152.298 6 121786179.511 6      2788.004 6        41.000 6
G31  24930423.606 3         0.000 3         0.000 3        18.000 3
> 2016 03 03 22 58  2.0000000  0  9      0.041277122000   
G04  20632722.837 6 108425618.831 6      1536.536 6        39.000 6
G10  24094979.063 4 126619918.888 4     -3671.307 4        29.000 4
G16  20954437.336 2         0.000 2         0.000 2        12.000 2
G20  22311159.052 5 117245925.512 5      1218.637 5        34.000 5
G21  21072183.116 4 110735014.747 4       688.135 4        27.000 4
G26  20514329.744 4 107803286.642 4       560.577 4        29.000 4
G27  22994364.189 3         0.000 3         0.000 3        18.000 3
G29  23175682.744 6 121788966.959 6      2788.055 6        41.000 6
G31  24931056.193 2         0.000 2         0.000 2        17.000 2
> 2016 03 03 22 58  3.0000000  0 10      0.041336999000   
G04  20633015.198 6 108427155.360 6      1537.213 6        39.000 6
G10  24094280.267 4 126616246.734 4     -3671.163 4        29.000 4
G16  20954166.154 3         0.000 3         0.000 3        18.000 3
G18  22207899.397 7 116703246.001 7     -2115.857 7        44.000 7
G20  22311390.936 5 117247144.125 5      1219.314 5        34.000 5
G21  21072313.977 4 110735702.639 4       688.628 4        27.000 4
G26  20514436.973 5 107803847.160 5       561.255 5        30.000 5
G27  22993831.937 3         0.000 3         0.000 3        18.000 3
G29  23176213.237 6 121791754.640 6      2788.292 6        41.000 6
G31  24931685.525 2         0.000 2         0.000 2        17.000 2
> 2016 03 03 22 58  4.0000000  0 10      0.041396876000   
G04  20633307.624 6 108428692.189 6      1537.511 6        39.000 6
G10  24093581.426 4 126612574.425 4     -3671.317 4        29.000 4
G16  20953897.212 3         0.000 3         0.000 3        18.000 3
G18  22207496.637 7 116701129.374 7     -2115.724 7        44.000 7
G20  22311622.897 5 117248363.122 5      1219.694 5        34.000 5
G21  21072444.881 4 110736390.667 4       688.761 4        27.000 4
G26  20514543.676 5 107804408.012 5       561.593 5        30.000 5
G27  22993298.855 3         0.000 3         0.000 3        18.000 3
G29  23176743.700 6 121794542.180 6      2788.148 6        41.000 6
G31  24932313.410 2         0.000 2         0.000 2        17.000 2
> 2016 03 03 22 58  5.0000000  0 10      0.041456753000   
G04  20633600.180 6 108430229.722 6      1538.219 6        39.000 6
G10  24092882.593 4 126608902.263 4     -3671.163 4        29.000 4
G16  20953625.899 3         0.000 3         0.000 3        18.000 3
G18  22207093.965 7 116699013.229 7     -2115.242 7        44.000 7
G20  22311854.992 5 117249582.846 5      1220.423 5        34.000 5
G21  21072575.867 4 110737079.240 4       689.305 4        27.000 4
G26  20514650.685 5 107804969.584 5       562.312 5        30.000 5
G27  22992766.264 3         0.000 3         0.000 3        18.000 3
G29  23177274.185 6 121797329.888 6      2788.312 6        41.000 6
G31  24932938.679 2         0.000 2         0.000 2        17.000 2
> 2016 03 03 22 58  6.0000000  0  9      0.041516631000   
G04  20633892.568 6 108431766.392 6      1538.927 6        39.000 6
G10  24092183.519 4 126605228.741 4     -3670.958 4        29.000 4
G16  20953352.416 3         0.000 3         0.000 3        18.000 3
G20  22312086.936 5 117250801.733 5      1221.162 5        34.000 5
G21  21072706.626 4 110737766.679 4       689.746 4        27.000 4
G26  20514758.031 5 107805530.349 5       563.082 5        30.000 5
G27  22992230.342 3         0.000 3         0.000 3        18.000 3
G29  23177804.438 6 121800116.337 6      2788.630 6        41.000 6
G31  24933574.269 2         0.000 2         0.000 2        17.000 2
> 2016 03 03 22 58  7.0000000  0 10      0.041576508000   
G04  20634185.385 6 108433305.270 6      1539.523 6        39.000 6
G10  24091484.752 4 126601556.818 4     -3670.968 4        29.000 4
G16  20953085.270 3         0.000 3         0.000 3        18.000 3
G18  22206288.618 7 116694780.898 7     -2114.277 7        44.000 7
G20  22312319.300 5 117252022.879 5      1221.809 5        34.000 5
G21  21072837.792 4 110738456.113 4       690.126 4        27.000 4
G26  20514865.520 5 107806093.310 5       563.656 5        30.000 5
G27  22991696.910 3         0.000 3         0.000 3        18.000 3
G29  23178335.020 6 121802904.534 6      2788.764 6        41.000 6
G31  24934210.810 2         0.000 2         0.000 2        17.000 2
> 2016 03 03 22 58  8.0000000  0  9      0.041636385000   
G04  20634478.293 6 108434844.566 6      1539.974 6        39.000 6
G10  24090785.992 4 126597884.984 4     -3670.845 4        29.000 4
G16  20952824.894 3         0.000 3         0.000 3        18.000 3
G20  22312551.769 5 117253244.429 5      1222.250 5        34.000 5
G21  21072969.007 4 110739145.668 4       690.290 4        27.000 4
G26  20514973.058 5 107806656.718 5       564.149 5        31.000 5
G27  22991176.847 3         0.000 3         0.000 3        18.000 3
G29  23178865.596 6 121805692.658 6      2788.733 6        41.000 6
G31  24934842.918 2         0.000 2         0.000 2        17.000 2
> 2016 03 03 22 58  9.0000000  0 10      0.041696262000   
G04  20634771.379 6 108436384.811 6      1540.929 6        39.000 6
G10  24090087.247 4 126594213.326 4     -3670.660 4        29.000 4
G16  20952563.475 3         0.000 3         0.000 3        18.000 3
G18  22205483.878 7 116690551.773 7     -2113.291 7        45.000 7
G20  22312784.411 5 117254467.012 5      1223.287 5        34.000 5
G21  21073100.337 4 110739836.022 4       691.091 4        27.000 4
G26  20515080.776 5 107807221.185 5       565.206 5        31.000 5
G27  22990638.792 3         0.000 3         0.000 3        18.000 3
G29  23179396.258 6 121808481.288 6      2789.236 6        41.000 6
G31  24935475.470 2         0.000 2         0.000 2        17.000 2
> 2016 03 03 22 58 10.0000000  0  9      0.041756139000   
G04  20635064.653 6 108437926.026 6      1541.894 6        39.000 6
G10  24089388.640 4 126590542.282 4     -3670.055 4        29.000 4
G16  20952282.905 2         0.000 2         0.000 2        17.000 2
G20  22313017.267 5 117255690.625 5      1224.313 5        34.000 5
G21  21073231.790 4 110740527.003 4       691.717 4        27.000 4
G26  20515188.599 5 107807786.614 5       566.171 5        31.000 5
G27  22990107.677 3         0.000 3         0.000 3        18.000 3
G29  23179927.032 6 121811270.456 6      2789.780 6        41.000 6
G31  24936108.596 2         0.000 2         0.000 2        17.000 2
> 2016 03 03 22 58 11.0000000  0 10      0.041816016000   
G04  20635358.003 6 108439467.657 6      1542.314 6        39.000 6
G10  24088690.019 4 126586871.114 4     -3670.178 4        29.000 4
G16  20952009.150 2         0.000 2         0.000 2        17.000 2
G18  22204679.611 7 116686325.222 7     -2112.255 7        45.000 7
G20  22313250.195 5 117256914.616 5      1224.693 5        34.000 5
G21  21073363.344 4 110741218.500 4       692.230 4        27.000 4
G26  20515296.424 5 107808352.484 5       566.612 5        31.000 5
G27  22989568.671 3         0.000 3         0.000 3        18.000 3
G29  23180457.806 6 121814059.597 6      2789.749 6        41.000 6
G31  24936746.962 2         0.000 2         0.000 2        17.000 2
> 2016 03 03 22 58 12.0000000  0 10      0.041875894000   
G04  20635651.157 6 108441008.239 6      1542.838 6        39.000 6
G10  24087991.078 4 126583198.277 4     -3670.270 4        29.000 4
G16  20951739.269 2         0.000 2         0.000 2        17.000 2
G18  22204277.268 7 116684210.823 7     -2111.926 7        45.000 7
G20  22313482.963 5 117258137.667 5      1225.329 5        34.000 5
G21  21073494.647 4 110741908.476 4       692.282 4        27.000 4
G26  20515403.827 5 107808917.411 5       567.238 5        31.000 5
G27  22989051.506 3         0.000 3         0.000 3        18.000 3
G29  23180988.296 6 121816847.237 6      2789.821 6        41.000 6
G31  24937376.597 2         0.000 2         0.000 2        17.000 2
> 2016 03 03 22 58 13.0000000  0 10      0.041935771000   
G04  20635944.706 6 108442550.879 6      1543.320 6        39.000 6
G10  24087292.440 4 126579527.023 4     -3670.260 4        29.000 4
G16  20951466.848 2         0.000 2         0.000 2        17.000 2
G18  22203875.275 7 116682098.275 7     -2111.649 7        45.000 7
G20  22313716.115 5 117259362.810 5      1225.842 5        34.000 5
G21  21073626.230 4 110742600.319 4       692.579 4        27.000 4
G26  20515511.826 5 107809484.368 5       567.700 5        31.000 5
G27  22988519.800 3         0.000 3         0.000 3        18.000 3
G29  23181519.067 6 121819636.445 6      2789.811 6        41.000 6
G31  24938003.214 2         0.000 2         0.000 2        17.000 2
> 2016 03 03 22 58 14.0000000  0  9      0.041995648000   
G04  20636238.435 6 108444094.441 6      1544.244 6        39.000 6
G10  24086593.925 4 126575856.295 4     -3669.737 4        29.000 4
G16  20951196.691 2         0.000 2         0.000 2        17.000 2
G20  22313949.433 5 117260588.856 5      1226.745 5        34.000 5
G21  21073757.963 4 110743292.907 4       693.318 4        27.000 4
G26  20515619.752 5 107810052.334 5       568.706 5        31.000 5
G27  22987989.686 3         0.000 3         0.000 3        18.000 3
G29  23182049.937 6 121822426.140 6      2790.303 6        41.000 6
G31  24938623.299 2         0.000 2         0.000 2        17.000 2
> 2016 03 03 22 58 15.0000000  0 10      0.042055526000   
G04  20636531.972 6 108445637.022 6      1543.839 6        39.000 6
G10  24085895.057 4 126572183.863 4     -3670.860 4        29.000 4
G16  20950935.836 2         0.000 2         0.000 2        16.000 2
G18  22203071.373 7 116677873.544 7     -2111.479 7        45.000 7
G20  22314182.576 5 117261814.047 5      1226.464 5        34.000 5
G21  21073889.468 4 110743984.422 4       692.821 4        26.000 4
G26  20515727.462 5 107810619.251 5       568.230 5        31.000 5
G27  22987455.884 3         0.000 3         0.000 3        18.000 3
G29  23182580.540 6 121825214.415 6      2789.457 6        41.000 6
G31  24939253.180 2         0.000 2         0.000 2        17.000 2
> 2016 03 03 22 58 16.0000000  0  9      0.042115403000   
G04  20636825.897 6 108447181.715 6      1545.373 6        39.000 6
G10  24085196.518 4 126568513.148 4     -3669.726 4        29.000 4
G16  20950670.828 2         0.000 2         0.000 2        16.000 2
G20  22314416.097 5 117263041.291 5      1227.946 5        34.000 5
G21  21074021.321 4 110744677.642 4       693.955 4        26.000 4
G26  20515835.589 5 107811188.428 5       569.917 5        30.000 5
G27  22986924.357 3         0.000 3         0.000 3        18.000 3
G29  23183111.464 6 121828004.325 6      2790.519 6        41.000 6
G31  24939879.355 2         0.000 2         0.000 2        17.000 2
> 2016 03 03 22 58 17.0000000  0 10      0.042175280000   
G04  20637119.956 6 108448727.022 6      1544.989 6        39.000 6
G10  24084497.955 4 126564842.446 4     -3670.706 4        29.000 4
G16  20950400.467 2         0.000 2         0.000 2        17.000 2
G18  22202268.034 7 116673651.880 7     -2110.709 7        45.000 7
G20  22314649.740 5 117264269.231 5      1227.644 5        34.000 5
G21  21074153.243 4 110745371.248 4       693.334 4        26.000 4
G26  20515943.829 5 107811758.235 5       569.543 5        30.000 5
G27  22986386.331 3         0.000 3         0.000 3        18.000 3
G29  23183642.426 6 121830794.426 6      2789.704 6        41.000 6
G31  24940519.801 2         0.000 2         0.000 2        16.000 2
> 2016 03 03 22 58 18.0000000  0  8      0.042235157000   
G04  20637414.041 6 108450272.454 6      1546.112 6        39.000 6
G10  24083799.315 4 126561171.305 4     -3670.147 4        29.000 4
G16  20950123.520 2         0.000 2         0.000 2        17.000 2
G20  22314883.411 5 117265497.336 5      1228.808 5        34.000 5
G21  21074284.556 4         0.000 4         0.000 4        26.000 4
G26  20516052.082 5 107812328.105 5       570.615 5        30.000 5
G27  22985849.847 3         0.000 3         0.000 3        18.000 3
G29  23184173.312 6 121833584.139 6      2790.324 6        41.000 6
> 2016 03 03 22 58 19.0000000  0  9      0.042295034000   
G04  20637708.380 6 108451819.222 6      1546.446 6        39.000 6
G10  24083100.855 4 126557501.066 4     -3670.244 4        29.000 4
G16  20949849.066 2         0.000 2         0.000 2        17.000 2
G18  22201464.958 7 116669431.620 7     -2109.652 7        45.000 7
G20  22315117.317 5 117266726.808 5      1229.174 5        34.000 5
G21  21074412.337 4         0.000 4         0.000 4        26.000 4
G26  20516160.666 5 107812899.418 5       571.052 5        30.000 5
G27  22985321.106 3         0.000 3         0.000 3        18.000 3
G29  23184704.368 7 121836374.761 7      2790.227 7        42.000 7
> 2016 03 03 22 58 20.0000000  0  9      0.042354911000   
G04  20638002.832 6 108453366.600 6      1547.062 6        39.000 6
G10  24082402.437 4 126553830.895 4     -3670.172 4        29.000 4
G16  20949574.920 3         0.000 3         0.000 3        18.000 3
G18  22201063.614 7 116667322.505 7     -2109.211 7        45.000 7
G20  22315351.374 5 117267957.003 5      1229.892 5        34.000 5
G21  21074540.997 4         0.000 4         0.000 4        26.000 4
G26  20516269.315 5 107813471.393 5       571.719 5        30.000 5
G27  22984792.662 2         0.000 2         0.000 2        17.000 2
G29  23185235.456 7 121839165.519 7      2790.371 7        42.000 7
> 2016 03 03 22 58 21.0000000  0  9      0.042414788000   
G04  20638297.381 6 108454914.388 6      1547.473 6        39.000 6
G10  24081703.984 4 126550160.606 4     -3670.295 4        29.000 4
G16  20949305.917 3         0.000 3         0.000 3        18.000 3
G18  22200662.302 7 116665213.601 7     -2109.006 7        45.000 7
G20  22315585.490 5 117269187.525 5      1230.220 5        34.000 5
G21  21074671.926 4         0.000 4         0.000 4        26.000 4
G26  20516377.986 5 107814043.795 5       572.140 5        30.000 5
G27  22984264.267 2         0.000 2         0.000 2        17.000 2
G29  23185766.536 7 121841956.225 7      2790.309 7        42.000 7
> 2016 03 03 22 58 22.0000000  0  8      0.042474666000   
G04  20638591.682 6 108456460.956 6      1547.781 6        39.000 6
G10  24081005.165 4 126546488.541 4     -3670.542 4        29.000 4
G16  20949022.513 3         0.000 3         0.000 3        18.000 3
G20  22315819.377 5 117270416.953 5      1230.662 5        34.000 5
G21  21074803.300 4         0.000 4         0.000 4        26.000 4
G26  20516486.557 5 107814614.992 5       572.469 5        30.000 5
G27  22983731.130 2         0.000 2         0.000 2        17.000 2
G29  23186297.305 7 121844745.316 7      2790.227 7        42.000 7
> 2016 03 03 22 58 23.0000000  0  9      0.042534543000   
G04  20638886.406 6 108458009.691 6      1549.417 6        39.000 6
G10  24080306.688 4 126542818.154 4     -3669.398 4        29.000 4
G16  20948764.114 3         0.000 3         0.000 3        18.000 3
G18  22199859.520 7 116660994.970 7     -2107.441 7        44.000 7
G20  22316053.671 5 117271648.524 5      1232.267 5        34.000 5
G21  21074942.720 4         0.000 4         0.000 4        26.000 4
G26  20516595.556 5 107815188.425 5       574.177 5        30.000 5
G27  22983195.720 2         0.000 2         0.000 2        17.000 2
G29  23186828.393 7 121847536.053 7      2791.340 7        42.000 7
> 2016 03 03 22 58 24.0000000  0  9      0.042594420000   
G04  20639181.278 6 108459559.137 6      1550.125 6        39.000 6
G10  24079608.283 4 126539147.968 4     -3669.193 4        29.000 4
G16  20948494.829 3         0.000 3         0.000 3        18.000 3
G18  22199458.424 7 116658887.174 7     -2106.897 7        44.000 7
G20  22316288.134 5 117272880.882 5      1233.058 5        34.000 5
G21  21075077.857 4         0.000 4         0.000 4        26.000 4
G26  20516704.709 5 107815762.548 5       574.864 5        30.000 5
G27  22982662.110 2         0.000 2         0.000 2        17.000 2
G29  23187359.537 7 121850327.079 7      2791.638 7        42.000 7
> 2016 03 03 22 58 25.0000000  0  9      0.042654297000   
G04  20639476.226 6 108461109.040 6      1550.587 6        39.000 6
G10  24078909.799 5 126535477.599 5     -3669.377 5        30.000 5
G16  20948223.259 3         0.000 3         0.000 3        19.000 3
G18  22199057.380 7 116656779.634 7     -2106.641 7        44.000 7
G20  22316522.691 5 117274113.647 5      1233.468 5        34.000 5
G21  21075208.254 4         0.000 4         0.000 4        26.000 4
G26  20516814.096 5 107816337.231 5       575.419 5        30.000 5
G27  22982134.200 2         0.000 2         0.000 2        17.000 2
G29  23187890.677 7 121853118.105 7      2791.638 7        42.000 7
> 2016 03 03 22 58 26.0000000  0  8      0.042714173000   
G04  20639771.510 6 108462660.737 6      1550.803 6        39.000 6
G10  24078211.598 5 126531808.701 5     -3669.480 5        30.000 5
G16  20947954.551 3         0.000 3         0.000 3        19.000 3
G20  22316757.590 5 117275348.318 5      1233.797 5        34.000 5
G21  21075341.368 4         0.000 4         0.000 4        26.000 4
G26  20516923.770 5 107816913.677 5       575.614 5        30.000 5
G27  22981598.052 2         0.000 2         0.000 2        17.000 2
G29  23188422.067 7 121855910.448 7      2791.371 7        42.000 7
> 2016 03 03 22 58 27.0000000  0  9      0.042774050000   
G04  20640066.585 6 108464211.332 6      1551.275 6        39.000 6
G10  24077513.095 5 126528138.057 5     -3669.654 5        30.000 5
G16  20947683.888 3         0.000 3         0.000 3        19.000 3
G18  22198255.658 7 116652566.511 7     -2106.312 7        44.000 7
G20  22316992.301 5 117276581.993 5      1234.371 5        34.000 5
G21  21075468.911 4         0.000 4         0.000 4        26.000 4
G26  20517033.299 5 107817489.070 5       576.137 5        30.000 5
G27  22981070.600 2         0.000 2         0.000 2        17.000 2
G29  23188953.177 7 121858701.286 7      2791.442 7        42.000 7
> 2016 03 03 22 58 28.0000000  0  9      0.042833927000   
G04  20640361.850 6 108465762.950 6      1552.301 6        40.000 6
G10  24076814.695 5 126524467.846 5     -3669.213 5        30.000 5
G16  20947411.400 3         0.000 3         0.000 3        20.000 3
G18  22197854.841 7 116650460.173 7     -2105.440 7        44.000 7
G20  22317227.242 5 117277816.670 5      1235.377 5        34.000 5
G21  21075602.366 4         0.000 4         0.000 4        26.000 4
G26  20517143.006 5 107818065.526 5       577.194 5        30.000 5
G27  22980550.822 2         0.000 2         0.000 2        17.000 2
G29  23189484.389 7 121861492.692 7      2792.017 7        42.000 7
> 2016 03 03 22 58 29.0000000  0  9      0.042893804000   
G04  20640657.255 6 108467315.231 6      1552.958 6        40.000 6
G10  24076116.329 5 126520797.907 5     -3668.946 5        30.000 5
G16  20947135.347 3         0.000 3         0.000 3        20.000 3
G18  22197454.104 7 116648354.263 7     -2105.009 7        44.000 7
G20  22317462.288 5 117279052.011 5      1236.044 5        34.000 5
G21  21075739.384 4         0.000 4         0.000 4        26.000 4
G26  20517252.845 5 107818642.740 5       577.954 5        30.000 5
G27  22980011.335 2         0.000 2         0.000 2        16.000 2
G29  23190015.638 7 121864284.252 7      2792.171 7        42.000 7
> 2016 03 03 22 58 30.0000000  0  8      0.042953681000   
G04  20640952.789 6 108468868.171 6      1553.625 6        40.000 6
G10  24075417.945 5 126517128.028 5     -3668.885 5        30.000 5
G16  20946869.718 3         0.000 3         0.000 3        20.000 3
G20  22317697.477 5 117280288.057 5      1236.742 5        34.000 5
G21  21075877.081 4         0.000 4         0.000 4        26.000 4
G26  20517362.840 5 107819220.529 5       578.529 5        30.000 5
G27  22979474.210 2         0.000 2         0.000 2        16.000 2
G29  23190546.925 7 121867076.054 7      2792.407 7        42.000 7
> 2016 03 03 22 58 31.0000000  0  9      0.043013558000   
G04  20641248.395 6 108470421.501 6      1554.015 6        40.000 6
G10  24074719.572 5 126513458.110 5     -3668.926 5        30.000 5
G16  20946590.150 3         0.000 3         0.000 3        21.000 3
G18  22196652.863 7 116644143.653 7     -2104.290 7        44.000 7
G20  22317932.760 5 117281524.584 5      1237.225 5        34.000 5
G21  21076004.627 4         0.000 4         0.000 4        26.000 4
G26  20517472.855 5 107819798.871 5       579.083 5        30.000 5
G27  22978940.070 2         0.000 2         0.000 2        16.000 2
G29  23191078.209 7 121869867.799 7      2792.356 7        42.000 7
> 2016 03 03 22 58 32.0000000  0  8      0.043073435000   
G04  20641544.058 6 108471975.128 6      1554.313 6        40.000 6
G10  24074021.136 5 126509787.857 5     -3669.264 5        30.000 5
G16  20946312.689 3         0.000 3         0.000 3        21.000 3
G20  22318168.093 5 117282761.438 5      1237.553 5        34.000 5
G21  21076132.381 4         0.000 4         0.000 4        26.000 4
G26  20517582.919 5 107820377.554 5       579.422 5        30.000 5
G27  22978414.574 2         0.000 2         0.000 2        16.000 2
G29  23191609.458 7 121872659.367 7      2792.171 7        42.000 7
> 2016 03 03 22 58 33.0000000  0  9      0.043133311000   
G04  20641840.144 6 108473530.986 6      1554.959 6        40.000 6
G10  24073323.017 5 126506119.326 5     -3669.110 5        30.000 5
G16  20946050.034 3         0.000 3         0.000 3        21.000 3
G18  22195852.081 7 116639935.471 7     -2103.746 7        44.000 7
G20  22318403.880 5 117284000.497 5      1238.179 5        34.000 5
G21  21076270.271 4         0.000 4         0.000 4        26.000 4
G26  20517693.459 5 107820958.363 5       579.976 5        30.000 5
G27  22977891.488 2         0.000 2         0.000 2        16.000 2
G29  23192141.041 7 121875452.711 7      2792.376 7        42.000 7
> 2016 03 03 22 58 34.0000000  0  8      0.043193188000   
G04  20642136.039 6 108475085.856 6      1555.555 6        40.000 6
G10  24072624.647 5 126502449.394 5     -3668.936 5        30.000 5
G16  20945784.232 3         0.000 3         0.000 3        21.000 3
G20  22318639.496 5 117285238.682 5      1238.887 5        34.000 5
G21  21076402.284 4         0.000 4         0.000 4        26.000 4
G26  20517803.910 5 107821538.369 5       580.746 5        30.000 5
G27  22977354.123 2         0.000 2         0.000 2        16.000 2
G29  23192672.354 7 121878244.646 7      2792.541 7        42.000 7
> 2016 03 03 22 58 35.0000000  0  9      0.043253065000   
G04  20642432.067 6 108476641.463 6      1556.283 6        40.000 6
G10  24071926.283 5 126498779.558 5     -3668.844 5        30.000 5
G16  20945513.675 3         0.000 3         0.000 3        21.000 3
G18  22195051.352 7 116635727.549 7     -2102.802 7        44.000 7
G20  22318875.255 5 117286477.590 5      1239.606 5        34.000 5
G21  21076531.469 4         0.000 4         0.000 4        26.000 4
G26  20517914.492 5 107822119.007 5       581.382 5        30.000 5
G27  22976818.771 2         0.000 2         0.000 2        15.000 2
G29  23193203.715 7 121881036.829 7      2792.787 7        42.000 7
> 2016 03 03 22 58 36.0000000  0  9      0.043312942000   
G04  20642728.199 6 108478197.574 6      1556.797 6        40.000 6
G10  24071227.934 5 126495109.817 5     -3668.751 5        30.000 5
G16  20945234.725 3         0.000 3         0.000 3        21.000 3
G18  22194651.111 7 116633624.227 7     -2102.422 7        44.000 7
G20  22319111.141 5 117287717.119 5      1240.232 5        34.000 5
G21  21076664.940 4         0.000 4         0.000 4        26.000 4
G26  20518025.170 5 107822700.294 5       582.029 5        30.000 5
G27  22976292.979 2         0.000 2         0.000 2        15.000 2
G29  23193735.087 7 121883829.093 7      2792.869 7        42.000 7
> 2016 03 03 22 58 37.0000000  0  9      0.043372819000   
G04  20643024.479 6 108479754.470 6      1557.536 6        40.000 6
G10  24070529.621 5 126491440.203 5     -3668.659 5        30.000 5
G16  20944969.288 3         0.000 3         0.000 3        21.000 3
G18  22194250.961 7 116631521.424 7     -2101.950 7        44.000 7
G20  22319347.176 5 117288957.389 5      1240.930 5        34.000 5
G21  21076801.315 4         0.000 4         0.000 4        26.000 4
G26  20518136.029 5 107823282.382 5       582.788 5        30.000 5
G27  22975760.804 2         0.000 2         0.000 2        15.000 2
G29  23194266.522 7 121886621.667 7      2793.136 7        42.000 7
> 2016 03 03 22 58 38.0000000  0  9      0.043432695000   
G04  20643321.141 6 108481313.384 6      1558.018 6        40.000 6
G10  24069831.617 5 126487772.179 5     -3668.608 5        31.000 5
G16  20944704.454 3         0.000 3         0.000 3        22.000 3
G18  22193851.160 7 116629420.482 7     -2101.622 7        44.000 7
G20  22319583.609 5 117290199.721 5      1241.453 5        34.000 5
G21  21076938.148 4         0.000 4         0.000 4        26.000 4
G26  20518247.242 5 107823866.514 5       583.291 5        30.000 5
G27  22975245.528 2         0.000 2         0.000 2        15.000 2
G29  23194798.252 7 121889415.808 7      2793.177 7        42.000 7
> 2016 03 03 22 58 39.0000000  0  9      0.043492572000   
G04  20643617.709 6 108482871.816 6      1559.116 6        40.000 6
G10  24069133.416 5 126484103.126 5     -3668.064 5        31.000 5
G16  20944425.879 3         0.000 3         0.000 3        21.000 3
G18  22193451.228 7 116627318.897 7     -2100.688 7        44.000 7
G20  22319819.959 5 117291441.579 5      1242.562 5        34.000 5
G21  21077070.457 4         0.000 4         0.000 4        26.000 4
G26  20518358.303 5 107824450.202 5       584.430 5        30.000 5
G27  22974706.426 2         0.000 2         0.000 2        14.000 2
G29  23195329.819 7 121892209.012 7      2793.813 7        42.000 7
> 2016 03 03 22 58 40.0000000  0  8      0.043552449000   
G04  20643914.424 6 108484430.959 6      1559.824 6        40.000 6
G10  24068435.236 5 126480434.248 5     -3667.889 5        31.000 5
G16  20944147.898 3         0.000 3         0.000 3        21.000 3
G20  22320056.437 5 117292684.193 5      1243.311 5        34.000 5
G21  21077202.339 4         0.000 4         0.000 4        26.000 4
G26  20518469.459 5 107825034.559 5       585.097 5        30.000 5
G27  22974167.810 2         0.000 2         0.000 2        14.000 2
G29  23195861.422 7 121895002.478 7      2794.070 7        42.000 7
> 2016 03 03 22 58 41.0000000  0  9      0.043612326000   
G04  20644211.233 6 108485990.623 6      1560.348 6        40.000 6
G10  24067737.043 5 126476765.351 5     -3667.899 5        31.000 5
G16  20943875.128 3         0.000 3         0.000 3        21.000 3
G18  22192651.639 7 116623117.079 7     -2099.815 7        44.000 7
G20  22320293.043 5 117293927.373 5      1243.876 5        34.000 5
G21  21077331.962 4         0.000 4         0.000 4        26.000 4
G26  20518580.753 5 107825619.625 5       585.806 5        30.000 5
G27  22973655.342 2         0.000 2         0.000 2        14.000 2
G29  23196393.040 7 121897796.023 7      2794.152 7        42.000 7
> 2016 03 03 22 58 42.0000000  0  8      0.043672203000   
G04  20644508.087 6 108487550.579 6      1560.635 6        40.000 6
G10  24067038.799 5 126473096.172 5     -3668.187 5        31.000 5
G16  20943594.296 3         0.000 3         0.000 3        21.000 3
G20  22320529.736 5 117295170.894 5      1244.225 5        34.000 5
G21  21077469.099 4         0.000 4         0.000 4        26.000 4
G26  20518692.045 5 107826204.879 5       585.990 5        30.000 5
G27  22973110.040 2         0.000 2         0.000 2        13.000 2
G29  23196924.622 7 121900589.391 7      2793.978 7        42.000 7
> 2016 03 03 22 58 43.0000000  0  9      0.043732080000   
G04  20644805.061 6 108489111.134 6      1561.241 6        40.000 6
G10  24066340.585 5 126469427.241 5     -3667.940 5        31.000 5
G16  20943320.547 3         0.000 3         0.000 3        21.000 3
G18  22191852.226 7 116618916.232 7     -2099.333 7        43.000 7
G20  22320766.543 5 117296415.086 5      1244.892 5        34.000 5
G21  21077606.269 4         0.000 4         0.000 4        26.000 4
G26  20518803.438 4 107826790.835 4       586.699 4        29.000 4
G27  22972578.565 2         0.000 2         0.000 2        13.000 2
G29  23197456.233 7 121903382.920 7      2794.132 7        42.000 7
> 2016 03 03 22 58 44.0000000  0  8      0.043791957000   
G04  20645102.179 6 108490672.546 6      1562.093 6        40.000 6
G10  24065642.434 5 126465758.550 5     -3667.694 5        31.000 5
G16  20943047.237 3         0.000 3         0.000 3        21.000 3
G20  22321003.504 5 117297660.143 5      1245.754 5        34.000 5
G21  21077736.726 4         0.000 4         0.000 4        26.000 4
G26  20518915.036 4 107827377.714 4       587.622 4        29.000 4
G27  22972032.557 2         0.000 2         0.000 2        13.000 2
G29  23197987.914 7 121906176.820 7      2794.511 7        42.000 7
> 2016 03 03 22 58 45.0000000  0  9      0.043851835000   
G04  20645399.133 6 108492233.054 6      1561.760 6        40.000 6
G10  24064944.014 5 126462088.462 5     -3668.520 5        31.000 5
G16  20942773.296 3         0.000 3         0.000 3        21.000 3
G18  22191052.954 7 116614716.052 7     -2099.152 7        43.000 7
G20  22321240.293 5 117298904.291 5      1245.421 5        34.000 5
G21  21077872.177 4         0.000 4         0.000 4        26.000 4
G26  20519026.423 4 107827963.739 4       587.341 4        29.000 4
G27  22971515.221 2         0.000 2         0.000 2        13.000 2
G29  23198519.344 7 121908969.389 7      2793.747 7        42.000 7
> 2016 03 03 22 58 46.0000000  0  9      0.043911712000   
G04  20645696.487 6 108493795.680 6      1562.304 6        40.000 6
G10  24064245.912 5 126458419.967 5     -3668.499 5        31.000 5
G16  20942511.888 3         0.000 3         0.000 3        21.000 3
G18  22190653.579 7 116612617.375 7     -2098.773 7        43.000 7
G20  22321477.491 5 117300150.647 5      1246.057 5        34.000 5
G21  21078010.621 4         0.000 4         0.000 4        26.000 4
G26  20519138.316 4 107828551.856 4       587.854 4        29.000 4
G27  22970978.481 2         0.000 2         0.000 2        13.000 2
G29  23199051.089 7 121911763.619 7      2793.840 7        42.000 7
> 2016 03 03 22 58 47.0000000  0  9      0.043971589000   
G04  20645993.879 6 108495358.587 6      1563.591 6        40.000 6
G10  24063547.743 5 126454751.210 5     -3667.766 5        31.000 5
G16  20942251.230 3         0.000 3         0.000 3        21.000 3
G18  22190254.217 7 116610518.754 7     -2097.721 7        43.000 7
G20  22321714.724 5 117301397.289 5      1247.345 5        35.000 5
G21  21078154.218 4         0.000 4         0.000 4        26.000 4
G26  20519250.213 4 107829140.286 4       589.172 4        29.000 4
G27  22970467.859 2         0.000 2         0.000 2        12.000 2
G29  23199582.792 7 121914557.644 7      2794.635 7        42.000 7
> 2016 03 03 22 58 48.0000000  0  9      0.044031466000   
G04  20646291.349 6 108496921.874 6      1563.971 6        40.000 6
G10  24062849.544 5 126451082.313 5     -3667.899 5        31.000 5
G16  20941978.836 3         0.000 3         0.000 3        21.000 3
G18  22189854.897 7 116608420.363 7     -2097.496 7        43.000 7
G20  22321952.054 5 117302644.428 5      1247.837 5        35.000 5
G21  21078283.395 4         0.000 4         0.000 4        26.000 4
G26  20519362.171 4 107829729.089 4       589.542 4        29.000 4
G27  22969934.307 2         0.000 2         0.000 2        12.000 2
G29  23200114.483 7 121917351.632 7      2794.593 7        42.000 7
> 2016 03 03 22 58 49.0000000  0  9      0.044091343000   
G04  20646589.086 6 108498486.469 6      1565.274 6        40.000 6
G10  24062151.498 5 126447414.231 5     -3667.088 5        32.000 5
G16  20941706.551 3         0.000 3         0.000 3        21.000 3
G18  22189455.784 7 116606323.083 7     -2096.377 7        43.000 7
G20  22322189.646 5 117303892.844 5      1249.110 5        35.000 5
G21  21078409.919 4         0.000 4         0.000 4        27.000 4
G26  20519474.448 4 107830319.356 4       591.009 4        29.000 4
G27  22969405.396 2         0.000 2         0.000 2        12.000 2
G29  23200646.327 7 121920146.457 7      2795.435 7        42.000 7
> 2016 03 03 22 58 50.0000000  0  8      0.044151220000   
G04  20646886.925 6 108500051.655 6      1564.870 6        40.000 6
G10  24061453.481 5 126443746.204 5     -3668.037 5        32.000 5
G16  20941430.284 3         0.000 3         0.000 3        21.000 3
G20  22322427.326 5 117305141.833 5      1248.685 5        35.000 5
G21  21078545.602 4         0.000 4         0.000 4        27.000 4
G26  20519586.787 4 107830910.229 4       590.615 4        29.000 4
G27  22968879.858 2         0.000 2         0.000 2        12.000 2
G29  23201178.194 7 121922941.397 7      2794.548 7        42.000 7
> 2016 03 03 22 58 51.0000000  0  9      0.044211097000   
G04  20647184.828 6 108501617.206 6      1565.229 6        40.000 6
G10  24060755.450 5 126440078.083 5     -3668.130 5        32.000 5
G16  20941160.123 3         0.000 3         0.000 3        21.000 3
G18  22188657.761 7 116602129.527 7     -2096.771 7        43.000 7
G20  22322665.102 5 117306391.353 5      1249.219 5        35.000 5
G21  21078685.153 4         0.000 4         0.000 4        27.000 4
G26  20519699.251 4 107831501.435 4       590.943 4        29.000 4
G27  22968377.399 2         0.000 2         0.000 2        12.000 2
G29  23201710.051 7 121925736.294 7      2794.507 7        42.000 7
> 2016 03 03 22 58 52.0000000  0  9      0.044270974000   
G04  20647482.835 6 108503183.265 6      1566.701 6        40.000 6
G10  24060057.397 5 126436409.829 5     -3667.304 5        32.000 5
G16  20940903.214 3         0.000 3         0.000 3        21.000 3
G18  22188258.831 7 116600033.164 7     -2095.504 7        43.000 7
G20  22322902.975 5 117307641.371 5      1250.670 5        35.000 5
G21  21078818.467 4         0.000 4       707.256 4        27.000 4
G26  20519811.837 4 107832093.187 4       592.446 4        29.000 4
G27  22967837.199 2         0.000 2         0.000 2        12.000 2
G29  23202241.921 7 121928531.232 7      2795.507 7        42.000 7
> 2016 03 03 22 58 53.0000000  0  9      0.044330851000   
G04  20647780.906 6 108504749.657 6      1567.071 6        40.000 6
G10  24059359.295 5 126432741.386 5     -3667.448 5        32.000 5
G16  20940627.107 3         0.000 3         0.000 3        21.000 3
G18  22187859.929 7 116597936.951 7     -2095.309 7        43.000 7
G20  22323140.907 5 117308891.703 5      1251.029 5        35.000 5
G21  21078954.235 4 110770599.664 4       707.718 4        27.000 4
G26  20519924.487 4 107832685.364 4       592.918 4        29.000 4
G27  22967293.525 2         0.000 2         0.000 2        12.000 2
G29  23202773.749 7 121931326.022 7      2795.394 7        42.000 7
> 2016 03 03 22 58 54.0000000  0  8      0.044390728000   
G04  20648079.097 6 108506316.652 6      1567.676 6        40.000 6
G10  24058661.231 5 126429073.119 5     -3667.273 5        32.000 5
G16  20940358.835 3         0.000 3         0.000 3        21.000 3
G20  22323378.958 5 117310142.752 5      1251.748 5        35.000 5
G21  21079087.847 4 110771307.032 4       708.098 4        27.000 4
G26  20520037.259 4 107833278.107 4       593.483 4        29.000 4
G27  22966764.492 2         0.000 2         0.000 2        12.000 2
G29  23203305.624 7 121934120.987 7      2795.569 7        42.000 7
> 2016 03 03 22 58 55.0000000  0  9      0.044450606000   
G04  20648377.100 6 108507882.642 6      1568.251 6        40.000 6
G10  24057962.877 5 126425403.323 5     -3667.222 5        32.000 5
G16  20940108.613 3         0.000 3         0.000 3        21.000 3
G18  22187062.045 7 116593744.182 7     -2094.519 7        43.000 7
G20  22323616.830 5 117311392.800 5      1252.323 5        35.000 5
G21  21079222.372 4 110772013.176 4       708.447 4        27.000 4
G26  20520149.868 4 107833869.974 4       594.181 4        29.000 4
G27  22966249.953 2         0.000 2         0.000 2        12.000 2
G29  23203837.222 7 121936914.498 7      2795.692 7        42.000 7
> 2016 03 03 22 58 56.0000000  0  9      0.044510483000   
G04  20648675.528 6 108509450.864 6      1568.897 6        40.000 6
G10  24057264.854 5 126421735.208 5     -3667.119 5        32.000 5
G16  20939843.409 3         0.000 3         0.000 3        21.000 3
G18  22186663.386 7 116591649.247 7     -2094.037 7        43.000 7
G20  22323855.122 5 117312645.121 5      1253.021 5        34.000 5
G21  21079356.976 4 110772721.310 4       708.868 4        28.000 4
G26  20520262.867 4 107834464.047 4       594.817 4        29.000 4
G27  22965715.286 2         0.000 2         0.000 2        13.000 2
G29  23204369.144 7 121939709.755 7      2795.866 7        42.000 7
> 2016 03 03 22 58 57.0000000  0  9      0.044570360000   
G04  20648974.016 6 108511019.427 6      1569.246 6        40.000 6
G10  24056566.775 5 126418066.928 5     -3667.283 5        32.000 5
G16  20939574.190 3         0.000 3         0.000 3        21.000 3
G18  22186264.760 7 116589554.474 7     -2093.872 7        43.000 7
G20  22324093.475 5 117313897.799 5      1253.380 5        34.000 5
G21  21079491.530 4 110773429.543 4       708.960 4        28.000 4
G26  20520375.924 4 107835058.425 4       595.115 4        29.000 4
G27  22965182.601 2         0.000 2         0.000 2        13.000 2
G29  23204901.059 7 121942504.927 7      2795.774 7        42.000 7
> 2016 03 03 22 58 58.0000000  0  8      0.044630237000   
G04  20649272.659 6 108512588.800 6      1570.057 6        40.000 6
G10  24055868.752 5 126414398.898 5     -3667.037 5        33.000 5
G16  20939300.083 3         0.000 3         0.000 3        21.000 3
G20  22324331.991 5 117315151.359 5      1254.263 5        34.000 5
G21  21079626.594 4 110774138.452 4       709.638 4        28.000 4
G26  20520489.169 4 107835653.809 4       596.121 4        29.000 4
G27  22964658.581 2         0.000 2         0.000 2        13.000 2
G29  23205433.039 7 121945300.444 7      2796.123 7        42.000 7
> 2016 03 03 22 58 59.0000000  0  9      0.044690114000   
G04  20649571.441 6 108514158.854 6      1570.735 6        40.000 6
G10  24055170.781 5 126410731.069 5     -3666.832 5        33.000 5
G16  20939028.422 3         0.000 3         0.000 3        21.000 3
G18  22185467.836 7 116585366.662 7     -2092.774 7        43.000 7
G20  22324570.642 5 117316405.589 5      1254.930 5        34.000 5
G21  21079761.643 4 110774847.753 4       710.028 4        28.000 4
G26  20520602.536 4 107836249.742 4       596.675 4        29.000 4
G27  22964139.521 2         0.000 2         0.000 2        13.000 2
G29  23205965.055 7 121948096.169 7      2796.328 7        42.000 7
> 2016 03 03 22 59  0.0000000  0  9      0.044749991000   
G04  20649870.288 6 108515729.298 6      1571.125 6        40.000 6
G10  24054472.789 5 126407063.100 5     -3666.976 5        33.000 5
G16  20938753.082 3         0.000 3         0.000 3        21.000 3
G18  22185069.461 7 116583273.222 7     -2092.538 7        43.000 7
G20  22324809.394 5 117317660.323 5      1255.433 5        34.000 5
G21  21079896.738 4 110775557.305 4       710.284 4        28.000 4
G26  20520716.019 4 107836846.268 4       597.270 4        29.000 4
G27  22963596.978 2         0.000 2         0.000 2        14.000 2
G29  23206497.071 7 121950891.857 7      2796.297 7        42.000 7
> 2016 03 03 22 59  1.0000000  0  9      0.044809868000   
G04  20650169.213 6 108517300.199 6      1571.576 6        40.000 6
G10  24053774.769 5 126403395.085 5     -3667.017 5        33.000 5
G16  20938493.894 3         0.000 3         0.000 3        21.000 3
G18  22184671.141 7 116581180.040 7     -2092.282 7        43.000 7
G20  22325048.223 5 117318915.492 5      1255.864 5        34.000 5
G21  21080031.996 4 110776266.998 4       710.428 4        28.000 4
G26  20520829.597 4 107837443.171 4       597.640 4        29.000 4
G27  22963080.101 2         0.000 2         0.000 2        14.000 2
G29  23207029.081 7 121953687.539 7      2796.287 7        42.000 7
> 2016 03 03 22 59  2.0000000  0  9      0.044869745000   
G04  20650468.273 6 108518871.788 6      1572.264 6        40.000 6
G10  24053076.797 5 126399727.145 5     -3666.945 5        33.000 5
G16  20938214.966 3         0.000 3         0.000 3        20.000 3
G18  22184272.906 7 116579087.351 7     -2091.789 7        43.000 7
G20  22325287.195 5 117320171.376 5      1256.582 5        34.000 5
G21  21080167.277 4 110776977.207 4       710.941 4        28.000 4
G26  20520943.323 4 107838040.791 4       598.358 4        29.000 4
G27  22962557.795 2         0.000 2         0.000 2        14.000 2
G29  23207561.132 7 121956483.421 7      2796.492 7        42.000 7
> 2016 03 03 22 59  3.0000000  0  9      0.044929621000   
G04  20650767.757 6 108520445.603 6      1572.921 6        40.000 6
G10  24052379.158 5 126396061.041 5     -3666.688 5        33.000 5
G16  20937943.172 3         0.000 3         0.000 3        20.000 3
G18  22183875.064 7 116576996.733 7     -2091.296 7        43.000 7
G20  22325526.625 5 117321429.612 5      1257.362 5        34.000 5
G21  21080303.033 4 110777689.504 4       711.454 4        29.000 4
G26  20521057.441 4 107838640.709 4       599.077 4        29.000 4
G27  22962022.444 2         0.000 2         0.000 2        15.000 2
G29  23208093.533 7 121959281.121 7      2796.728 7        42.000 7
> 2016 03 03 22 59  4.0000000  0  9      0.044989498000   
G04  20651067.058 6 108522018.461 6      1573.537 6        40.000 6
G10  24051681.236 5 126392393.420 5     -3666.627 5        33.000 5
G16  20937673.811 3         0.000 3         0.000 3        20.000 3
G18  22183477.003 7 116574904.969 7     -2090.865 7        43.000 7
G20  22325765.872 5 117322686.881 5      1257.968 5        34.000 5
G21  21080438.335 4 110778400.449 4       711.680 4        29.000 4
G26  20521171.428 4 107839239.728 4       599.754 4        29.000 4
G27  22961483.546 2         0.000 2         0.000 2        15.000 2
G29  23208625.663 7 121962077.395 7      2796.882 7        42.000 7
> 2016 03 03 22 59  5.0000000  0  9      0.045049375000   
G04  20651366.489 6 108523591.985 6      1574.204 6        40.000 6
G10  24050983.362 5 126388725.988 5     -3666.442 5        33.000 5
G16  20937407.825 3         0.000 3         0.000 3        20.000 3
G18  22183079.036 7 116572813.700 7     -2090.373 7        43.000 7
G20  22326005.257 5 117323944.816 5      1258.635 5        34.000 5
G21  21080573.902 4 110779111.967 4       712.245 4        29.000 4
G26  20521285.529 4 107839839.423 4       600.431 4        29.000 4
G27  22960964.770 2         0.000 2         0.000 2        15.000 2
G29  23209157.838 7 121964873.853 7      2797.067 7        42.000 7
> 2016 03 03 22 59  6.0000000  0  8      0.045109252000   
G04  20651666.034 6 108525166.191 6      1574.881 6        40.000 6
G10  24050285.507 5 126385058.633 5     -3666.360 5        34.000 5
G16  20937144.069 3         0.000 3         0.000 3        20.000 3
G20  22326244.785 5 117325203.489 5      1259.374 5        34.000 5
G21  21080709.603 4 110779824.006 4       712.768 4        29.000 4
G26  20521399.740 4 107840439.795 4       601.109 4        29.000 4
G27  22960434.494 2         0.000 2         0.000 2        15.000 2
G29  23209690.055 7 121967670.555 7      2797.313 7        42.000 7
> 2016 03 03 22 59  7.0000000  0  9      0.045169129000   
G04  20651965.669 6 108526740.859 6      1575.302 6        40.000 6
G10  24049587.633 5 126381391.210 5     -3666.473 5        34.000 5
G16  20936883.920 3         0.000 3         0.000 3        20.000 3
G18  22182283.335 7 116568632.394 7     -2089.664 7        43.000 7
G20  22326484.383 5 117326462.629 5      1259.795 5        34.000 5
G21  21080845.251 4 110780536.134 4       712.819 4        29.000 4
G26  20521514.107 5 107841040.759 5       601.663 5        30.000 5
G27  22959887.961 2         0.000 2         0.000 2        15.000 2
G29  23210222.254 7 121970467.251 7      2797.262 7        42.000 7
> 2016 03 03 22 59  8.0000000  0  8      0.045229006000   
G04  20652265.360 6 108528315.796 6      1575.620 6        40.000 6
G10  24048889.724 5 126377723.612 5     -3666.606 5        34.000 5
G16  20936622.041 3         0.000 3         0.000 3        20.000 3
G20  22326724.060 5 117327722.175 5      1260.246 5        34.000 5
G21  21080980.978 4 110781248.419 4       713.014 4        29.000 4
G26  20521628.492 5 107841641.963 5       601.940 5        30.000 5
G27  22959382.568 2         0.000 2         0.000 2        16.000 2
G29  23210754.430 7 121973263.785 7      2797.139 7        42.000 7
> 2016 03 03 22 59  9.0000000  0  9      0.045288883000   
G04  20652565.273 6 108529891.853 6      1576.739 6        40.000 6
G10  24048191.923 5 126374056.598 5     -3666.021 5        34.000 5
G16  20936349.549 3         0.000 3         0.000 3        20.000 3
G18  22181487.908 7 116564452.484 7     -2088.597 7        43.000 7
G20  22326963.955 5 117328982.816 5      1261.344 5        34.000 5
G21  21081116.880 5 110781961.527 5       713.835 5        30.000 5
G26  20521743.112 5 107842244.300 5       603.079 5        30.000 5
G27  22958843.458 2         0.000 2         0.000 2        16.000 2
G29  23211286.731 7 121976060.974 7      2797.796 7        42.000 7
> 2016 03 03 22 59 10.0000000  0  8      0.045348760000   
G04  20652865.323 6 108531468.633 6      1577.457 6        40.000 6
G10  24047494.168 5 126370389.783 5     -3665.826 5        34.000 5
G16  20936083.904 3         0.000 3         0.000 3        20.000 3
G20  22327204.005 5 117330244.196 5      1262.083 5        34.000 5
G21  21081252.888 5 110782675.179 5       714.379 5        30.000 5
G26  20521857.891 5 107842847.465 5       603.901 5        30.000 5
G27  22958286.936 2         0.000 2         0.000 2        16.000 2
G29  23211819.083 6 121978858.447 6      2798.083 6        41.000 6
> 2016 03 03 22 59 11.0000000  0  9      0.045408637000   
G04  20653165.490 6 108533046.049 6      1578.094 6        40.000 6
G10  24046796.451 5 126366723.096 5     -3665.693 5        34.000 5
G16  20935825.407 3         0.000 3         0.000 3        20.000 3
G18  22180692.920 7 116560275.058 7     -2087.591 7        42.000 7
G20  22327444.190 5 117331506.275 5      1262.781 5        34.000 5
G21  21081388.958 5 110783389.253 5       714.811 5        30.000 5
G26  20521972.796 5 107843451.332 5       604.609 5        30.000 5
G27  22957775.256 2         0.000 2         0.000 2        16.000 2
G29  23212351.465 6 121981656.080 6      2798.237 6        41.000 6
> 2016 03 03 22 59 12.0000000  0  8      0.045468514000   
G04  20653465.771 6 108534624.022 6      1578.648 6        40.000 6
G10  24046098.731 5 126363056.431 5     -3665.672 5        34.000 5
G16  20935560.301 3         0.000 3         0.000 3        20.000 3
G20  22327684.503 5 117332768.992 5      1263.418 5        34.000 5
G21  21081525.103 5 110784103.683 5       715.160 5        30.000 5
G26  20522087.779 5 107844055.676 5       605.081 5        30.000 5
G27  22957257.027 2         0.000 2         0.000 2        16.000 2
G29  23212883.871 6 121984453.855 6      2798.381 6        41.000 6
> 2016 03 03 22 59 13.0000000  0  9      0.045528391000   
G04  20653766.061 6 108536202.065 6      1578.720 6        40.000 6
G10  24045400.939 5 126359389.351 5     -3666.083 5        34.000 5
G16  20935294.183 3         0.000 3         0.000 3        20.000 3
G18  22179898.165 7 116556098.733 7     -2087.324 7        42.000 7
G20  22327924.837 5 117334031.742 5      1263.449 5        35.000 5
G21  21081661.154 5 110784817.945 5       714.995 5        30.000 5
G26  20522202.847 5 107844660.256 5       605.317 5        30.000 5
G27  22956725.440 2         0.000 2         0.000 2        17.000 2
G29  23213416.204 6 121987251.235 6      2797.991 6        41.000 6
> 2016 03 03 22 59 14.0000000  0  9      0.045588268000   
G04  20654066.543 6 108537781.058 6      1579.674 6        40.000 6
G10  24044703.224 5 126355722.649 5     -3665.713 5        34.000 5
G16  20935032.458 3         0.000 3         0.000 3        21.000 3
G18  22179500.917 7 116554011.268 7     -2086.565 7        42.000 7
G20  22328165.364 5 117335295.485 5      1264.444 5        35.000 5
G21  21081797.366 5 110785532.958 5       715.745 5        31.000 5
G26  20522318.081 5 107845265.760 5       606.241 5        30.000 5
G27  22956198.300 2         0.000 2         0.000 2        17.000 2
G29  23213948.616 6 121990049.055 6      2798.422 6        41.000 6
> 2016 03 03 22 59 15.0000000  0  9      0.045648146000   
G04  20654366.834 6 108539359.157 6      1580.352 6        40.000 6
G10  24044005.244 5 126352054.620 5     -3665.457 5        35.000 5
G16  20934770.009 3         0.000 3         0.000 3        21.000 3
G18  22179103.477 7 116551922.776 7     -2086.021 7        42.000 7
G20  22328405.739 5 117336558.451 5      1265.245 5        35.000 5
G21  21081933.375 5 110786246.830 5       716.176 5        31.000 5
G26  20522433.114 5 107845870.323 5       606.877 5        30.000 5
G27  22955668.083 3         0.000 3         0.000 3        18.000 3
G29  23214480.782 6 121992845.610 6      2798.740 6        41.000 6
> 2016 03 03 22 59 16.0000000  0  8      0.045708023000   
G04  20654667.562 6 108540939.516 6      1581.039 6        40.000 6
G10  24043307.579 5 126348388.260 5     -3665.364 5        35.000 5
G16  20934504.402 3         0.000 3         0.000 3        21.000 3
G20  22328646.544 5 117337823.597 5      1265.840 5        35.000 5
G21  21082069.680 5 110786962.758 5       716.658 5        31.000 5
G26  20522548.654 5 107846477.325 5       607.739 5        30.000 5
G27  22955131.142 3         0.000 3         0.000 3        18.000 3
G29  23215013.292 6 121995643.929 6      2798.925 6        41.000 6
> 2016 03 03 22 59 17.0000000  0  9      0.045767900000   
G04  20654968.391 6 108542520.419 6      1581.583 6        40.000 6
G10  24042609.935 5 126344721.946 5     -3665.323 5        35.000 5
G16  20934237.713 3         0.000 3         0.000 3        21.000 3
G18  22178309.415 7 116547750.215 7     -2085.200 7        42.000 7
G20  22328887.486 5 117339089.406 5      1266.507 5        35.000 5
G21  21082206.085 5 110787679.045 5       717.017 5        31.000 5
G26  20522664.286 5 107847084.852 5       608.263 5        30.000 5
G27  22954607.383 3         0.000 3         0.000 3        18.000 3
G29  23215545.813 6 121998442.352 6      2799.027 6        41.000 6
> 2016 03 03 22 59 18.0000000  0  8      0.045827777000   
G04  20655269.255 6 108544101.463 6      1581.727 6        40.000 6
G10  24041912.203 5 126341055.256 5     -3665.693 5        35.000 5
G16  20933978.000 3         0.000 3         0.000 3        22.000 3
G20  22329128.444 5 117340355.382 5      1266.671 5        35.000 5
G21  21082342.478 5 110788395.218 5       716.904 5        31.000 5
G26  20522779.875 5 107847692.495 5       608.376 5        30.000 5
G27  22954075.030 3         0.000 3         0.000 3        19.000 3
G29  23216078.269 6 122001240.470 6      2798.719 6        41.000 6
> 2016 03 03 22 59 19.0000000  0  9      0.045887654000   
G04  20655570.346 6 108545683.680 6      1582.897 6        40.000 6
G10  24041214.609 5 126337389.294 5     -3664.964 5        35.000 5
G16  20933713.991 3         0.000 3         0.000 3        22.000 3
G18  22177515.601 7 116543578.971 7     -2084.225 7        42.000 7
G20  22329369.656 5 117341622.580 5      1267.893 5        35.000 5
G21  21082478.967 5 110789112.353 5       717.869 5        31.000 5
G26  20522895.694 5 107848301.425 5       609.669 5        30.000 5
G27  22953552.690 3         0.000 3         0.000 3        19.000 3
G29  23216610.863 6 122004039.310 6      2799.448 6        41.000 6
> 2016 03 03 22 59 20.0000000  0  9      0.045947531000   
G04  20655871.604 6 108547266.830 6      1582.831 6        40.000 6
G10  24040517.087 5 126333723.653 5     -3665.646 5        35.000 5
G16  20933455.949 3         0.000 3         0.000 3        23.000 3
G18  22177118.926 7 116541494.576 7     -2084.496 7        42.000 7
G20  22329611.034 5 117342890.724 5      1267.847 5        35.000 5
G21  21082615.570 5 110789830.250 5       717.629 5        31.000 5
G26  20523011.692 4 107848911.257 4       609.572 4        29.000 4
G27  22953012.577 3         0.000 3         0.000 3        19.000 3
G29  23217143.549 6 122006838.609 6      2798.910 6        41.000 6
> 2016 03 03 22 59 21.0000000  0  9      0.046007409000   
G04  20656172.612 6 108548848.650 6      1583.078 6        40.000 6
G10  24039819.220 5 126330056.190 5     -3665.892 5        35.000 5
G16  20933189.483 3         0.000 3         0.000 3        23.000 3
G18  22176721.970 7 116539408.695 7     -2084.403 7        42.000 7
G20  22329852.154 5 117344157.577 5      1268.124 5        35.000 5
G21  21082751.840 5 110790546.518 5       717.577 5        31.000 5
G26  20523127.493 4 107849519.956 4       610.013 4        29.000 4
G27  22952470.875 3         0.000 3         0.000 3        19.000 3
G29  23217675.907 6 122009636.138 6      2798.715 6        41.000 6
> 2016 03 03 22 59 22.0000000  0  9      0.046067286000   
G04  20656473.953 6 108550432.225 6      1584.211 6        40.000 6
G10  24039121.578 5 126326389.955 5     -3665.282 5        35.000 5
G16  20932927.130 3         0.000 3         0.000 3        23.000 3
G18  22176325.308 7 116537324.398 7     -2083.445 7        42.000 7
G20  22330093.607 5 117345426.267 5      1269.350 5        35.000 5
G21  21082888.491 5 110791264.353 5       718.526 5        31.000 5
G26  20523243.531 4 107850130.310 4       611.044 4        29.000 4
G27  22951953.066 3         0.000 3         0.000 3        19.000 3
G29  23218208.503 6 122012434.970 6      2799.397 6        41.000 6
> 2016 03 03 22 59 23.0000000  0  9      0.046127163000   
G04  20656775.470 6 108552016.713 6      1585.166 6        40.000 6
G10  24038424.036 5 126322724.141 5     -3664.820 5        35.000 5
G16  20932654.711 3         0.000 3         0.000 3        23.000 3
G18  22175928.778 7 116535240.763 7     -2082.736 7        42.000 7
G20  22330335.199 5 117346695.807 5      1270.233 5        35.000 5
G21  21083025.278 5 110791982.877 5       719.255 5        31.000 5
G26  20523348.727 4         0.000 4         0.000 4        24.000 4
G27  22951426.750 3         0.000 3         0.000 3        20.000 3
G29  23218741.187 6 122015234.232 6      2799.869 6        41.000 6
> 2016 03 03 22 59 24.0000000  0  9      0.046187040000   
G04  20657077.122 6 108553601.859 6      1584.822 6        40.000 6
G10  24037726.520 5 126319058.486 5     -3665.666 5        35.000 5
G16  20932396.801 4         0.000 4         0.000 4        24.000 4
G18  22175532.350 7 116533157.671 7     -2083.192 7        42.000 7
G20  22330576.960 5 117347966.114 5      1270.003 5        35.000 5
G21  21083162.145 5 110792701.872 5       718.727 5        31.000 5
G26  20523463.145 4         0.000 4         0.000 4        24.000 4
G27  22950902.243 3         0.000 3         0.000 3        20.000 3
G29  23219273.929 6 122018033.739 6      2799.115 6        41.000 6
> 2016 03 03 22 59 25.0000000  0  9      0.046246917000   
G04  20657378.870 6 108555187.570 6      1585.387 6        40.000 6
G10  24037029.009 5 126315392.855 5     -3665.635 5        35.000 5
G16  20932128.663 4         0.000 4         0.000 4        24.000 4
G18  22175135.999 7 116531074.978 7     -2082.792 7        42.000 7
G20  22330818.819 5 117349237.012 5      1270.598 5        35.000 5
G21  21083299.109 5 110793421.194 5       719.055 5        32.000 5
G26  20523576.840 4         0.000 4         0.000 4        24.000 4
G27  22950356.403 3         0.000 3         0.000 3        20.000 3
G29  23219806.684 6 122020833.365 6      2799.228 6        41.000 6
> 2016 03 03 22 59 26.0000000  0  9      0.046306793000   
G04  20657681.008 6 108556775.357 6      1586.890 6        40.000 6
G10  24036331.794 6 126311728.773 6     -3664.666 6        36.000 6
G16  20931867.726 4         0.000 4         0.000 4        24.000 4
G18  22174739.991 7 116528994.120 7     -2081.535 7        42.000 7
G20  22331061.070 5 117350509.997 5      1272.111 5        35.000 5
G21  21083436.371 5 110794142.406 5       720.363 5        32.000 5
G26  20523689.559 3         0.000 3         0.000 3        23.000 3
G27  22949824.444 3         0.000 3         0.000 3        20.000 3
G29  23220339.755 6 122023634.583 6      2800.249 6        41.000 6
> 2016 03 03 22 59 27.0000000  0  9      0.046366670000   
G04  20657982.934 6 108558362.000 6      1587.321 6        40.000 6
G10  24035634.256 6 126308063.011 6     -3664.769 6        36.000 6
G16  20931605.749 4         0.000 4         0.000 4        24.000 4
G18  22174343.749 7 116526911.951 7     -2081.269 7        42.000 7
G20  22331303.121 5 117351781.900 5      1272.604 5        35.000 5
G21  21083573.390 5 110794862.231 5       720.558 5        32.000 5
G26  20523802.930 3         0.000 3         0.000 3        23.000 3
G27  22949291.495 3         0.000 3         0.000 3        20.000 3
G29  23220872.525 6 122026434.196 6      2800.218 6        41.000 6
> 2016 03 03 22 59 28.0000000  0  8      0.046426547000   
G04  20658284.910 6 108559948.905 6      1587.588 6        40.000 6
G10  24034936.699 6 126304397.093 6     -3664.923 6        36.000 6
G16  20931332.064 4         0.000 4         0.000 4        24.000 4
G20  22331545.227 5 117353054.122 5      1272.922 5        35.000 5
G21  21083710.432 5 110795582.156 5       720.661 5        32.000 5
G26  20523920.605 3         0.000 3         0.000 3        22.000 3
G27  22948770.227 3         0.000 3         0.000 3        20.000 3
G29  23221405.264 6 122029233.665 6      2800.074 6        41.000 6
> 2016 03 03 22 59 29.0000000  0  9      0.046486424000   
G04  20658587.034 6 108561536.625 6      1588.399 6        40.000 6
G10  24034239.173 6 126300731.455 6     -3664.646 6        36.000 6
G16  20931072.817 4         0.000 4         0.000 4        24.000 4
G18  22173551.411 7 116522748.445 7     -2080.560 7        42.000 7
G20  22331787.496 5 117354327.159 5      1273.733 5        35.000 5
G21  21083847.582 5 110796302.582 5       721.154 5        32.000 5
G26  20524029.329 3         0.000 3         0.000 3        22.000 3
G27  22948234.935 3         0.000 3         0.000 3        20.000 3
G29  23221938.061 6 122032033.448 6      2800.392 6        41.000 6
> 2016 03 03 22 59 30.0000000  0  9      0.046546300000   
G04  20658889.575 6 108563126.498 6      1588.973 6        40.000 6
G10  24033541.948 6 126297067.336 6     -3664.697 6        36.000 6
G16  20930803.282 4         0.000 4         0.000 4        25.000 4
G18  22173155.686 7 116520668.967 7     -2080.150 7        42.000 7
G20  22332030.149 5 117355602.422 5      1274.390 5        35.000 5
G21  21083985.074 5 110797024.954 5       721.523 5        32.000 5
G26  20524144.787 3         0.000 3         0.000 3        22.000 3
G27  22947709.464 3         0.000 3         0.000 3        20.000 3
G29  23222471.177 6 122034834.944 6      2800.526 6        41.000 6
> 2016 03 03 22 59 31.0000000  0  9      0.046606177000   
G04  20659191.949 6 108564715.553 6      1589.733 6        40.000 6
G10  24032844.493 6 126293402.020 6     -3664.317 6        36.000 6
G16  20930539.663 4         0.000 4         0.000 4        25.000 4
G18  22172759.770 7 116518588.515 7     -2079.555 7        42.000 7
G20  22332272.668 5 117356876.920 5      1275.201 5        35.000 5
G21  21084122.399 5 110797746.400 5       722.180 5        32.000 5
G26  20524264.221 2         0.000 2         0.000 2        16.000 2
G27  22947184.580 3         0.000 3         0.000 3        20.000 3
G29  23223004.062 6 122037635.197 6      2800.865 6        41.000 6
> 2016 03 03 22 59 32.0000000  0  9      0.046666054000   
G04  20659494.466 6 108566305.310 6      1590.431 6        40.000 6
G10  24032147.057 6 126289736.793 6     -3664.235 6        36.000 6
G16  20930279.063 4         0.000 4         0.000 4        25.000 4
G18  22172363.945 7 116516508.552 7     -2079.062 7        42.000 7
G20  22332515.303 5 117358152.067 5      1275.847 5        35.000 5
G21  21084259.780 5 110798468.222 5       722.549 5        32.000 5
G26  20524364.993 2         0.000 2         0.000 2        15.000 2
G27  22946646.907 3         0.000 3         0.000 3        20.000 3
G29  23223536.980 6 122040435.658 6      2801.070 6        41.000 6
> 2016 03 03 22 59 33.0000000  0  9      0.046725931000   
G04  20659797.065 6 108567895.484 6      1590.852 6        40.000 6
G10  24031449.596 6 126286071.501 6     -3664.297 6        36.000 6
G16  20930014.488 4         0.000 4         0.000 4        25.000 4
G18  22171968.177 7 116514428.832 7     -2078.826 7        42.000 7
G20  22332758.042 5 117359427.720 5      1276.350 5        35.000 5
G21  21084397.210 5 110799190.244 5       722.755 5        32.000 5
G26  20524482.813 2         0.000 2         0.000 2        16.000 2
G27  22946114.772 3         0.000 3         0.000 3        20.000 3
G29  23224069.896 6 122043236.099 6      2801.049 6        41.000 6
> 2016 03 03 22 59 34.0000000  0  9      0.046785808000   
G04  20660099.709 6 108569485.919 6      1591.118 6        40.000 6
G10  24030752.089 6 126282405.971 6     -3664.533 6        36.000 6
G16  20929743.155 4         0.000 4         0.000 4        25.000 4
G18  22171572.427 7 116512349.210 7     -2078.723 7        42.000 7
G20  22333000.825 5 117360703.660 5      1276.637 5        35.000 5
G21  21084534.669 5 110799912.327 5       722.816 5        32.000 5
G26  20524593.479 2         0.000 2         0.000 2        16.000 2
G27  22945587.485 3         0.000 3         0.000 3        20.000 3
G29  23224602.788 6 122046036.356 6      2800.865 6        40.000 6
> 2016 03 03 22 59 35.0000000  0  9      0.046845684000   
G04  20660402.746 6 108571078.391 6      1591.580 6        40.000 6
G10  24030054.865 6 126278741.930 6     -3664.625 6        36.000 6
G16  20929479.735 4         0.000 4         0.000 4        25.000 4
G18  22171177.017 7 116510271.436 7     -2078.446 7        42.000 7
G20  22333243.990 5 117361981.670 5      1277.130 5        35.000 5
G21  21084672.387 5 110800636.267 5       723.093 5        32.000 5
G26  20524720.979 2         0.000 2         0.000 2        16.000 2
G27  22945061.058 3         0.000 3         0.000 3        20.000 3
G29  23225135.977 6 122048838.173 6      2800.844 6        40.000 6
> 2016 03 03 22 59 36.0000000  0  8      0.046905561000   
G04  20660705.627 6 108572670.094 6      1592.381 6        40.000 6
G10  24029357.404 6 126275076.640 6     -3664.297 6        36.000 6
G16  20929212.888 4         0.000 4         0.000 4        25.000 4
G20  22333487.022 5 117363258.970 5      1278.003 5        35.000 5
G21  21084809.956 5 110801359.197 5       723.658 5        32.000 5
G26  20524845.445 2         0.000 2         0.000 2        16.000 2
G27  22944538.593 3         0.000 3         0.000 3        20.000 3
G29  23225668.945 6 122051638.813 6      2801.244 6        40.000 6
> 2016 03 03 22 59 37.0000000  0  9      0.046965438000   
G04  20661008.663 6 108574262.656 6      1593.202 6        40.000 6
G10  24028660.020 6 126271411.703 6     -3663.989 6        37.000 6
G16  20928950.545 4         0.000 4         0.000 4        24.000 4
G18  22170385.969 7 116506114.634 7     -2077.204 7        42.000 7
G20  22333730.211 5 117364537.111 5      1278.793 5        35.000 5
G21  21084947.619 5 110802082.794 5       724.284 5        32.000 5
G26  20524947.786 2         0.000 2         0.000 2        16.000 2
G27  22944008.394 3         0.000 3         0.000 3        20.000 3
G29  23226201.989 6 122054439.815 6      2801.563 6        40.000 6
> 2016 03 03 22 59 38.0000000  0  9      0.047025314000   
G04  20661312.101 6 108575857.276 6      1593.725 6        40.000 6
G10  24027962.923 6 126267748.275 6     -3664.009 6        37.000 6
G16  20928692.433 4         0.000 4         0.000 4        24.000 4
G18  22169990.879 7 116504038.496 7     -2076.814 7        42.000 7
G20  22333973.784 5 117365817.400 5      1279.409 5        35.000 5
G21  21085085.693 5 110802808.161 5       724.520 5        32.000 5
G26  20525081.905 2         0.000 2         0.000 2        16.000 2
G27  22943480.655 3         0.000 3         0.000 3        20.000 3
G29  23226735.328 6 122057242.444 6      2801.655 6        40.000 6
> 2016 03 03 22 59 39.0000000  0  9      0.047085191000   
G04  20661615.419 6 108577451.209 6      1594.608 6        40.000 6
G10  24027265.582 6 126264083.649 6     -3663.630 6        37.000 6
G16  20928418.932 4         0.000 4         0.000 4        24.000 4
G18  22169595.621 7 116501961.443 7     -2076.157 7        42.000 7
G20  22334217.219 5 117367096.973 5      1280.271 5        34.000 5
G21  21085223.563 5 110803532.656 5       725.228 5        32.000 5
G26  20525197.838 2         0.000 2         0.000 2        16.000 2
G27  22942951.339 3         0.000 3         0.000 3        20.000 3
G29  23227268.458 6 122060043.914 6      2802.076 6        40.000 6
> 2016 03 03 22 59 40.0000000  0  9      0.047145068000   
G04  20661918.835 6 108579045.656 6      1595.121 6        40.000 6
G10  24026568.267 6 126260419.102 6     -3663.558 6        37.000 6
G16  20928164.163 4         0.000 4         0.000 4        24.000 4
G18  22169200.439 7 116499884.797 7     -2075.747 7        42.000 7
G20  22334460.771 5 117368377.143 5      1280.866 5        34.000 5
G21  21085361.421 5 110804257.490 5       725.567 5        32.000 5
G26  20525323.512 2         0.000 2         0.000 2        16.000 2
G27  22942424.014 3         0.000 3         0.000 3        20.000 3
G29  23227801.609 6 122062845.491 6      2802.178 6        40.000 6
> 2016 03 03 22 59 41.0000000  0  9      0.047204945000   
G04  20662222.402 6 108580640.877 6      1595.901 6        40.000 6
G10  24025870.995 6 126256754.729 6     -3663.383 6        37.000 6
G16  20927899.183 4         0.000 4         0.000 4        24.000 4
G18  22168805.362 7 116497808.664 7     -2075.234 7        42.000 7
G20  22334704.491 5 117369658.137 5      1281.687 5        34.000 5
G21  21085499.417 5 110804982.850 5       726.090 5        32.000 5
G26  20525458.976 2         0.000 2         0.000 2        16.000 2
G27  22941888.509 3         0.000 3         0.000 3        20.000 3
G29  23228334.819 6 122065647.352 6      2802.466 6        40.000 6
> 2016 03 03 22 59 42.0000000  0  9      0.047264822000   
G04  20662526.074 6 108582236.711 6      1595.507 6        40.000 6
G10  24025173.747 6 126253090.495 6     -3664.240 6        37.000 6
G16  20927633.016 4         0.000 4         0.000 4        24.000 4
G18  22168410.379 7 116495733.021 7     -2075.741 7        42.000 7
G20  22334948.355 5 117370939.801 5      1281.365 5        34.000 5
G21  21085637.486 5 110805708.587 5       725.470 5        32.000 5
G26  20525587.279 2         0.000 2         0.000 2        16.000 2
G27  22941367.898 3         0.000 3         0.000 3        20.000 3
G29  23228868.064 6 122068449.406 6      2801.661 6        40.000 6
> 2016 03 03 22 59 43.0000000  0  9      0.047324699000   
G04  20662829.756 6 108583832.531 6      1596.497 6        40.000 6
G10  24024476.376 6 126249425.734 6     -3663.763 6        37.000 6
G16  20927363.435 4         0.000 4         0.000 4        24.000 4
G18  22168015.362 7 116493657.178 7     -2074.946 7        42.000 7
G20  22335192.195 5 117372221.439 5      1282.334 5        34.000 5
G21  21085775.477 5 110806434.146 5       726.285 5        32.000 5
G26  20525706.278 2         0.000 2         0.000 2        16.000 2
G27  22940832.622 3         0.000 3         0.000 3        20.000 3
G29  23229401.210 6 122071250.950 6      2802.148 6        40.000 6
> 2016 03 03 22 59 44.0000000  0  9      0.047384576000   
G04  20663133.567 6 108585429.043 6      1597.195 6        40.000 6
G10  24023779.048 6 126245761.145 6     -3663.599 6        37.000 6
G16  20927111.617 4         0.000 4         0.000 4        24.000 4
G18  22167620.443 7 116491581.821 7     -2074.453 7        42.000 7
G20  22335436.195 5 117373503.840 5      1283.093 5        34.000 5
G21  21085913.593 5 110807160.152 5       726.737 5        32.000 5
G26  20525808.919 2         0.000 2         0.000 2        17.000 2
G27  22940302.907 3         0.000 3         0.000 3        20.000 3
G29  23229934.392 6 122074052.756 6      2802.414 6        40.000 6
> 2016 03 03 22 59 45.0000000  0  9      0.047444453000   
G04  20663437.554 6 108587026.428 6      1598.067 6        40.000 6
G10  24023081.800 6 126242096.909 6     -3663.240 6        37.000 6
G16  20926844.888 4         0.000 4         0.000 4        24.000 4
G18  22167225.660 7 116489507.181 7     -2073.745 7        42.000 7
G20  22335680.388 5 117374787.135 5      1283.997 5        34.000 5
G21  21086051.831 5 110807886.752 5       727.332 5        32.000 5
G26  20525928.393 2         0.000 2         0.000 2        17.000 2
G27  22939766.641 3         0.000 3         0.000 3        20.000 3
G29  23230467.671 6 122076855.007 6      2802.856 6        40.000 6
> 2016 03 03 22 59 46.0000000  0  8      0.047504330000   
G04  20663741.661 6 108588624.450 6      1598.703 6        40.000 6
G10  24022384.572 6 126238432.833 6     -3663.086 6        37.000 6
G16  20926590.356 4         0.000 4         0.000 4        24.000 4
G20  22335924.732 5 117376071.124 5      1284.684 5        34.000 5
G21  21086190.179 5 110808613.928 5       727.907 5        32.000 5
G26  20526063.039 2         0.000 2         0.000 2        17.000 2
G27  22939249.694 3         0.000 3         0.000 3        19.000 3
G29  23231000.981 6 122079657.406 6      2803.010 6        40.000 6
> 2016 03 03 22 59 47.0000000  0  9      0.047564207000   
G04  20664045.909 6 108590223.192 6      1599.422 6        40.000 6
G10  24021687.381 6 126234768.935 6     -3662.901 6        37.000 6
G16  20926324.450 4         0.000 4         0.000 4        24.000 4
G18  22166436.377 7 116485359.360 7     -2072.739 7        42.000 7
G20  22336169.218 5 117377355.891 5      1285.464 5        34.000 5
G21  21086328.596 5 110809341.433 5       728.236 5        32.000 5
G26  20526176.112 2         0.000 2         0.000 2        17.000 2
G27  22938716.339 3         0.000 3         0.000 3        19.000 3
G29  23231534.344 6 122082460.089 6      2803.287 6        40.000 6
> 2016 03 03 22 59 48.0000000  0  8      0.047624084000   
G04  20664350.197 6 108591822.117 6      1599.607 6        41.000 6
G10  24020990.122 6 126231104.720 6     -3663.219 6        37.000 6
G16  20926066.840 4         0.000 4         0.000 4        24.000 4
G20  22336413.746 5 117378640.843 5      1285.649 5        34.000 5
G21  21086467.025 5 110810069.002 5       728.297 5        31.000 5
G26  20526290.054 2         0.000 2         0.000 2        17.000 2
G27  22938195.439 3         0.000 3         0.000 3        19.000 3
G29  23232067.649 6 122085262.499 6      2803.020 6        40.000 6
> 2016 03 03 22 59 49.0000000  0  9      0.047683961000   
G04  20664654.697 6 108593422.140 6      1599.705 6        41.000 6
G10  24020292.983 6 126227441.104 6     -3663.624 6        37.000 6
G16  20925801.945 4         0.000 4         0.000 4        24.000 4
G18  22165647.377 7 116481213.038 7     -2072.805 7        43.000 7
G20  22336658.519 5 117379926.920 5      1285.778 5        34.000 5
G21  21086605.604 5 110810797.431 5       728.159 5        31.000 5
G26  20526412.654 2         0.000 2         0.000 2        17.000 2
G27  22937668.322 3         0.000 3         0.000 3        19.000 3
G29  23232601.080 6 122088065.558 6      2802.667 6        40.000 6
> 2016 03 03 22 59 50.0000000  0  8      0.047743838000   
G04  20664959.329 6 108595022.876 6      1600.413 6        41.000 6
G10  24019595.862 6 126223777.659 6     -3663.449 6        37.000 6
G16  20925540.776 4         0.000 4         0.000 4        24.000 4
G20  22336903.450 5 117381213.771 5      1286.548 5        35.000 5
G21  21086744.245 5 110811526.324 5       728.621 5        31.000 5
G26  20526534.026 3         0.000 3         0.000 3        18.000 3
G27  22937143.188 3         0.000 3         0.000 3        19.000 3
G29  23233134.555 6 122090868.880 6      2802.923 6        40.000 6
> 2016 03 03 22 59 51.0000000  0  9      0.047803716000   
G04  20665263.738 6 108596622.443 6      1600.824 6        41.000 6
G10  24018898.439 6 126220112.567 6     -3663.521 6        37.000 6
G16  20925282.426 4         0.000 4         0.000 4        24.000 4
G18  22164858.507 7 116477067.345 7     -2072.046 7        43.000 7
G20  22337148.167 5 117382499.485 5      1286.989 5        35.000 5
G21  21086882.652 5 110812253.929 5       728.909 5        31.000 5
G26  20526664.928 3         0.000 3         0.000 3        18.000 3
G27  22936620.235 3         0.000 3         0.000 3        19.000 3
G29  23233667.715 6 122093670.550 6      2802.851 6        40.000 6
> 2016 03 03 22 59 52.0000000  0  8      0.047863593000   
G04  20665568.586 6 108598224.319 6      1601.511 6        41.000 6
G10  24018201.356 6 126216449.224 6     -3663.388 6        38.000 6
G16  20925025.474 4         0.000 4         0.000 4        24.000 4
G20  22337393.332 5 117383787.535 5      1287.708 5        35.000 5
G21  21087021.444 5 110812983.460 5       729.216 5        31.000 5
G26  20526783.404 3         0.000 3         0.000 3        18.000 3
G27  22936083.312 3         0.000 3         0.000 3        19.000 3
G29  23234201.226 6 122096474.082 6      2803.098 6        40.000 6
> 2016 03 03 22 59 53.0000000  0  9      0.047923470000   
G04  20665873.494 6 108599826.553 6      1601.912 6        41.000 6
G10  24017504.230 6 126212785.737 6     -3663.490 6        38.000 6
G16  20924765.393 4         0.000 4         0.000 4        24.000 4
G18  22164070.218 7 116472924.765 7     -2071.276 7        43.000 7
G20  22337638.577 5 117385075.954 5      1288.118 5        35.000 5
G21  21087160.249 5 110813713.260 5       729.535 5        31.000 5
G26  20526889.529 3         0.000 3         0.000 3        18.000 3
G27  22935554.882 3         0.000 3         0.000 3        19.000 3
G29  23234734.710 6 122099277.529 6      2803.057 6        40.000 6
> 2016 03 03 22 59 54.0000000  0  9      0.047983347000   
G04  20666178.506 6 108601429.371 6      1602.497 6        41.000 6
G10  24016807.125 6 126209122.329 6     -3663.418 6        38.000 6
G16  20924505.065 4         0.000 4         0.000 4        24.000 4
G18  22163676.170 7 116470853.966 7     -2070.907 7        43.000 7
G20  22337883.956 5 117386365.053 5      1288.796 5        35.000 5
G21  21087299.127 5 110814443.346 5       729.822 5        31.000 5
G26  20527018.190 3         0.000 3         0.000 3        18.000 3
G27  22935019.924 3         0.000 3         0.000 3        19.000 3
G29  23235268.221 6 122102081.104 6      2803.180 6        39.000 6
> 2016 03 03 22 59 55.0000000  0  9      0.048043225000   
G04  20666483.312 6 108603031.157 6      1603.041 6        41.000 6
G10  24016109.733 6 126205457.461 6     -3663.295 6        38.000 6
G16  20924237.416 4         0.000 4         0.000 4        24.000 4
G18  22163281.883 7 116468781.955 7     -2070.537 7        43.000 7
G20  22338129.149 5 117387653.127 5      1289.350 5        35.000 5
G21  21087437.750 5 110815172.297 5       730.253 5        31.000 5
G26  20527133.538 3         0.000 3         0.000 3        18.000 3
G27  22934492.526 3         0.000 3         0.000 3        19.000 3
G29  23235801.451 6 122104883.205 6      2803.282 6        39.000 6
> 2016 03 03 22 59 56.0000000  0  9      0.048103102000   
G04  20666788.456 6 108604634.687 6      1604.205 6        41.000 6
G10  24015412.561 6 126201793.761 6     -3662.706 6        38.000 6
G16  20923979.488 4         0.000 4         0.000 4        24.000 4
G18  22162887.895 7 116466711.521 7     -2069.537 7        43.000 7
G20  22338374.665 5 117388943.024 5      1290.596 5        35.000 5
G21  21087576.677 5 110815902.674 5       731.109 5        31.000 5
G26  20527259.580 3         0.000 3         0.000 3        18.000 3
G27  22933962.395 3         0.000 3         0.000 3        19.000 3
G29  23236334.943 6 122107686.589 6      2803.995 6        39.000 6
> 2016 03 03 22 59 57.0000000  0  9      0.048162979000   
G04  20667093.727 6 108606238.855 6      1604.841 6        41.000 6
G10  24014715.418 6 126198130.123 6     -3662.644 6        38.000 6
G16  20923721.369 4         0.000 4         0.000 4        24.000 4
G18  22162494.005 7 116464641.553 7     -2069.065 7        43.000 7
G20  22338620.268 5 117390233.538 5      1291.212 5        35.000 5
G21  21087715.676 5 110816633.445 5       731.499 5        31.000 5
G26  20527384.753 3         0.000 3         0.000 3        18.000 3
G27  22933430.787 3         0.000 3         0.000 3        19.000 3
G29  23236868.473 6 122110490.157 6      2804.170 6        39.000 6
> 2016 03 03 22 59 58.0000000  0  8      0.048222855000   
G04  20667399.402 6 108607845.193 6      1605.436 6        41.000 6
G10  24014018.594 6 126194468.197 6     -3662.511 6        38.000 6
G16  20923461.204 4         0.000 4         0.000 4        24.000 4
G20  22338866.326 6 117391526.296 6      1291.879 6        36.000 6
G21  21087855.086 5 110817366.300 5       732.013 5        31.000 5
G26  20527499.337 3         0.000 3         0.000 3        18.000 3
G27  22932916.887 3         0.000 3         0.000 3        19.000 3
G29  23237402.312 6 122113295.445 6      2804.323 6        39.000 6
> 2016 03 03 22 59 59.0000000  0  9      0.048282732000   
G04  20667704.955 6 108609450.895 6      1606.381 6        41.000 6
G10  24013321.573 6 126190805.178 6     -3662.028 6        38.000 6
G16  20923198.143 4         0.000 4         0.000 4        24.000 4
G18  22161706.803 7 116460504.757 7     -2067.905 7        43.000 7
G20  22339112.275 6 117392818.439 6      1292.844 6        36.000 6
G21  21087994.277 5 110818098.194 5       732.628 5        31.000 5
G26  20527619.757 3         0.000 3         0.000 3        18.000 3
G27  22932384.997 3         0.000 3         0.000 3        19.000 3
G29  23237935.939 6 122116099.624 6      2804.785 6        39.000 6
> 2016 03 03 23 00  0.0000000  0  8      0.048342610000   
G04  20668010.354 6 108611055.808 6      1607.171 6        40.000 6
G10  24012624.290 6 126187140.822 6     -3661.792 6        38.000 6
G16  20922941.370 4         0.000 4         0.000 4        24.000 4
G20  22339358.077 6 117394109.870 6      1293.706 6        36.000 6
G21  21088133.317 5 110818829.121 5       733.234 5        31.000 5
G26  20527751.874 2         0.000 2         0.000 2        17.000 2
G27  22931848.818 3         0.000 3         0.000 3        19.000 3
G29  23238469.355 6 122118902.613 6      2805.175 6        39.000 6
> 2016 03 03 23 00  1.0000000  0  9      0.048402487000   
G04  20668316.098 6 108612662.530 6      1607.397 6        40.000 6
G10  24011927.240 6 126183477.748 6     -3662.080 6        38.000 6
G16  20922676.579 4         0.000 4         0.000 4        25.000 4
G18  22160919.398 7 116456366.879 7     -2067.218 7        42.000 7
G20  22339604.221 6 117395403.156 6      1293.983 6        36.000 6
G21  21088272.653 5 110819561.655 5       733.265 5        31.000 5
G26  20527866.147 2         0.000 2         0.000 2        17.000 2
G27  22931331.785 3         0.000 3         0.000 3        19.000 3
G29  23239003.014 6 122121706.961 6      2804.950 6        39.000 6
> 2016 03 03 23 00  2.0000000  0  9      0.048462364000   
G04  20668621.940 6 108614269.885 6      1608.033 6        40.000 6
G10  24011230.225 6 126179814.819 6     -3661.936 6        38.000 6
G16  20922413.530 4         0.000 4         0.000 4        25.000 4
G18  22160525.947 7 116454299.211 7     -2066.766 7        42.000 7
G20  22339850.482 6 117396697.061 6      1294.599 6        36.000 6
G21  21088412.060 5 110820294.613 5       733.686 5        31.000 5
G26  20527987.418 3         0.000 3         0.000 3        18.000 3
G27  22930802.954 3         0.000 3         0.000 3        19.000 3
G29  23239536.716 6 122124511.423 6      2805.073 6        39.000 6
> 2016 03 03 23 00  3.0000000  0  9      0.048522241000   
G04  20668927.872 6 108615877.737 6      1608.526 6        40.000 6
G10  24010533.209 6 126176151.857 6     -3661.967 6        38.000 6
G16  20922150.891 4         0.000 4         0.000 4        25.000 4
G18  22160132.554 7 116452231.869 7     -2066.448 7        42.000 7
G20  22340096.870 6 117397991.501 6      1295.133 6        36.000 6
G21  21088551.541 5 110821027.843 5       733.963 5        31.000 5
G26  20528102.082 3         0.000 3         0.000 3        18.000 3
G27  22930274.915 3         0.000 3         0.000 3        19.000 3
G29  23240070.435 6 122127315.982 6      2805.165 6        39.000 6
> 2016 03 03 23 00  4.0000000  0  9      0.048582118000   
G04  20669233.928 6 108617486.214 6      1609.152 6        40.000 6
G10  24009836.217 6 126172489.019 6     -3661.844 6        38.000 6
G16  20921897.408 4         0.000 4         0.000 4        25.000 4
G18  22159739.238 7 116450164.945 7     -2066.027 7        42.000 7
G20  22340343.352 6 117399286.593 6      1295.790 6        36.000 6
G21  21088691.060 5 110821761.411 5       734.301 5        31.000 5
G26  20528207.425 3         0.000 3         0.000 3        18.000 3
G27  22929756.199 3         0.000 3         0.000 3        19.000 3
G29  23240604.191 6 122130120.673 6      2805.299 6        39.000 6
> 2016 03 03 23 00  5.0000000  0  9      0.048641995000   
G04  20669540.072 6 108619095.095 6      1609.562 6        40.000 6
G10  24009139.205 6 126168826.071 6     -3661.957 6        38.000 6
G16  20921631.361 4         0.000 4         0.000 4        25.000 4
G18  22159345.979 7 116448098.288 7     -2065.760 7        42.000 7
G20  22340589.920 6 117400582.182 6      1296.282 6        36.000 6
G21  21088830.674 5 110822495.267 5       734.589 5        31.000 5
G26  20528348.931 3         0.000 3         0.000 3        18.000 3
G27  22929230.537 3         0.000 3         0.000 3        19.000 3
G29  23241137.937 6 122132925.349 6      2805.278 6        38.000 6
> 2016 03 03 23 00  6.0000000  0  8      0.048701872000   
G04  20669846.343 6 108620704.637 6      1610.219 6        40.000 6
G10  24008442.220 6 126165163.262 6     -3661.813 6        38.000 6
G16  20921366.226 4         0.000 4         0.000 4        25.000 4
G20  22340836.604 6 117401878.419 6      1296.929 6        36.000 6
G21  21088970.372 5 110823229.543 5       735.010 5        31.000 5
G26  20528477.312 3         0.000 3         0.000 3        18.000 3
G27  22928704.545 3         0.000 3         0.000 3        20.000 3
G29  23241671.710 6 122135730.199 6      2805.453 6        38.000 6
> 2016 03 03 23 00  7.0000000  0  9      0.048761749000   
G04  20670152.782 6 108622315.013 6      1611.010 6        40.000 6
G10  24007745.305 6 126161500.817 6     -3661.495 6        38.000 6
G16  20921107.906 4         0.000 4         0.000 4        24.000 4
G18  22158559.762 7 116443966.568 7     -2064.682 7        42.000 7
G20  22341083.479 6 117403175.523 6      1297.760 6        36.000 6
G21  21089110.146 5 110823964.366 5       735.513 5        31.000 5
G26  20528596.462 3         0.000 3         0.000 3        19.000 3
G27  22928171.828 3         0.000 3         0.000 3        20.000 3
G29  23242205.546 6 122138535.473 6      2805.832 6        38.000 6
> 2016 03 03 23 00  8.0000000  0  8      0.048821626000   
G04  20670459.329 6 108623925.979 6      1611.646 6        40.000 6
G10  24007048.383 6 126157838.400 6     -3661.423 6        38.000 6
G16  20920844.418 4         0.000 4         0.000 4        24.000 4
G20  22341330.471 6 117404473.298 6      1298.468 6        36.000 6
G21  21089249.973 5 110824699.548 5       735.913 5        31.000 5
G26  20528727.594 3         0.000 3         0.000 3        19.000 3
G27  22927647.786 3         0.000 3         0.000 3        20.000 3
G29  23242739.393 6 122141340.829 6      2805.966 6        38.000 6
> 2016 03 03 23 00  9.0000000  0  9      0.048881503000   
G04  20670766.047 6 108625537.827 6      1612.529 6        40.000 6
G10  24006351.543 6 126154176.416 6     -3660.992 6        38.000 6
G16  20920587.194 4         0.000 4         0.000 4        24.000 4
G18  22157773.952 7 116439837.052 7     -2063.492 7        42.000 7
G20  22341577.617 6 117405771.947 6      1299.341 6        36.000 6
G21  21089389.994 5 110825435.482 5       736.662 5        31.000 5
G26  20528839.283 3         0.000 3         0.000 3        19.000 3
G27  22927125.782 3         0.000 3         0.000 3        20.000 3
G29  23243273.333 6 122144146.668 6      2806.448 6        38.000 6
> 2016 03 03 23 00 10.0000000  0  9      0.048941380000   
G04  20671072.873 6 108627150.255 6      1612.103 6        40.000 6
G10  24005654.707 6 126150514.475 6     -3661.951 6        38.000 6
G16  20920317.427 4         0.000 4         0.000 4        24.000 4
G18  22157381.183 7 116437773.047 7     -2064.112 7        42.000 7
G20  22341824.878 6 117407071.225 6      1298.977 6        36.000 6
G21  21089530.073 5 110826171.828 5       736.073 5        31.000 5
G26  20528954.389 3         0.000 3         0.000 3        19.000 3
G27  22926588.116 3         0.000 3         0.000 3        20.000 3
G29  23243807.306 6 122146952.646 6      2805.582 6        38.000 6
> 2016 03 03 23 00 11.0000000  0  9      0.049001257000   
G04  20671379.817 6 108628763.310 6      1612.730 6        40.000 6
G10  24004957.895 6 126146852.629 6     -3661.848 6        38.000 6
G16  20920058.547 4         0.000 4         0.000 4        24.000 4
G18  22156988.505 7 116435709.495 7     -2063.650 7        42.000 7
G20  22342072.258 6 117408371.197 6      1299.665 6        36.000 6
G21  21089670.223 5 110826908.502 5       736.401 5        31.000 5
G26  20529079.320 3         0.000 3         0.000 3        20.000 3
G27  22926060.899 3         0.000 3         0.000 3        20.000 3
G29  23244341.297 6 122149758.754 6      2805.715 6        38.000 6
> 2016 03 03 23 00 12.0000000  0  9      0.049061135000   
G04  20671686.593 6 108630375.490 6      1613.438 6        40.000 6
G10  24004260.828 6 126143189.416 6     -3661.643 6        38.000 6
G16  20919801.913 4         0.000 4         0.000 4        24.000 4
G18  22156595.617 7 116433644.871 7     -2063.147 7        42.000 7
G20  22342319.477 6 117409670.278 6      1300.353 6        36.000 6
G21  21089810.137 5 110827644.036 5       736.842 5        31.000 5
G26  20529200.540 3         0.000 3         0.000 3        20.000 3
G27  22925528.409 3         0.000 3         0.000 3        20.000 3
G29  23244875.046 6 122152563.519 6      2805.951 6        38.000 6
> 2016 03 03 23 00 13.0000000  0  9      0.049121012000   
G04  20671993.683 6 108631989.298 6      1613.489 6        40.000 6
G10  24003563.968 6 126139527.332 6     -3662.094 6        38.000 6
G16  20919550.232 4         0.000 4         0.000 4        24.000 4
G18  22156203.014 7 116431581.723 7     -2063.250 7        42.000 7
G20  22342567.022 6 117410971.060 6      1300.476 6        36.000 6
G21  21089950.345 5 110828381.056 5       736.750 5        31.000 5
G26  20529327.935 3         0.000 3         0.000 3        20.000 3
G27  22925000.728 3         0.000 3         0.000 3        20.000 3
G29  23245409.025 6 122155369.478 6      2805.561 6        37.000 6
> 2016 03 03 23 00 14.0000000  0  9      0.049180889000   
G04  20672300.941 6 108633604.039 6      1614.423 6        40.000 6
G10  24002867.201 6 126135865.719 6     -3661.622 6        38.000 6
G16  20919281.876 4         0.000 4         0.000 4        24.000 4
G18  22155810.555 7 116429519.337 7     -2062.490 7        42.000 7
G20  22342814.729 6 117412272.827 6      1301.461 6        36.000 6
G21  21090090.684 5 110829118.747 5       737.417 5        31.000 5
G26  20529448.142 3         0.000 3         0.000 3        20.000 3
G27  22924479.475 3         0.000 3         0.000 3        20.000 3
G29  23245943.092 6 122158175.944 6      2806.074 6        37.000 6
> 2016 03 03 23 00 15.0000000  0  9      0.049240766000   
G04  20672608.335 6 108635219.513 6      1615.152 6        40.000 6
G10  24002170.460 6 126132204.253 6     -3661.468 6        38.000 6
G16  20919022.734 3         0.000 3         0.000 3        23.000 3
G18  22155418.189 7 116427457.481 7     -2061.957 7        42.000 7
G20  22343062.594 6 117413575.323 6      1302.190 6        36.000 6
G21  21090231.147 5 110829857.028 5       738.012 5        31.000 5
G26  20529575.712 3         0.000 3         0.000 3        21.000 3
G27  22923957.707 3         0.000 3         0.000 3        20.000 3
G29  23246477.217 6 122160982.703 6      2806.362 6        37.000 6
> 2016 03 03 23 00 16.0000000  0  9      0.049300644000   
G04  20672915.564 6 108636834.097 6      1615.839 6        40.000 6
G10  24001473.462 6 126128541.444 6     -3661.243 6        38.000 6
G16  20918774.441 3         0.000 3         0.000 3        23.000 3
G18  22155025.632 7 116425394.579 7     -2061.433 7        42.000 7
G20  22343310.301 6 117414876.985 6      1302.929 6        36.000 6
G21  21090371.375 5 110830594.113 5       738.392 5        31.000 5
G26  20529689.866 3         0.000 3         0.000 3        21.000 3
G27  22923435.268 3         0.000 3         0.000 3        21.000 3
G29  23247011.079 6 122163788.122 6      2806.598 6        37.000 6
> 2016 03 03 23 00 17.0000000  0  9      0.049360521000   
G04  20673223.165 6 108638450.618 6      1616.199 6        40.000 6
G10  24000776.713 6 126124880.012 6     -3661.438 6        38.000 6
G16  20918511.498 3         0.000 3         0.000 3        23.000 3
G18  22154633.399 7 116423333.448 7     -2061.238 7        42.000 7
G20  22343558.380 6 117416180.600 6      1303.309 6        36.000 6
G21  21090511.915 5 110831332.941 5       738.556 5        32.000 5
G26  20529814.878 3         0.000 3         0.000 3        21.000 3
G27  22922903.844 3         0.000 3         0.000 3        21.000 3
G29  23247545.221 6 122166594.991 6      2806.474 6        37.000 6
> 2016 03 03 23 00 18.0000000  0  8      0.049420398000   
G04  20673530.808 6 108640067.305 6      1616.363 6        40.000 6
G10  24000079.915 6 126121218.298 6     -3661.725 6        38.000 6
G16  20918254.654 3         0.000 3         0.000 3        23.000 3
G20  22343806.502 6 117417484.445 6      1303.545 6        36.000 6
G21  21090652.475 5 110832071.772 5       738.556 5        32.000 5
G26  20529927.572 3         0.000 3         0.000 3        21.000 3
G27  22922374.674 3         0.000 3         0.000 3        21.000 3
G29  23248079.309 6 122169401.601 6      2806.218 6        37.000 6
> 2016 03 03 23 00 19.0000000  0  9      0.049480276000   
G04  20673838.420 6 108641683.857 6      1617.800 6        40.000 6
G10  23999382.997 6 126117555.883 6     -3660.842 6        38.000 6
G16  20917996.366 3         0.000 3         0.000 3        23.000 3
G18  22153848.862 7 116419210.846 7     -2059.986 7        42.000 7
G20  22344054.595 6 117418788.178 6      1305.002 6        36.000 6
G21  21090792.962 5 110832810.211 5       739.747 5        32.000 5
G26  20530045.050 3         0.000 3         0.000 3        22.000 3
G27  22921848.920 3         0.000 3         0.000 3        21.000 3
G29  23248613.268 6 122172207.573 6      2807.152 6        37.000 6
> 2016 03 03 23 00 20.0000000  0  9      0.049540153000   
G04  20674146.470 6 108643302.636 6      1618.457 6        40.000 6
G10  23998686.416 6 126113895.191 6     -3660.699 6        38.000 6
G16  20917727.464 3         0.000 3         0.000 3        23.000 3
G18  22153456.951 6 116417151.456 6     -2059.493 6        41.000 6
G20  22344303.117 6 117420094.168 6      1305.690 6        36.000 6
G21  21090933.859 5 110833550.638 5       740.158 5        32.000 5
G26  20530176.536 3         0.000 3         0.000 3        22.000 3
G27  22921315.198 3         0.000 3         0.000 3        21.000 3
G29  23249147.590 6 122175015.354 6      2807.388 6        36.000 6
> 2016 03 03 23 00 21.0000000  0  9      0.049600031000   
G04  20674454.296 6 108644920.214 6      1618.785 6        40.000 6
G10  23997989.510 6 126110232.830 6     -3660.832 6        38.000 6
G16  20917459.055 3         0.000 3         0.000 3        22.000 3
G18  22153064.790 6 116415090.710 6     -2059.319 6        41.000 6
G20  22344551.445 6 117421399.025 6      1306.090 6        36.000 6
G21  21091074.491 5 110834289.691 5       740.312 5        32.000 5
G26  20530296.902 3         0.000 3         0.000 3        22.000 3
G27  22920787.143 3         0.000 3         0.000 3        21.000 3
G29  23249681.598 6 122177821.497 6      2807.285 6        36.000 6
> 2016 03 03 23 00 22.0000000  0  9      0.049659908000   
G04  20674762.472 6 108646539.621 6      1619.083 6        40.000 6
G10  23997292.846 6 126106571.788 6     -3661.048 6        38.000 6
G16  20917209.054 3         0.000 3         0.000 3        22.000 3
G18  22152672.938 6 116413031.569 6     -2059.247 6        41.000 6
G20  22344800.133 6 117422705.703 6      1306.377 6        36.000 6
G21  21091215.422 5 110835030.291 5       740.332 5        32.000 5
G26  20530426.052 3         0.000 3         0.000 3        22.000 3
G27  22920257.991 3         0.000 3         0.000 3        21.000 3
G29  23250215.865 6 122180629.032 6      2807.142 6        36.000 6
> 2016 03 03 23 00 23.0000000  0  9      0.049719785000   
G04  20675070.766 6 108648159.652 6      1619.709 6        40.000 6
G10  23996596.191 6 126102910.830 6     -3660.965 6        38.000 6
G16  20916940.092 2         0.000 2         0.000 2        17.000 2
G18  22152281.167 6 116410972.903 6     -2058.765 6        41.000 6
G20  22345048.917 6 117424013.070 6      1307.065 6        36.000 6
G21  21091356.453 5 110835771.377 5       740.814 5        32.000 5
G26  20530556.058 3         0.000 3         0.000 3        22.000 3
G27  22919742.377 3         0.000 3         0.000 3        21.000 3
G29  23250750.133 6 122183436.689 6      2807.265 6        36.000 6
> 2016 03 03 23 00 24.0000000  0  8      0.049779663000   
G04  20675378.908 6 108649778.928 6      1620.530 6        40.000 6
G10  23995899.312 6 126099248.643 6     -3660.616 6        38.000 6
G16  20916685.902 2         0.000 2         0.000 2        16.000 2
G20  22345297.584 6 117425319.714 6      1307.917 6        36.000 6
G21  21091497.292 5 110836511.488 5       741.420 5        32.000 5
G26  20530671.429 3         0.000 3         0.000 3        22.000 3
G27  22919217.471 3         0.000 3         0.000 3        21.000 3
G29  23251284.189 6 122186243.159 6      2807.655 6        36.000 6
> 2016 03 03 23 00 25.0000000  0  9      0.049839540000   
G04  20675687.433 6 108651400.198 6      1620.951 6        40.000 6
G10  23995202.689 6 126095587.926 6     -3660.719 6        38.000 6
G16  20916423.189 3         0.000 3         0.000 3        18.000 3
G18  22151497.624 6 116406855.508 6     -2057.913 6        41.000 6
G20  22345546.655 6 117426628.388 6      1308.369 6        36.000 6
G21  21091638.438 5 110837253.304 5       741.543 5        32.000 5
G26  20530800.350 3         0.000 3         0.000 3        23.000 3
G27  22918696.342 3         0.000 3         0.000 3        21.000 3
G29  23251818.522 6 122189051.131 6      2807.583 6        36.000 6
> 2016 03 03 23 00 26.0000000  0  8      0.049899417000   
G04  20675996.013 6 108653021.742 6      1621.218 6        40.000 6
G10  23994506.028 6 126091926.973 6     -3660.955 6        38.000 6
G16  20916165.356 3         0.000 3         0.000 3        18.000 3
G20  22345795.783 6 117427937.400 6      1308.707 6        37.000 6
G21  21091779.614 5 110837995.220 5       741.646 5        32.000 5
G26  20530919.106 3         0.000 3         0.000 3        23.000 3
G27  22918171.203 3         0.000 3         0.000 3        21.000 3
G29  23252352.816 6 122191858.971 6      2807.450 6        36.000 6
> 2016 03 03 23 00 27.0000000  0  9      0.049959295000   
G04  20676304.418 6 108654642.381 6      1621.895 6        40.000 6
G10  23993809.106 6 126088264.620 6     -3660.781 6        38.000 6
G16  20915905.884 3         0.000 3         0.000 3        18.000 3
G18  22150714.241 6 116402739.077 6     -2057.276 6        41.000 6
G20  22346044.735 6 117429245.545 6      1309.415 6        37.000 6
G21  21091920.553 5 110838735.994 5       742.077 5        32.000 5
G26  20531048.535 3         0.000 3         0.000 3        23.000 3
G27  22917634.623 3         0.000 3         0.000 3        21.000 3
G29  23252886.827 6 122194665.479 6      2807.686 6        36.000 6
> 2016 03 03 23 00 28.0000000  0  8      0.050019172000   
G04  20676613.271 6 108656265.409 6      1622.706 6        39.000 6
G10  23993112.540 6 126084604.167 6     -3660.463 6        38.000 6
G16  20915647.676 3         0.000 3         0.000 3        18.000 3
G20  22346294.140 6 117430556.080 6      1310.226 6        37.000 6
G21  21092061.910 5 110839478.981 5       742.713 5        32.000 5
G26  20531169.773 3         0.000 3         0.000 3        23.000 3
G27  22917108.190 3         0.000 3         0.000 3        21.000 3
G29  23253421.194 5 122197473.906 5      2808.035 5        35.000 5
> 2016 03 03 23 00 29.0000000  0  9      0.050079049000   
G04  20676922.226 6 108657888.970 6      1623.240 6        39.000 6
G10  23992415.977 6 126080943.740 6     -3660.432 6        38.000 6
G16  20915392.736 3         0.000 3         0.000 3        18.000 3
G18  22149931.553 6 116398626.342 6     -2056.301 6        41.000 6
G20  22346543.668 6 117431867.229 6      1310.842 6        37.000 6
G21  21092203.320 5 110840222.284 5       743.031 5        32.000 5
G26  20531299.542 3         0.000 3         0.000 3        23.000 3
G27  22916585.103 3         0.000 3         0.000 3        21.000 3
G29  23253955.601 5 122200282.400 5      2808.096 5        35.000 5
> 2016 03 03 23 00 30.0000000  0  9      0.050138926000   
G04  20677231.284 6 108659513.020 6      1623.722 6        39.000 6
G10  23991719.406 6 126077283.290 6     -3660.452 6        38.000 6
G16  20915139.735 3         0.000 3         0.000 3        18.000 3
G18  22149540.314 6 116396570.481 6     -2055.963 6        41.000 6
G20  22346793.295 6 117433178.861 6      1311.324 6        37.000 6
G21  21092344.796 5 110840965.829 5       743.278 5        32.000 5
G26  20531421.450 4         0.000 4         0.000 4        24.000 4
G27  22916055.594 3         0.000 3         0.000 3        20.000 3
G29  23254490.001 5 122203090.926 5      2808.137 5        35.000 5
> 2016 03 03 23 00 31.0000000  0  9      0.050198804000   
G04  20677540.126 6 108661136.018 6      1624.245 6        39.000 6
G10  23991022.532 6 126073621.238 6     -3660.483 6        38.000 6
G16  20914882.360 3         0.000 3         0.000 3        18.000 3
G18  22149148.819 6 116394513.365 6     -2055.644 6        41.000 6
G20  22347042.710 6 117434489.485 6      1311.899 6        37.000 6
G21  21092486.043 5 110841708.097 5       743.575 5        32.000 5
G26  20531554.381 4         0.000 4         0.000 4        24.000 4
G27  22915522.551 3         0.000 3         0.000 3        20.000 3
G29  23255024.152 5 122205897.938 5      2808.189 5        35.000 5
> 2016 03 03 23 00 32.0000000  0  9      0.050258681000   
G04  20677849.396 6 108662761.319 6      1624.974 6        39.000 6
G10  23990326.014 6 126069960.984 6     -3660.257 6        38.000 6
G16  20914619.529 3         0.000 3         0.000 3        18.000 3
G18  22148757.739 6 116392458.383 6     -2055.090 6        41.000 6
G20  22347292.583 6 117435802.423 6      1312.638 6        37.000 6
G21  21092627.686 5 110842452.422 5       744.058 5        32.000 5
G26  20531672.887 4         0.000 4         0.000 4        24.000 4
G27  22915001.904 3         0.000 3         0.000 3        20.000 3
G29  23255558.649 5 122208706.783 5      2808.455 5        35.000 5
> 2016 03 03 23 00 33.0000000  0  9      0.050318558000   
G04  20678158.793 6 108664387.289 6      1625.652 6        39.000 6
G10  23989629.522 6 126066300.936 6     -3660.052 6        38.000 6
G16  20914377.803 3         0.000 3         0.000 3        18.000 3
G18  22148366.768 6 116390403.954 6     -2054.536 6        41.000 6
G20  22347542.611 6 117437116.138 6      1313.408 6        37.000 6
G21  21092769.423 5 110843197.265 5       744.571 5        33.000 5
G26  20531788.114 4         0.000 4         0.000 4        24.000 4
G27  22914477.949 3         0.000 3         0.000 3        20.000 3
G29  23256093.177 5 122211515.878 5      2808.702 5        35.000 5
> 2016 03 03 23 00 34.0000000  0  9      0.050378436000   
G04  20678467.924 6 108666011.858 6      1625.816 6        39.000 6
G10  23988932.667 6 126062638.995 6     -3660.370 6        38.000 6
G16  20914131.311 3         0.000 3         0.000 3        18.000 3
G18  22147975.478 6 116388347.894 6     -2054.587 6        40.000 6
G20  22347792.342 6 117438428.412 6      1313.541 6        37.000 6
G21  21092910.827 5 110843940.424 5       744.468 5        33.000 5
G26  20531915.300 4         0.000 4         0.000 4        24.000 4
G27  22913945.246 3         0.000 3         0.000 3        20.000 3
G29  23256627.368 5 122214323.161 5      2808.466 5        35.000 5
> 2016 03 03 23 00 35.0000000  0  9      0.050438313000   
G04  20678777.484 6 108667638.705 6      1627.483 6        39.000 6
G10  23988236.142 6 126058978.754 6     -3659.288 6        38.000 6
G16  20913877.600 3         0.000 3         0.000 3        18.000 3
G18  22147584.594 6 116386293.937 6     -2053.105 6        40.000 6
G20  22348042.518 6 117439743.045 6      1315.280 6        37.000 6
G21  21093052.621 5 110844685.691 5       745.951 5        33.000 5
G26  20532040.978 4         0.000 4         0.000 4        24.000 4
G27  22913405.520 3         0.000 3         0.000 3        20.000 3
G29  23257161.850 5 122217132.162 5      2809.568 5        34.000 5
> 2016 03 03 23 00 36.0000000  0  8      0.050498190000   
G04  20679087.154 6 108669266.157 6      1628.130 6        39.000 6
G10  23987539.647 6 126055318.674 6     -3659.083 6        38.000 6
G16  20913625.204 3         0.000 3         0.000 3        18.000 3
G20  22348292.839 6 117441058.343 6      1315.989 6        37.000 6
G21  21093194.474 5 110845431.302 5       746.341 5        33.000 5
G26  20532161.684 4         0.000 4         0.000 4        24.000 4
G27  22912880.227 3         0.000 3         0.000 3        19.000 3
G29  23257696.419 5 122219941.466 5      2809.907 5        34.000 5
> 2016 03 03 23 00 37.0000000  0  9      0.050558067000   
G04  20679396.990 6 108670894.477 6      1627.992 6        39.000 6
G10  23986843.219 6 126051658.961 6     -3659.724 6        38.000 6
G16  20913374.564 3         0.000 3         0.000 3        18.000 3
G18  22146803.148 6 116382187.668 6     -2052.935 6        40.000 6
G20  22348543.342 6 117442374.513 6      1315.861 6        37.000 6
G21  21093336.461 5 110846177.625 5       746.049 5        33.000 5
G26  20532284.543 4         0.000 4         0.000 4        24.000 4
G27  22912357.684 3         0.000 3         0.000 3        19.000 3
G29  23258231.069 5 122222751.053 5      2809.194 5        34.000 5
> 2016 03 03 23 00 38.0000000  0  9      0.050617944000   
G04  20679706.818 6 108672522.788 6      1628.992 6        38.000 6
G10  23986146.694 6 126047998.690 6     -3659.278 6        38.000 6
G16  20913115.279 3         0.000 3         0.000 3        19.000 3
G18  22146412.442 6 116380134.670 6     -2052.099 6        40.000 6
G20  22348793.838 6 117443690.699 6      1316.882 6        37.000 6
G21  21093478.407 5 110846923.686 5       746.792 5        33.000 5
G26  20532411.015 4         0.000 4         0.000 4        24.000 4
G27  22911823.925 3         0.000 3         0.000 3        19.000 3
G29  23258765.627 5 122225560.221 5      2809.774 5        34.000 5
> 2016 03 03 23 00 39.0000000  0  9      0.050677821000   
G04  20680016.830 6 108674152.037 6      1629.926 6        38.000 6
G10  23985450.267 6 126044338.943 6     -3658.754 6        38.000 6
G16  20912851.757 3         0.000 3         0.000 3        20.000 3
G18  22146021.902 6 116378082.487 6     -2051.288 6        40.000 6
G20  22349044.509 6 117445007.887 6      1317.887 6        37.000 6
G21  21093620.489 5 110847670.481 5       747.521 5        33.000 5
G26  20532525.665 4         0.000 4         0.000 4        24.000 4
G27  22911306.781 3         0.000 3         0.000 3        19.000 3
G29  23259300.268 5 122228369.929 5      2810.318 5        34.000 5
> 2016 03 03 23 00 40.0000000  0  9      0.050737698000   
G04  20680326.966 6 108675781.982 6      1630.624 6        38.000 6
G10  23984753.864 6 126040679.323 6     -3658.631 6        38.000 6
G16  20912601.120 3         0.000 3         0.000 3        20.000 3
G18  22145631.461 6 116376030.788 6     -2050.806 6        40.000 6
G20  22349295.329 6 117446325.787 6      1318.596 6        38.000 6
G21  21093762.677 5 110848417.761 5       748.014 5        33.000 5
G26  20532653.318 4         0.000 4         0.000 4        24.000 4
G27  22910776.398 3         0.000 3         0.000 3        18.000 3
G29  23259834.961 5 122231179.834 5      2810.513 5        34.000 5
> 2016 03 03 23 00 41.0000000  0  9      0.050797575000   
G04  20680637.269 6 108677412.790 6      1630.486 6        38.000 6
G10  23984057.524 6 126037020.057 6     -3659.272 6        38.000 6
G16  20912346.057 3         0.000 3         0.000 3        21.000 3
G18  22145241.160 6 116373979.819 6     -2051.067 6        40.000 6
G20  22349546.328 6 117447644.620 6      1318.530 6        38.000 6
G21  21093904.972 5 110849165.672 5       747.640 5        33.000 5
G26  20532775.671 3         0.000 3         0.000 3        23.000 3
G27  22910245.698 3         0.000 3         0.000 3        18.000 3
G29  23260369.752 5 122233990.157 5      2809.933 5        33.000 5
> 2016 03 03 23 00 42.0000000  0  8      0.050857453000   
G04  20680947.386 6 108679042.529 6      1630.989 6        38.000 6
G10  23983360.877 6 126033359.235 6     -3659.251 6        38.000 6
G16  20912093.915 3         0.000 3         0.000 3        21.000 3
G20  22349797.125 6 117448962.380 6      1319.033 6        38.000 6
G21  21094046.987 5 110849912.242 5       747.876 5        32.000 5
G26  20532910.588 3         0.000 3         0.000 3        23.000 3
G27  22909724.270 3         0.000 3         0.000 3        18.000 3
G29  23260904.243 5 122236798.916 5      2809.944 5        33.000 5
> 2016 03 03 23 00 43.0000000  0  9      0.050917330000   
G04  20681257.816 6 108680673.938 6      1631.081 6        38.000 6
G10  23982664.469 6 126029699.583 6     -3659.662 6        38.000 6
G16  20911840.374 3         0.000 3         0.000 3        21.000 3
G18  22144460.367 6 116369876.848 6     -2050.821 6        40.000 6
G20  22350048.244 6 117450281.875 6      1319.187 6        38.000 6
G21  21094189.320 5 110850660.377 5       747.866 5        32.000 5
G26  20533039.150 3         0.000 3         0.000 3        23.000 3
G27  22909203.149 3         0.000 3         0.000 3        18.000 3
G29  23261438.956 5 122239608.954 5      2809.646 5        33.000 5
> 2016 03 03 23 00 44.0000000  0  8      0.050977207000   
G04  20681568.464 6 108682306.456 6      1632.190 6        38.000 6
G10  23981968.172 6 126026040.520 6     -3659.067 6        38.000 6
G16  20911589.702 3         0.000 3         0.000 3        22.000 3
G20  22350299.584 6 117451602.487 6      1320.305 6        38.000 6
G21  21094331.804 5 110851409.313 5       748.666 5        32.000 5
G26  20533151.076 3         0.000 3         0.000 3        23.000 3
G27  22908664.683 3         0.000 3         0.000 3        18.000 3
G29  23261973.794 5 122242419.605 5      2810.262 5        33.000 5
> 2016 03 03 23 00 45.0000000  0  9      0.051037084000   
G04  20681879.260 6 108683939.773 6      1632.990 6        38.000 6
G10  23981271.928 6 126022381.764 6     -3658.759 6        38.000 6
G16  20911339.625 3         0.000 3         0.000 3        22.000 3
G18  22143680.348 6 116365777.856 6     -2049.281 6        41.000 6
G20  22350551.077 6 117452923.990 6      1321.198 6        38.000 6
G21  21094474.415 5 110852158.904 5       749.323 5        32.000 5
G26  20533281.051 3         0.000 3         0.000 3        22.000 3
G27  22908144.291 3         0.000 3         0.000 3        18.000 3
G29  23262508.710 5 122245230.658 5      2810.662 5        33.000 5
> 2016 03 03 23 00 46.0000000  0  8      0.051096962000   
G04  20682189.809 6 108685571.860 6      1633.339 6        38.000 6
G10  23980575.361 6 126018721.270 6     -3658.923 6        38.000 6
G16  20911078.582 3         0.000 3         0.000 3        23.000 3
G20  22350802.322 6 117454244.228 6      1321.506 6        38.000 6
G21  21094616.705 5 110852906.916 5       749.313 5        32.000 5
G26  20533407.945 3         0.000 3         0.000 3        22.000 3
G27  22907623.650 3         0.000 3         0.000 3        18.000 3
G29  23263043.282 5 122248039.973 5      2810.498 5        33.000 5
> 2016 03 03 23 00 47.0000000  0  9      0.051156839000   
G04  20682500.742 6 108687205.905 6      1633.719 6        38.000 6
G10  23979879.070 6 126015062.226 6     -3659.046 6        38.000 6
G16  20910823.066 3         0.000 3         0.000 3        23.000 3
G18  22142900.262 6 116361678.517 6     -2048.881 6        41.000 6
G20  22351053.955 6 117455566.509 6      1321.978 6        38.000 6
G21  21094759.303 5 110853656.730 5       749.539 5        32.000 5
G26  20533542.570 3         0.000 3         0.000 3        22.000 3
G27  22907090.519 3         0.000 3         0.000 3        18.000 3
G29  23263578.166 5 122250850.875 5      2810.508 5        33.000 5
> 2016 03 03 23 00 48.0000000  0  8      0.051216716000   
G04  20682811.743 6 108688840.284 6      1635.058 6        38.000 6
G10  23979182.735 6 126011402.998 6     -3658.231 6        38.000 6
G16  20910570.867 3         0.000 3         0.000 3        23.000 3
G20  22351305.660 6 117456889.102 6      1323.286 6        38.000 6
G21  21094901.952 5 110854406.621 5       750.621 5        32.000 5
G26  20533669.041 3         0.000 3         0.000 3        22.000 3
G27  22906565.322 3         0.000 3         0.000 3        18.000 3
G29  23264112.999 5 122253661.544 5      2811.272 5        33.000 5
> 2016 03 03 23 00 49.0000000  0  9      0.051276593000   
G04  20683122.969 6 108690475.863 6      1635.217 6        38.000 6
G10  23978486.541 6 126007744.525 6     -3658.523 6        38.000 6
G16  20910315.682 4         0.000 4         0.000 4        24.000 4
G18  22142120.798 6 116357582.315 6     -2047.711 6        41.000 6
G20  22351557.603 6 117458212.985 6      1323.538 6        37.000 6
G21  21095044.787 5 110855157.592 5       750.657 5        32.000 5
G26  20533794.673 3         0.000 3         0.000 3        22.000 3
G27  22906040.531 3         0.000 3         0.000 3        18.000 3
G29  23264647.999 5 122256473.052 5      2811.073 5        32.000 5
> 2016 03 03 23 00 50.0000000  0  8      0.051336471000   
G04  20683433.997 6 108692110.410 6      1635.802 6        38.000 6
G10  23977790.063 6 126004084.494 6     -3658.461 6        38.000 6
G16  20910056.464 4         0.000 4         0.000 4        24.000 4
G20  22351809.361 6 117459535.848 6      1324.134 6        37.000 6
G21  21095187.361 5 110855907.238 5       750.955 5        32.000 5
G26  20533929.866 3         0.000 3         0.000 3        22.000 3
G27  22905523.693 3         0.000 3         0.000 3        18.000 3
G29  23265182.693 5 122259283.029 5      2811.155 5        32.000 5
> 2016 03 03 23 00 51.0000000  0  9      0.051396348000   
G04  20683745.386 6 108693746.863 6      1636.131 6        38.000 6
G10  23977093.833 6 126000425.799 6     -3658.697 6        38.000 6
G16  20909804.358 4         0.000 4         0.000 4        24.000 4
G18  22141341.390 6 116353486.448 6     -2047.156 6        41.000 6
G20  22352061.474 6 117460860.655 6      1324.503 6        37.000 6
G21  21095330.262 5 110856658.556 5       751.047 5        32.000 5
G26  20534058.488 3         0.000 3         0.000 3        22.000 3
G27  22905009.447 3         0.000 3         0.000 3        18.000 3
G29  23265717.693 5 122262094.520 5      2811.093 5        32.000 5
> 2016 03 03 23 00 52.0000000  0  8      0.051456225000   
G04  20684056.878 6 108695383.854 6      1636.665 6        38.000 6
G10  23976397.634 6 125996767.209 6     -3658.595 6        38.000 6
G16  20909549.760 4         0.000 4         0.000 4        25.000 4
G20  22352313.712 6 117462186.045 6      1325.088 6        37.000 6
G21  21095473.246 5 110857410.221 5       751.396 5        32.000 5
G26  20534182.401 3         0.000 3         0.000 3        22.000 3
G27  22904477.317 3         0.000 3         0.000 3        18.000 3
G29  23266252.665 5 122264906.028 5      2811.114 5        32.000 5
> 2016 03 03 23 00 53.0000000  0  9      0.051516102000   
G04  20684368.487 6 108697021.465 6      1637.291 6        38.000 6
G10  23975701.437 6 125993108.643 6     -3658.574 6        38.000 6
G16  20909294.045 4         0.000 4         0.000 4        25.000 4
G18  22140562.524 6 116349393.480 6     -2046.387 6        41.000 6
G20  22352566.049 6 117463512.048 6      1325.694 6        37.000 6
G21  21095616.297 5 110858162.334 5       751.838 5        32.000 5
G26  20534301.728 3         0.000 3         0.000 3        23.000 3
G27  22903932.906 3         0.000 3         0.000 3        18.000 3
G29  23266787.645 5 122267717.686 5      2811.268 5        32.000 5
> 2016 03 03 23 00 54.0000000  0  8      0.051575980000   
G04  20684679.919 6 108698658.146 6      1637.937 6        38.000 6
G10  23975005.004 6 125989448.788 6     -3658.287 6        38.000 6
G16  20909041.355 4         0.000 4         0.000 4        25.000 4
G20  22352818.210 6 117464837.217 6      1326.443 6        37.000 6
G21  21095759.149 5 110858913.275 5       752.248 5        32.000 5
G26  20534436.667 3         0.000 3         0.000 3        23.000 3
G27  22903409.092 3         0.000 3         0.000 3        18.000 3
G29  23267322.386 5 122270528.099 5      2811.596 5        32.000 5
> 2016 03 03 23 00 55.0000000  0  9      0.051635857000   
G04  20684991.744 6 108700296.899 6      1638.430 6        38.000 6
G10  23974308.843 6 125985790.407 6     -3658.389 6        38.000 6
G16  20908791.199 4         0.000 4         0.000 4        25.000 4
G18  22139783.711 6 116345300.733 6     -2045.545 6        41.000 6
G20  22353070.760 6 117466164.459 6      1326.936 6        37.000 6
G21  21095902.335 5 110859666.056 5       752.515 5        32.000 5
G26  20534560.838 3         0.000 3         0.000 3        23.000 3
G27  22902893.280 3         0.000 3         0.000 3        18.000 3
G29  23267857.430 5 122273339.975 5      2811.483 5        32.000 5
> 2016 03 03 23 00 56.0000000  0  8      0.051695734000   
G04  20685303.680 6 108701936.305 6      1639.077 6        38.000 6
G10  23973612.699 6 125982132.182 6     -3658.235 6        38.000 6
G16  20908536.018 4         0.000 4         0.000 4        25.000 4
G20  22353323.439 6 117467492.367 6      1327.603 6        37.000 6
G21  21096045.617 5 110860419.249 5       752.926 5        32.000 5
G26  20534692.336 3         0.000 3         0.000 3        23.000 3
G27  22902364.093 3         0.000 3         0.000 3        18.000 3
G29  23268392.542 5 122276152.120 5      2811.750 5        32.000 5
> 2016 03 03 23 00 57.0000000  0  9      0.051755611000   
G04  20685615.715 6 108703576.180 6      1639.549 6        38.000 6
G10  23972916.556 6 125978473.941 6     -3658.246 6        38.000 6
G16  20908282.561 4         0.000 4         0.000 4        25.000 4
G18  22139005.488 6 116341211.081 6     -2044.785 6        41.000 6
G20  22353576.197 6 117468820.792 6      1328.116 6        37.000 6
G21  21096188.972 5 110861172.771 5       753.254 5        32.000 5
G26  20534818.581 3         0.000 3         0.000 3        23.000 3
G27  22901834.909 3         0.000 3         0.000 3        18.000 3
G29  23268927.627 5 122278964.240 5      2811.729 5        31.000 5
> 2016 03 03 23 00 58.0000000  0  8      0.051815488000   
G04  20685927.862 6 108705216.704 6      1640.195 6        37.000 6
G10  23972220.473 6 125974815.916 6     -3658.030 6        38.000 6
G16  20908025.383 4         0.000 4         0.000 4        25.000 4
G20  22353829.108 6 117470149.950 6      1328.855 6        37.000 6
G21  21096332.415 5 110861926.665 5       753.624 5        32.000 5
G26  20534945.851 4         0.000 4         0.000 4        24.000 4
G27  22901305.278 3         0.000 3         0.000 3        18.000 3
G29  23269462.718 5 122281776.592 5      2811.955 5        31.000 5
> 2016 03 03 23 00 59.0000000  0  9      0.051875365000   
G04  20686240.094 6 108706857.580 6      1641.555 6        37.000 6
G10  23971524.332 6 125971157.620 6     -3657.307 6        38.000 6
G16  20907768.857 4         0.000 4         0.000 4        25.000 4
G18  22138227.534 6 116337122.924 6     -2043.118 6        41.000 6
G20  22354082.078 6 117471479.467 6      1330.214 6        37.000 6
G21  21096475.885 5 110862680.694 5       754.757 5        32.000 5
G26  20535076.641 4         0.000 4         0.000 4        24.000 4
G27  22900779.464 3         0.000 3         0.000 3        18.000 3
G29  23269997.810 5 122284588.834 5      2812.853 5        31.000 5
> 2016 03 03 23 01  0.0000000  0  8      0.051935242000   
G04  20686552.457 6 108708499.135 6      1642.232 6        37.000 6
G10  23970828.221 6 125967499.527 6     -3657.102 6        38.000 6
G16  20907509.545 4         0.000 4         0.000 4        25.000 4
G20  22354335.159 6 117472809.675 6      1330.902 6        37.000 6
G21  21096619.434 5 110863435.177 5       755.209 5        32.000 5
G26  20535205.860 4         0.000 4         0.000 4        24.000 4
G27  22900267.406 3         0.000 3         0.000 3        18.000 3
G29  23270532.966 5 122287401.330 5      2813.099 5        31.000 5
> 2016 03 03 23 01  1.0000000  0  9      0.051995119000   
G04  20686864.932 6 108710141.267 6      1642.807 6        37.000 6
G10  23970132.133 6 125963841.540 6     -3656.989 6        38.000 6
G16  20907257.160 4         0.000 4         0.000 4        25.000 4
G18  22137449.891 6 116333036.358 6     -2042.205 6        41.000 6
G20  22354588.354 6 117474140.536 6      1331.559 6        36.000 6
G21  21096763.085 5 110864190.050 5       755.599 5        32.000 5
G26  20535336.076 4         0.000 4         0.000 4        24.000 4
G27  22899729.744 3         0.000 3         0.000 3        18.000 3
G29  23271068.141 5 122290214.015 5      2813.294 5        31.000 5
> 2016 03 03 23 01  2.0000000  0  8      0.052054996000   
G04  20687177.552 6 108711784.159 6      1643.566 6        37.000 6
G10  23969436.106 6 125960183.852 6     -3656.691 6        38.000 6
G16  20907000.081 4         0.000 4         0.000 4        25.000 4
G20  22354841.715 6 117475472.179 6      1332.339 6        36.000 6
G21  21096906.844 5 110864945.514 5       756.194 5        32.000 5
G26  20535462.280 4         0.000 4         0.000 4        24.000 4
G27  22899206.542 3         0.000 3         0.000 3        18.000 3
G29  23271603.315 5 122293026.861 5      2813.448 5        31.000 5
> 2016 03 03 23 01  3.0000000  0  9      0.052114873000   
G04  20687490.241 6 108713427.410 6      1643.925 6        37.000 6
G10  23968740.055 6 125956525.995 6     -3656.866 6        38.000 6
G16  20906746.524 4         0.000 4         0.000 4        25.000 4
G18  22136672.588 6 116328951.572 6     -2041.425 6        41.000 6
G20  22355095.129 6 117476804.188 6      1332.708 6        36.000 6
G21  21097050.604 5 110865701.022 5       756.235 5        32.000 5
G26  20535580.268 4         0.000 4         0.000 4        24.000 4
G27  22898687.781 3         0.000 3         0.000 3        18.000 3
G29  23272138.549 5 122295839.762 5      2813.510 5        30.000 5
> 2016 03 03 23 01  4.0000000  0  8      0.052174750000   
G04  20687802.978 6 108715070.920 6      1644.141 6        37.000 6
G10  23968043.933 6 125952867.869 6     -3657.174 6        38.000 6
G16  20906505.357 4         0.000 4         0.000 4        25.000 4
G20  22355348.600 6 117478136.549 6      1333.016 6        36.000 6
G21  21097194.394 5 110866456.614 5       756.276 5        32.000 5
G26  20535704.172 4         0.000 4         0.000 4        24.000 4
G27  22898167.945 3         0.000 3         0.000 3        18.000 3
G29  23272673.703 5 122298652.334 5      2813.140 5        30.000 5
> 2016 03 03 23 01  5.0000000  0  9      0.052234627000   
G04  20688115.836 6 108716715.115 6      1644.870 6        37.000 6
G10  23967347.866 6 125949209.949 6     -3656.927 6        38.000 6
G16  20906247.820 4         0.000 4         0.000 4        24.000 4
G18  22135895.447 6 116324867.706 6     -2040.768 6        41.000 6
G20  22355602.199 6 117479469.630 6      1333.776 6        36.000 6
G21  21097338.284 5 110867212.710 5       756.820 5        32.000 5
G26  20535835.684 4         0.000 4         0.000 4        24.000 4
G27  22897645.358 2         0.000 2         0.000 2        17.000 2
G29  23273208.914 5 122301465.245 5      2813.520 5        30.000 5
> 2016 03 03 23 01  6.0000000  0  9      0.052294504000   
G04  20688428.886 6 108718360.342 6      1645.906 6        37.000 6
G10  23966651.885 6 125945552.535 6     -3656.424 6        38.000 6
G16  20906004.136 2         0.000 2         0.000 2        17.000 2
G18  22135507.083 6 116322826.863 6     -2039.947 6        41.000 6
G20  22355856.016 6 117480803.744 6      1334.812 6        36.000 6
G21  21097482.313 5 110867969.559 5       757.580 5        32.000 5
G26  20535969.315 4         0.000 4         0.000 4        24.000 4
G27  22897108.013 2         0.000 2         0.000 2        17.000 2
G29  23273744.249 5 122304278.742 5      2814.105 5        30.000 5
> 2016 03 03 23 01  7.0000000  0  9      0.052354382000   
G04  20688741.784 6 108720004.717 6      1646.625 6        37.000 6
G10  23965955.641 6 125941893.772 6     -3656.199 6        38.000 6
G16  20905750.120 3         0.000 3         0.000 3        20.000 3
G18  22135118.516 6 116320784.977 6     -2039.413 6        41.000 6
G20  22356109.670 6 117482136.989 6      1335.510 6        36.000 6
G21  21097626.146 5 110868725.355 5       758.103 5        32.000 5
G26  20536104.270 4         0.000 4         0.000 4        24.000 4
G27  22896571.650 2         0.000 2         0.000 2        17.000 2
G29  23274279.305 5 122307090.877 5      2814.320 5        30.000 5
> 2016 03 03 23 01  8.0000000  0  8      0.052414259000   
G04  20689055.008 6 108721650.896 6      1646.851 6        37.000 6
G10  23965259.662 6 125938236.355 6     -3656.424 6        38.000 6
G16  20905494.461 3         0.000 3         0.000 3        19.000 3
G20  22356363.679 6 117483472.145 6      1335.849 6        36.000 6
G21  21097770.282 5 110869482.782 5       758.154 5        32.000 5
G26  20536231.458 4         0.000 4         0.000 4        24.000 4
G27  22896049.602 2         0.000 2         0.000 2        16.000 2
G29  23274814.608 5 122309904.337 5      2814.064 5        30.000 5
> 2016 03 03 23 01  9.0000000  0  9      0.052474136000   
G04  20689368.382 6 108723297.872 6      1647.651 6        37.000 6
G10  23964563.729 6 125934579.164 6     -3656.199 6        38.000 6
G16  20905252.420 3         0.000 3         0.000 3        19.000 3
G18  22134342.136 6 116316705.166 6     -2038.715 6        40.000 6
G20  22356617.834 6 117484808.080 6      1336.629 6        36.000 6
G21  21097914.502 5 110870240.699 5       758.647 5        32.000 5
G26  20536358.060 4         0.000 4         0.000 4        24.000 4
G27  22895519.067 2         0.000 2         0.000 2        16.000 2
G29  23275350.001 4 122312718.177 4      2814.444 4        29.000 4
> 2016 03 03 23 01 10.0000000  0  8      0.052534013000   
G04  20689681.904 6 108724945.601 6      1647.400 6        37.000 6
G10  23963867.836 6 125930922.241 6     -3656.932 6        38.000 6
G16  20904995.759 3         0.000 3         0.000 3        18.000 3
G20  22356872.146 6 117486144.787 6      1336.399 6        36.000 6
G21  21098058.832 5 110870999.238 5       758.273 5        32.000 5
G26  20536490.873 4         0.000 4         0.000 4        24.000 4
G27  22894996.527 2         0.000 2         0.000 2        15.000 2
G29  23275885.437 4 122315532.331 4      2813.762 4        29.000 4
> 2016 03 03 23 01 11.0000000  0  9      0.052593890000   
G04  20689995.565 6 108726594.066 6      1648.139 6        36.000 6
G10  23963171.970 6 125927265.559 6     -3656.685 6        38.000 6
G16  20904741.910 3         0.000 3         0.000 3        18.000 3
G18  22133566.193 6 116312627.690 6     -2038.566 6        40.000 6
G20  22357126.618 6 117487482.257 6      1337.169 6        36.000 6
G21  21098203.232 5 110871758.230 5       758.725 5        32.000 5
G26  20536620.909 4         0.000 4         0.000 4        24.000 4
G27  22894466.738 2         0.000 2         0.000 2        15.000 2
G29  23276420.924 4 122318346.671 4      2813.946 4        29.000 4
> 2016 03 03 23 01 12.0000000  0  8      0.052653767000   
G04  20690309.295 6 108728242.873 6      1648.478 6        36.000 6
G10  23962476.118 6 125923608.771 6     -3656.798 6        38.000 6
G16  20904490.005 3         0.000 3         0.000 3        18.000 3
G20  22357381.179 6 117488820.202 6      1337.641 6        36.000 6
G21  21098347.680 5 110872517.376 5       758.879 5        32.000 5
G26  20536742.554 4         0.000 4         0.000 4        24.000 4
G27  22893948.579 2         0.000 2         0.000 2        15.000 2
G29  23276956.454 4 122321161.115 4      2814.049 4        29.000 4
> 2016 03 03 23 01 13.0000000  0  9      0.052713644000   
G04  20690623.115 6 108729892.169 6      1648.971 6        36.000 6
G10  23961780.231 6 125919951.934 6     -3656.850 6        38.000 6
G16  20904247.358 2         0.000 2         0.000 2        17.000 2
G18  22132790.474 6 116308551.513 6     -2038.073 6        40.000 6
G20  22357635.824 6 117490158.621 6      1338.113 6        36.000 6
G21  21098492.183 5 110873276.776 5       759.125 5        32.000 5
G26  20536876.033 4         0.000 4         0.000 4        24.000 4
G27  22893415.317 2         0.000 2         0.000 2        14.000 2
G29  23277491.909 4 122323975.334 4      2813.823 4        29.000 4
> 2016 03 03 23 01 14.0000000  0  8      0.052773522000   
G04  20690936.874 6 108731541.167 6      1650.254 6        36.000 6
G10  23961084.209 6 125916294.306 6     -3656.059 6        38.000 6
G16  20903999.519 2         0.000 2         0.000 2        17.000 2
G20  22357890.430 6 117491496.765 6      1339.416 6        36.000 6
G21  21098636.607 5 110874035.703 5       760.233 5        32.000 5
G26  20536998.258 4         0.000 4         0.000 4        25.000 4
G27  22892907.536 1         0.000 1         0.000 1         7.000 1
G29  23278027.270 4 122326789.026 4      2814.870 4        28.000 4
> 2016 03 03 23 01 15.0000000  0  9      0.052833399000   
G04  20691251.043 6 108733192.410 6      1650.921 6        36.000 6
G10  23960388.519 6 125912638.375 6     -3655.936 6        38.000 6
G16  20903745.709 2         0.000 2         0.000 2        17.000 2
G18  22132015.037 6 116304476.751 6     -2036.482 6        40.000 6
G20  22358145.474 6 117492837.143 6      1340.073 6        36.000 6
G21  21098781.387 5 110874796.524 5       760.552 5        32.000 5
G26  20537128.745 4         0.000 4         0.000 4        25.000 4
G27  22892382.443 1         0.000 1         0.000 1         8.000 1
G29  23278562.956 4 122329604.388 4      2814.963 4        28.000 4
> 2016 03 03 23 01 16.0000000  0  8      0.052893276000   
G04  20691565.251 6 108734843.890 6      1651.157 6        36.000 6
G10  23959692.774 6 125908982.245 6     -3656.141 6        38.000 6
G16  20903494.941 2         0.000 2         0.000 2        16.000 2
G20  22358400.597 6 117494177.893 6      1340.443 6        36.000 6
G21  21098926.214 5 110875557.514 5       760.716 5        32.000 5
G26  20537258.190 4         0.000 4         0.000 4        25.000 4
G27  22891829.234 1         0.000 1         0.000 1         9.000 1
G29  23279098.625 4 122332419.628 4      2814.850 4        28.000 4
> 2016 03 03 23 01 17.0000000  0  9      0.052953154000   
G04  20691879.265 6 108736494.255 6      1651.619 6        36.000 6
G10  23958996.725 6 125905324.487 6     -3656.193 6        38.000 6
G16  20903245.846 2         0.000 2         0.000 2        16.000 2
G18  22131239.788 6 116300402.990 6     -2036.061 6        40.000 6
G20  22358655.492 6 117495517.502 6      1340.874 6        36.000 6
G21  21099070.782 5 110876317.139 5       760.931 5        32.000 5
G26  20537390.173 4         0.000 4         0.000 4        25.000 4
G27  22891304.575 1         0.000 1         0.000 1        11.000 1
G29  23279633.973 4 122335233.220 4      2814.778 4        28.000 4
> 2016 03 03 23 01 18.0000000  0  8      0.053013031000   
G04  20692193.673 6 108738146.711 6      1652.091 6        36.000 6
G10  23958300.966 6 125901668.271 6     -3656.265 6        38.000 6
G16  20902989.128 2         0.000 2         0.000 2        15.000 2
G20  22358910.771 6 117496859.242 6      1341.387 6        36.000 6
G21  21099215.673 5 110877078.529 5       761.075 5        32.000 5
G26  20537520.196 4         0.000 4         0.000 4        25.000 4
G27  22890765.797 2         0.000 2         0.000 2        12.000 2
G29  23280169.639 4 122338048.537 4      2814.880 4        28.000 4
> 2016 03 03 23 01 19.0000000  0  9      0.053072908000   
G04  20692508.289 6 108739800.237 6      1653.199 6        36.000 6
G10  23957605.346 6 125898012.766 6     -3655.515 6        38.000 6
G16  20902728.229 2         0.000 2         0.000 2        15.000 2
G18  22130465.194 6 116296332.675 6     -2034.758 6        40.000 6
G20  22359166.298 6 117498202.158 6      1342.608 6        36.000 6
G21  21099360.751 5 110877840.915 5       762.112 5        32.000 5
G26  20537650.389 4         0.000 4         0.000 4        25.000 4
G27  22890247.137 2         0.000 2         0.000 2        13.000 2
G29  23280705.418 4 122340864.406 4      2815.476 4        27.000 4
> 2016 03 03 23 01 20.0000000  0  8      0.053132786000   
G04  20692822.732 6 108741452.706 6      1653.723 6        36.000 6
G10  23956909.395 6 125894355.557 6     -3655.639 6        38.000 6
G16  20902481.066 2         0.000 2         0.000 2        15.000 2
G20  22359421.634 6 117499544.025 6      1343.132 6        36.000 6
G21  21099505.577 5 110878601.962 5       762.348 5        32.000 5
G26  20537790.548 4         0.000 4         0.000 4        25.000 4
G27  22889704.605 2         0.000 2         0.000 2        14.000 2
G29  23281240.884 4 122343678.769 4      2815.548 4        27.000 4
> 2016 03 03 23 01 21.0000000  0  9      0.053192663000   
G04  20693137.519 6 108743107.081 6      1654.051 6        36.000 6
G10  23956213.729 6 125890699.833 6     -3655.731 6        38.000 6
G16  20902231.193 2         0.000 2         0.000 2        15.000 2
G18  22129690.635 6 116292262.545 6     -2034.286 6        40.000 6
G20  22359677.352 6 117500887.832 6      1343.501 6        36.000 6
G21  21099650.731 5 110879364.754 5       762.522 5        32.000 5
G26  20537914.252 4         0.000 4         0.000 4        25.000 4
G27  22889202.839 2         0.000 2         0.000 2        16.000 2
G29  23281776.626 4 122346494.636 4      2815.476 4        27.000 4
> 2016 03 03 23 01 22.0000000  0  8      0.053252540000   
G04  20693452.469 6 108744762.252 6      1654.842 6        36.000 6
G10  23955518.123 6 125887044.385 6     -3655.454 6        38.000 6
G16  20901974.790 2         0.000 2         0.000 2        14.000 2
G20  22359933.229 6 117502232.414 6      1344.271 6        36.000 6
G21  21099795.957 5 110880128.044 5       763.015 5        32.000 5
G26  20538047.828 4         0.000 4         0.000 4        25.000 4
G27  22888663.805 2         0.000 2         0.000 2        16.000 2
G29  23282312.452 4 122349310.725 4      2815.691 4        27.000 4
> 2016 03 03 23 01 23.0000000  0  9      0.053312418000   
G04  20693767.193 6 108746416.210 6      1655.211 6        36.000 6
G10  23954822.188 6 125883387.283 6     -3655.536 6        38.000 6
G16  20901732.580 1         0.000 1         0.000 1        10.000 1
G18  22128916.383 6 116288194.089 6     -2033.393 6        40.000 6
G20  22360188.916 6 117503575.955 6      1344.805 6        36.000 6
G21  21099940.949 5 110880889.999 5       763.261 5        32.000 5
G26  20538178.597 4         0.000 4         0.000 4        25.000 4
G27  22888143.196 2         0.000 2         0.000 2        17.000 2
G29  23282841.774 4         0.000 4         0.000 4        27.000 4
> 2016 03 03 23 01 24.0000000  0  8      0.053372295000   
G04  20694082.328 6 108748072.347 6      1655.806 6        36.000 6
G10  23954126.566 6 125879731.777 6     -3655.515 6        38.000 6
G16  20901486.549 1         0.000 1         0.000 1        10.000 1
G20  22360444.998 6 117504921.600 6      1345.339 6        36.000 6
G21  21100086.287 5 110881653.852 5       763.579 5        32.000 5
G26  20538313.449 4         0.000 4         0.000 4        25.000 4
G27  22887618.238 2         0.000 2         0.000 2        17.000 2
G29  23283372.268 4         0.000 4      2815.814 4        27.000 4
> 2016 03 03 23 01 25.0000000  0  9      0.053432172000   
G04  20694397.464 6 108749728.669 6      1656.001 6        36.000 6
G10  23953430.898 6 125876075.998 6     -3655.782 6        38.000 6
G16  20901222.395 1         0.000 1         0.000 1        10.000 1
G18  22128142.634 6 116284128.236 6     -2033.003 6        40.000 6
G20  22360701.129 6 117506267.475 6      1345.564 6        36.000 6
G21  21100231.639 5 110882417.708 5       763.590 5        32.000 5
G26  20538446.807 4         0.000 4         0.000 4        25.000 4
G27  22887084.445 3         0.000 3         0.000 3        18.000 3
G29  23283908.537 4 122357757.487 4      2815.548 4        27.000 4
> 2016 03 03 23 01 26.0000000  0  8      0.053492049000   
G04  20694712.707 5 108751385.585 5      1656.586 5        35.000 5
G10  23952735.218 6 125872420.288 6     -3655.721 6        38.000 6
G16  20900968.918 1         0.000 1         0.000 1        11.000 1
G20  22360957.382 6 117507614.010 6      1346.231 6        36.000 6
G21  21100377.048 5 110883181.913 5       763.928 5        32.000 5
G26  20538573.135 4         0.000 4         0.000 4        25.000 4
G27  22886551.573 3         0.000 3         0.000 3        19.000 3
G29  23284443.479 4 122360573.659 4      2815.773 4        27.000 4
> 2016 03 03 23 01 27.0000000  0  9      0.053551926000   
G04  20695028.187 5 108753043.720 5      1657.808 5        35.000 5
G10  23952039.693 6 125868765.294 6     -3655.002 6        38.000 6
G16  20900708.561 1         0.000 1         0.000 1        11.000 1
G18  22127369.263 6 116280064.296 6     -2031.555 6        40.000 6
G20  22361213.871 6 117508961.779 6      1347.463 6        36.000 6
G21  21100522.625 5 110883947.112 5       764.924 5        32.000 5
G26  20538701.974 4         0.000 4         0.000 4        25.000 4
G27  22886027.453 3         0.000 3         0.000 3        19.000 3
G29  23284979.529 4 122363390.539 4      2816.482 4        26.000 4
> 2016 03 03 23 01 28.0000000  0  9      0.053611803000   
G04  20695343.766 5 108754702.413 5      1658.372 5        35.000 5
G10  23951344.179 6 125865110.350 6     -3654.951 6        38.000 6
G16  20900467.555 1         0.000 1         0.000 1        11.000 1
G18  22126982.744 6 116278033.220 6     -2031.176 6        40.000 6
G20  22361470.473 6 117510310.088 6      1348.007 6        37.000 6
G21  21100668.286 5 110884712.635 5       765.252 5        32.000 5
G26  20538834.162 4         0.000 4         0.000 4        25.000 4
G27  22885498.331 3         0.000 3         0.000 3        20.000 3
G29  23285515.687 4 122366207.529 4      2816.595 4        26.000 4
> 2016 03 03 23 01 29.0000000  0  9      0.053671680000   
G04  20695659.365 5 108756361.171 5      1658.434 5        35.000 5
G10  23950648.595 6 125861455.019 6     -3655.341 6        38.000 6
G16  20900209.189 1         0.000 1         0.000 1        11.000 1
G18  22126596.228 6 116276002.097 6     -2031.227 6        40.000 6
G20  22361727.112 6 117511658.600 6      1348.202 6        37.000 6
G21  21100813.883 5 110885478.028 5       765.119 5        32.000 5
G26  20538968.927 4         0.000 4         0.000 4        25.000 4
G27  22884982.326 4         0.000 4         0.000 4        24.000 4
G29  23286051.395 4 122369024.138 4      2816.215 4        26.000 4
> 2016 03 03 23 01 30.0000000  0  8      0.053731557000   
G04  20695975.085 5 108758020.543 5      1659.050 5        35.000 5
G10  23949953.026 6 125857799.756 6     -3655.269 6        38.000 6
G16  20899958.456 1         0.000 1         0.000 1        11.000 1
G20  22361983.865 6 117513007.730 6      1348.818 6        37.000 6
G21  21100959.586 5 110886243.839 5       765.540 5        32.000 5
G26  20539099.936 4         0.000 4         0.000 4        25.000 4
G27  22884455.530 4         0.000 4         0.000 4        24.000 4
G29  23286587.548 4 122371840.868 4      2816.338 4        26.000 4
> 2016 03 03 23 01 31.0000000  0  9      0.053791434000   
G04  20696290.952 5 108759680.693 5      1659.830 5        35.000 5
G10  23949257.529 6 125854144.878 6     -3654.889 6        39.000 6
G16  20899723.304 1         0.000 1         0.000 1        11.000 1
G18  22125823.460 6 116271941.352 6     -2030.129 6        40.000 6
G20  22362240.785 6 117514357.720 6      1349.680 6        37.000 6
G21  21101105.396 5 110887010.227 5       766.115 5        32.000 5
G26  20539227.807 4         0.000 4         0.000 4        25.000 4
G27  22883931.502 4         0.000 4         0.000 4        25.000 4
G29  23287126.346 4         0.000 4         0.000 4        26.000 4
> 2016 03 03 23 01 32.0000000  0  9      0.053851312000   
G04  20696606.621 5 108761339.871 5      1660.384 5        35.000 5
G10  23948561.727 6 125850488.437 6     -3654.920 6        39.000 6
G16  20899456.061 1         0.000 1         0.000 1        11.000 1
G18  22125436.914 6 116269910.114 6     -2029.811 6        40.000 6
G20  22362497.530 6 117515706.723 6      1350.234 6        37.000 6
G21  21101250.957 5 110887775.348 5       766.381 5        32.000 5
G26  20539356.961 4         0.000 4         0.000 4        25.000 4
G27  22883400.572 4         0.000 4         0.000 4        25.000 4
G29  23287664.236 4         0.000 4         0.000 4        26.000 4
> 2016 03 03 23 01 33.0000000  0  9      0.053911189000   
G04  20696922.697 5 108763001.066 5      1660.866 5        35.000 5
G10  23947866.214 6 125846833.513 6     -3654.930 6        39.000 6
G16  20899191.750 2         0.000 2         0.000 2        12.000 2
G18  22125050.714 6 116267880.708 6     -2029.513 6        40.000 6
G20  22362754.657 6 117517057.725 6      1350.696 6        37.000 6
G21  21101396.883 5 110888542.272 5       766.648 5        32.000 5
G26  20539486.966 4         0.000 4         0.000 4        25.000 4
G27  22882871.486 4         0.000 4         0.000 4        25.000 4
G29  23288195.606 4         0.000 4         0.000 4        26.000 4
> 2016 03 03 23 01 34.0000000  0  8      0.053971066000   
G04  20697238.819 5 108764662.639 5      1661.246 5        35.000 5
G10  23947170.677 6 125843178.499 6     -3655.023 6        39.000 6
G16  20898931.856 1         0.000 1         0.000 1        11.000 1
G20  22363011.865 6 117518409.222 6      1351.189 6        37.000 6
G21  21101542.863 5 110889309.471 5       766.925 5        32.000 5
G26  20539619.058 4         0.000 4         0.000 4        25.000 4
G27  22882348.086 4         0.000 4         0.000 4        25.000 4
G29  23288733.203 4         0.000 4         0.000 4        26.000 4
> 2016 03 03 23 01 35.0000000  0  9      0.054030944000   
G04  20697554.752 5 108766323.130 5      1662.739 5        35.000 5
G10  23946474.849 6 125839521.881 6     -3654.054 6        39.000 6
G16  20898654.369 2         0.000 2         0.000 2        12.000 2
G18  22124278.193 6 116263821.140 6     -2027.969 6        40.000 6
G20  22363268.886 6 117519759.629 6      1352.671 6        37.000 6
G21  21101688.589 5 110890075.239 5       768.069 5        32.000 5
G26  20539754.432 4         0.000 4         0.000 4        25.000 4
G27  22881820.425 4         0.000 4         0.000 4        25.000 4
G29  23289263.117 4         0.000 4         0.000 4        26.000 4
> 2016 03 03 23 01 36.0000000  0  8      0.054090821000   
G04  20697871.111 5 108767985.783 5      1663.324 5        35.000 5
G10  23945779.341 6 125835866.980 6     -3653.910 6        39.000 6
G16  20898423.343 2         0.000 2         0.000 2        12.000 2
G20  22363526.334 6 117521112.267 6      1353.328 6        37.000 6
G21  21101834.693 5 110890843.030 5       768.521 5        32.000 5
G26  20539874.359 4         0.000 4         0.000 4        25.000 4
G27  22881289.312 4         0.000 4         0.000 4        25.000 4
G29  23289804.402 4         0.000 4         0.000 4        26.000 4
> 2016 03 03 23 01 37.0000000  0  9      0.054150698000   
G04  20698187.511 5 108769648.692 5      1663.581 5        34.000 5
G10  23945083.765 6 125832211.790 6     -3654.197 6        39.000 6
G16  20898180.529 2         0.000 2         0.000 2        12.000 2
G18  22123506.208 6 116259764.387 6     -2027.446 6        40.000 6
G20  22363783.833 6 117522465.196 6      1353.626 6        37.000 6
G21  21101980.808 5 110891610.814 5       768.510 5        32.000 5
G26  20539995.726 4         0.000 4         0.000 4        25.000 4
G27  22880765.882 4         0.000 4         0.000 4        25.000 4
G29  23290339.234 4         0.000 4         0.000 4        26.000 4
> 2016 03 03 23 01 38.0000000  0  9      0.054210575000   
G04  20698504.083 5 108771312.447 5      1664.432 5        34.000 5
G10  23944388.263 6 125828556.904 6     -3653.889 6        39.000 6
G16  20897930.873 2         0.000 2         0.000 2        12.000 2
G18  22123120.347 6 116257736.729 6     -2026.758 6        40.000 6
G20  22364041.482 6 117523818.932 6      1354.426 6        37.000 6
G21  21102127.050 5 110892379.274 5       769.188 5        32.000 5
G26  20540132.130 4         0.000 4         0.000 4        24.000 4
G27  22880243.437 4         0.000 4         0.000 4        26.000 4
G29  23290877.325 4         0.000 4         0.000 4        26.000 4
> 2016 03 03 23 01 39.0000000  0  9      0.054270452000   
G04  20698820.909 5 108772977.594 5      1664.818 5        34.000 5
G10  23943692.966 6 125824903.039 6     -3653.873 6        39.000 6
G16  20897680.157 2         0.000 2         0.000 2        12.000 2
G18  22122734.744 6 116255710.372 6     -2026.465 6        41.000 6
G20  22364299.416 6 117525174.237 6      1354.997 6        37.000 6
G21  21102273.520 5 110893148.907 5       769.358 5        32.000 5
G26  20540263.661 4         0.000 4         0.000 4        24.000 4
G27  22879723.180 4         0.000 4         0.000 4        26.000 4
G29  23291409.375 4         0.000 4         0.000 4        26.000 4
> 2016 03 03 23 01 40.0000000  0  8      0.054330329000   
G04  20699137.758 5 108774642.887 5      1664.972 5        34.000 5
G10  23942997.575 6 125821248.721 6     -3654.325 6        39.000 6
G16  20897426.600 2         0.000 2         0.000 2        12.000 2
G20  22364557.362 6 117526529.623 6      1355.079 6        37.000 6
G21  21102419.981 5 110893918.417 5       769.235 5        32.000 5
G26  20540397.956 4         0.000 4         0.000 4        24.000 4
G27  22879195.640 4         0.000 4         0.000 4        26.000 4
G29  23291953.311 4         0.000 4         0.000 4        26.000 4
> 2016 03 03 23 01 41.0000000  0  9      0.054390206000   
G04  20699454.693 5 108776308.578 5      1665.362 5        34.000 5
G10  23942302.180 6 125817594.362 6     -3654.366 6        39.000 6
G16  20897176.517 2         0.000 2         0.000 2        12.000 2
G18  22121963.551 6 116251657.684 6     -2026.311 6        41.000 6
G20  22364815.384 6 117527885.443 6      1355.510 6        37.000 6
G21  21102566.496 5 110894688.178 5       769.491 5        32.000 5
G26  20540537.732 4         0.000 4         0.000 4        24.000 4
G27  22878669.638 4         0.000 4         0.000 4        26.000 4
G29  23292489.841 4         0.000 4         0.000 4        26.000 4
> 2016 03 03 23 01 42.0000000  0  8      0.054450084000   
G04  20699771.511 5 108777973.589 5      1666.265 5        34.000 5
G10  23941606.560 6 125813938.811 6     -3653.986 6        39.000 6
G16  20896930.886 2         0.000 2         0.000 2        12.000 2
G20  22365073.285 6 117529240.652 6      1356.475 6        37.000 6
G21  21102712.796 5 110895456.958 5       770.087 5        32.000 5
G26  20540668.801 4         0.000 4         0.000 4        24.000 4
G27  22878143.674 4         0.000 4         0.000 4        26.000 4
G29  23293025.396 4         0.000 4         0.000 4        26.000 4
> 2016 03 03 23 01 43.0000000  0  9      0.054509961000   
G04  20700088.687 5 108779640.441 5      1666.522 5        35.000 5
G10  23940911.193 6 125810284.636 6     -3654.181 6        39.000 6
G16  20896677.014 2         0.000 2         0.000 2        12.000 2
G18  22121192.407 6 116247605.302 6     -2025.438 6        41.000 6
G20  22365331.520 6 117530597.754 6      1356.793 6        37.000 6
G21  21102859.428 5 110896227.425 5       770.200 5        32.000 5
G26  20540797.399 4         0.000 4         0.000 4        24.000 4
G27  22877618.369 4         0.000 4         0.000 4        26.000 4
G29  23293560.556 4         0.000 4         0.000 4        26.000 4
> 2016 03 03 23 01 44.0000000  0  9      0.054569838000   
G04  20700406.013 5 108781308.080 5      1667.312 5        35.000 5
G10  23940215.862 6 125806630.718 6     -3653.925 6        39.000 6
G16  20896446.546 2         0.000 2         0.000 2        12.000 2
G18  22120807.114 6 116245580.551 6     -2024.853 6        41.000 6
G20  22365589.912 6 117531955.649 6      1357.583 6        37.000 6
G21  21103006.173 5 110896998.473 5       770.774 5        32.000 5
G26  20540928.325 3         0.000 3         0.000 3        23.000 3
G27  22877085.327 4         0.000 4         0.000 4        26.000 4
G29  23294094.650 4         0.000 4         0.000 4        26.000 4
> 2016 03 03 23 01 45.0000000  0  9      0.054629715000   
G04  20700723.427 5 108782976.095 5      1667.692 5        35.000 5
G10  23939520.520 6 125802976.682 6     -3654.048 6        39.000 6
G16  20896221.892 2         0.000 2         0.000 2        12.000 2
G18  22120421.869 6 116243556.031 6     -2024.627 6        41.000 6
G20  22365848.351 6 117533313.943 6      1357.983 6        37.000 6
G21  21103152.913 5 110897769.616 5       770.867 5        32.000 5
G26  20541063.751 3         0.000 3         0.000 3        23.000 3
G27  22876566.240 4         0.000 4         0.000 4        27.000 4
G29  23294635.897 4         0.000 4         0.000 4        26.000 4
> 2016 03 03 23 01 46.0000000  0  9      0.054689593000   
G04  20701040.711 5 108784643.383 5      1668.533 5        35.000 5
G10  23938824.953 6 125799321.445 6     -3653.668 6        39.000 6
G16  20895979.527 2         0.000 2         0.000 2        14.000 2
G18  22120036.455 6 116241530.643 6     -2023.919 6        41.000 6
G20  22366106.700 6 117534671.613 6      1358.938 6        36.000 6
G21  21103299.440 5 110898539.849 5       771.534 5        32.000 5
G26  20541195.725 3         0.000 3         0.000 3        23.000 3
G27  22876032.293 4         0.000 4         0.000 4        27.000 4
G29  23295167.450 4         0.000 4         0.000 4        26.000 4
> 2016 03 03 23 01 47.0000000  0  9      0.054749470000   
G04  20701358.375 5 108786312.750 5      1668.995 5        35.000 5
G10  23938129.683 6 125795667.819 6     -3653.678 6        39.000 6
G16  20895747.681 2         0.000 2         0.000 2        14.000 2
G18  22119651.393 6 116239507.150 6     -2023.642 6        41.000 6
G20  22366365.424 6 117536031.353 6      1359.390 6        36.000 6
G21  21103446.332 5 110899311.945 5       771.780 5        32.000 5
G26  20541335.169 3         0.000 3         0.000 3        23.000 3
G27  22875514.043 4         0.000 4         0.000 4        27.000 4
G29  23295711.496 4         0.000 4         0.000 4        26.000 4
> 2016 03 03 23 01 48.0000000  0  8      0.054809347000   
G04  20701676.053 5 108787982.199 5      1670.119 5        35.000 5
G10  23937434.309 6 125792013.662 6     -3653.161 6        39.000 6
G16  20895489.288 2         0.000 2         0.000 2        15.000 2
G20  22366624.160 6 117537391.171 6      1360.513 6        36.000 6
G21  21103593.202 5 110900083.890 5       772.667 5        32.000 5
G26  20541461.011 3         0.000 3         0.000 3        22.000 3
G27  22874990.299 4         0.000 4         0.000 4        27.000 4
G29  23296242.980 4         0.000 4         0.000 4        26.000 4
> 2016 03 03 23 01 49.0000000  0  9      0.054869224000   
G04  20701993.923 5 108789652.569 5      1671.042 5        35.000 5
G10  23936739.050 6 125788360.034 6     -3652.637 6        39.000 6
G16  20895229.542 2         0.000 2         0.000 2        15.000 2
G18  22118881.375 6 116235460.713 6     -2021.903 6        41.000 6
G20  22366883.109 6 117538752.017 6      1361.539 6        36.000 6
G21  21103740.217 5 110900856.585 5       773.427 5        32.000 5
G26  20541593.526 3         0.000 3         0.000 3        18.000 3
G27  22874461.944 4         0.000 4     -2759.661 4        27.000 4
G29  23296774.421 4         0.000 4         0.000 4        26.000 4
> 2016 03 03 23 01 50.0000000  0  8      0.054929101000   
G04  20702311.933 5 108791323.588 5      1670.689 5        35.000 5
G10  23936043.816 6 125784706.541 6     -3653.504 6        39.000 6
G16  20894984.192 2         0.000 2         0.000 2        16.000 2
G20  22367142.163 6 117540113.489 6      1361.165 6        36.000 6
G21  21103887.253 5 110901629.673 5       772.817 5        32.000 5
G26  20541723.566 2         0.000 2         0.000 2        16.000 2
G27  22873937.192 4 120203331.418 4     -2760.415 4        27.000 4
G29  23297318.729 4         0.000 4         0.000 4        26.000 4
> 2016 03 03 23 01 51.0000000  0  9      0.054988979000   
G04  20702629.744 5 108792993.674 5      1671.335 5        35.000 5
G10  23935348.314 6 125781051.625 6     -3653.350 6        39.000 6
G16  20894739.336 2         0.000 2         0.000 2        16.000 2
G18  22118111.484 6 116231414.940 6     -2021.979 6        41.000 6
G20  22367401.059 6 117541474.112 6      1361.894 6        36.000 6
G21  21104034.081 5 110902401.581 5       773.207 5        31.000 5
G26  20541852.907 2         0.000 2         0.000 2        16.000 2
G27  22873411.762 4 120200569.780 4     -2760.127 4        27.000 4
G29  23297853.482 4         0.000 4         0.000 4        26.000 4
> 2016 03 03 23 01 52.0000000  0  9      0.055048856000   
G04  20702947.960 5 108794665.842 5      1672.838 5        35.000 5
G10  23934653.111 6 125777398.296 6     -3652.339 6        39.000 6
G16  20894485.312 2         0.000 2         0.000 2        16.000 2
G18  22117726.808 6 116229393.441 6     -2020.600 6        41.000 6
G20  22367660.351 6 117542836.834 6      1363.417 6        36.000 6
G21  21104181.304 5 110903175.439 5       774.587 5        31.000 5
G26  20541971.692 2         0.000 2         0.000 2        15.000 2
G27  22872885.975 4 120197809.564 4     -2759.281 4        27.000 4
G29  23298388.547 4         0.000 4         0.000 4        26.000 4
> 2016 03 03 23 01 53.0000000  0  9      0.055108733000   
G04  20703266.242 5 108796338.369 5      1673.198 5        35.000 5
G10  23933957.900 6 125773744.845 6     -3652.463 6        39.000 6
G16  20894237.970 2         0.000 2         0.000 2        16.000 2
G18  22117342.162 6 116227372.151 6     -2020.394 6        41.000 6
G20  22367919.722 6 117544199.974 6      1363.828 6        36.000 6
G21  21104328.546 5 110903949.403 5       774.689 5        31.000 5
G26  20542112.007 2         0.000 2         0.000 2        15.000 2
G27  22872360.330 4 120195049.533 4     -2759.086 4        27.000 4
G29  23298918.823 4         0.000 4         0.000 4        26.000 4
> 2016 03 03 23 01 54.0000000  0  9      0.055168610000   
G04  20703584.686 6 108798011.769 6      1674.070 6        36.000 6
G10  23933262.735 6 125770091.724 6     -3652.124 6        39.000 6
G16  20893973.039 2         0.000 2         0.000 2        16.000 2
G18  22116957.645 6 116225351.539 6     -2019.717 6        41.000 6
G20  22368179.283 6 117545563.996 6      1364.711 6        36.000 6
G21  21104475.882 5 110904723.966 5       775.295 5        31.000 5
G26  20542244.870 2         0.000 2         0.000 2        15.000 2
G27  22871835.019 4 120192289.775 4     -2758.819 4        27.000 4
G29  23299456.873 4         0.000 4         0.000 4        26.000 4
> 2016 03 03 23 01 55.0000000  0  9      0.055228487000   
G04  20703903.270 6 108799685.843 6      1673.747 6        36.000 6
G10  23932567.605 6 125766438.812 6     -3652.919 6        39.000 6
G16  20893719.035 2         0.000 2         0.000 2        16.000 2
G18  22116573.224 6 116223331.422 6     -2020.224 6        41.000 6
G20  22368438.990 6 117546928.734 6      1364.429 6        36.000 6
G21  21104623.333 5 110905499.014 5       774.777 5        31.000 5
G26  20542386.317 2         0.000 2         0.000 2        15.000 2
G27  22871309.411 4 120189530.241 4     -2759.593 4        28.000 4
G29  23299997.767 4         0.000 4         0.000 4        26.000 4
> 2016 03 03 23 01 56.0000000  0  8      0.055288364000   
G04  20704221.917 6 108801360.370 6      1674.199 6        36.000 6
G10  23931872.471 6 125762785.838 6     -3652.980 6        39.000 6
G16  20893463.188 2         0.000 2         0.000 2        16.000 2
G20  22368698.760 6 117548293.944 6      1364.901 6        36.000 6
G21  21104770.856 5 110906274.306 5       775.023 5        31.000 5
G26  20542522.991 2         0.000 2         0.000 2        15.000 2
G27  22870783.961 4 120186770.784 4     -2759.522 4        28.000 4
G29  23300536.041 4         0.000 4         0.000 4        26.000 4
> 2016 03 03 23 01 57.0000000  0  9      0.055348241000   
G04  20704540.618 6 108803035.187 6      1675.486 6        36.000 6
G10  23931177.307 6 125759132.714 6     -3652.134 6        39.000 6
G16  20893213.914 2         0.000 2         0.000 2        15.000 2
G18  22115804.532 6 116219291.955 6     -2018.762 6        41.000 6
G20  22368958.594 6 117549659.511 6      1366.260 6        36.000 6
G21  21104918.371 5 110907049.665 5       776.085 5        31.000 5
G26  20542663.048 2         0.000 2         0.000 2        15.000 2
G27  22870258.604 4 120184011.120 4     -2758.727 4        28.000 4
G29  23301072.170 4         0.000 4         0.000 4        26.000 4
> 2016 03 03 23 01 58.0000000  0  8      0.055408118000   
G04  20704859.404 6 108804710.457 6      1675.938 6        36.000 6
G10  23930482.135 6 125755479.534 6     -3652.186 6        39.000 6
G16  20892973.945 1         0.000 1         0.000 1         7.000 1
G20  22369218.545 6 117551025.564 6      1366.743 6        36.000 6
G21  21105065.931 5 110907825.243 5       776.301 5        31.000 5
G26  20542811.351 2         0.000 2         0.000 2        16.000 2
G27  22869733.041 4 120181251.507 4     -2758.676 4        28.000 4
G29  23301606.126 4         0.000 4         0.000 4        26.000 4
> 2016 03 03 23 01 59.0000000  0  9      0.055467995000   
G04  20705178.293 6 108806386.321 6      1676.533 6        36.000 6
G10  23929786.988 6 125751826.459 6     -3652.083 6        39.000 6
G16  20892729.587 1         0.000 1         0.000 1         7.000 1
G18  22115036.041 6 116215253.606 6     -2018.054 6        41.000 6
G20  22369478.632 6 117552392.265 6      1367.389 6        36.000 6
G21  21105213.569 5 110908601.239 5       776.721 5        31.000 5
G26  20542950.013 2         0.000 2         0.000 2        15.000 2
G27  22869207.299 4 120178492.016 4     -2758.552 4        28.000 4
G29  23302144.008 4         0.000 4         0.000 4        26.000 4
> 2016 03 03 23 02  0.0000000  0  8      0.055527872000   
G04  20705497.356 6 108808063.007 6      1677.365 6        36.000 6
G10  23929091.891 6 125748173.686 6     -3651.775 6        39.000 6
G16  20892474.808 1         0.000 1         0.000 1         9.000 1
G20  22369738.864 6 117553759.777 6      1368.200 6        36.000 6
G21  21105361.314 5 110909377.792 5       777.276 5        31.000 5
G26  20543089.982 3         0.000 3         0.000 3        23.000 3
G27  22868681.555 4 120175732.846 4     -2758.234 4        28.000 4
G29  23302681.030 4         0.000 4         0.000 4        26.000 4
> 2016 03 03 23 02  1.0000000  0  9      0.055587748000   
G04  20705816.848 6 108809741.936 6      1677.981 6        36.000 6
G10  23928397.152 6 125744522.735 6     -3651.580 6        39.000 6
G16  20892214.169 1         0.000 1         0.000 1         9.000 1
G18  22114268.301 6 116211219.115 6     -2016.884 6        41.000 6
G20  22369999.556 6 117555129.652 6      1368.950 6        36.000 6
G21  21105509.509 5 110910156.524 5       777.840 5        31.000 5
G26  20543225.330 3         0.000 3         0.000 3        23.000 3
G27  22868156.494 4 120172975.507 4     -2758.019 4        28.000 4
G29  23303216.395 4         0.000 4         0.000 4        27.000 4
> 2016 03 03 23 02  2.0000000  0  9      0.055647625000   
G04  20706136.118 6 108811419.684 6      1678.422 6        36.000 6
G10  23927702.053 6 125740869.970 6     -3651.775 6        39.000 6
G16  20891953.485 1         0.000 1         0.000 1        10.000 1
G18  22113884.358 6 116209201.493 6     -2016.730 6        41.000 6
G20  22370260.012 6 117556498.249 6      1369.288 6        36.000 6
G21  21105657.394 5 110910933.624 5       777.830 5        31.000 5
G26  20543365.975 4         0.000 4         0.000 4        24.000 4
G27  22867631.231 4 120170216.628 4     -2757.937 4        28.000 4
G29  23303754.520 4         0.000 4         0.000 4        26.000 4
> 2016 03 03 23 02  3.0000000  0  9      0.055707502000   
G04  20706455.496 6 108813097.954 6      1678.945 6        36.000 6
G10  23927006.983 6 125737217.331 6     -3651.642 6        39.000 6
G16  20891693.500 1         0.000 1         0.000 1        10.000 1
G18  22113500.501 6 116207184.290 6     -2016.309 6        41.000 6
G20  22370520.584 6 117557867.505 6      1369.945 6        36.000 6
G21  21105805.348 5 110911711.137 5       778.240 5        31.000 5
G26  20543500.424 4         0.000 4         0.000 4        24.000 4
G27  22867106.035 4 120167457.711 4     -2757.978 4        28.000 4
G29  23304292.034 4         0.000 4         0.000 4        27.000 4
> 2016 03 03 23 02  4.0000000  0  9      0.055767379000   
G04  20706774.948 6 108814776.593 6      1679.315 6        36.000 6
G10  23926311.904 6 125733564.572 6     -3651.765 6        39.000 6
G16  20891451.859 1         0.000 1         0.000 1        11.000 1
G18  22113116.684 6 116205167.324 6     -2016.073 6        41.000 6
G20  22370781.206 6 117559237.191 6      1370.376 6        36.000 6
G21  21105953.316 5 110912488.817 5       778.405 5        31.000 5
G26  20543639.424 4         0.000 4         0.000 4        25.000 4
G27  22866580.686 4 120164698.796 4     -2757.978 4        28.000 4
G29  23304832.145 4         0.000 4         0.000 4        27.000 4
> 2016 03 03 23 02  5.0000000  0  9      0.055827256000   
G04  20707094.601 6 108816456.311 6      1680.393 6        36.000 6
G10  23925616.916 6 125729912.386 6     -3651.190 6        39.000 6
G16  20891194.565 2         0.000 2         0.000 2        12.000 2
G18  22112733.023 6 116203151.230 6     -2015.201 6        40.000 6
G20  22371042.032 6 117560607.907 6      1371.403 6        36.000 6
G21  21106101.463 5 110913267.370 5       779.277 5        31.000 5
G26  20543774.496 4         0.000 4         0.000 4        25.000 4
G27  22866055.509 4 120161940.409 4     -2757.444 4        28.000 4
G29  23305371.258 4         0.000 4         0.000 4        27.000 4
> 2016 03 03 23 02  6.0000000  0  8      0.055887133000   
G04  20707414.360 6 108818136.612 6      1680.978 6        36.000 6
G10  23924921.936 6 125726260.279 6     -3651.118 6        39.000 6
G16  20890957.626 2         0.000 2         0.000 2        13.000 2
G20  22371302.994 6 117561979.281 6      1372.070 6        36.000 6
G21  21106249.687 5 110914046.229 5       779.585 5        31.000 5
G26  20543912.357 4         0.000 4         0.000 4        25.000 4
G27  22865530.339 4 120159182.174 4     -2757.300 4        28.000 4
G29  23305909.509 4         0.000 4         0.000 4        27.000 4
> 2016 03 03 23 02  7.0000000  0  9      0.055947010000   
G04  20707734.247 6 108819817.565 6      1681.624 6        36.000 6
G10  23924226.989 6 125722608.343 6     -3650.944 6        39.000 6
G16  20890708.847 2         0.000 2         0.000 2        14.000 2
G18  22111965.961 6 116199120.376 6     -2014.287 6        40.000 6
G20  22371564.091 6 117563351.324 6      1372.737 6        36.000 6
G21  21106398.016 5 110914825.573 5       780.067 5        31.000 5
G26  20544048.323 4         0.000 4         0.000 4        26.000 4
G27  22865005.150 4 120156424.181 4     -2757.054 4        28.000 4
G29  23306446.200 4         0.000 4         0.000 4        27.000 4
> 2016 03 03 23 02  8.0000000  0  8      0.056006887000   
G04  20708054.195 6 108821498.854 6      1681.963 6        36.000 6
G10  23923532.021 6 125718956.237 6     -3651.118 6        40.000 6
G16  20890462.736 2         0.000 2         0.000 2        15.000 2
G20  22371825.264 6 117564723.766 6      1373.137 6        36.000 6
G21  21106546.369 5 110915605.016 5       780.170 5        31.000 5
G26  20544186.996 4         0.000 4         0.000 4        26.000 4
G27  22864479.895 4 120153666.210 4     -2757.033 4        28.000 4
G29  23306982.094 4         0.000 4         0.000 4        27.000 4
> 2016 03 03 23 02  9.0000000  0  9      0.056066764000   
G04  20708374.347 6 108823181.196 6      1683.020 6        37.000 6
G10  23922837.164 6 125715304.709 6     -3650.533 6        39.000 6
G16  20890209.667 2         0.000 2         0.000 2        15.000 2
G18  22111199.217 6 116195091.288 6     -2013.220 6        40.000 6
G20  22372086.646 6 117566097.255 6      1374.184 6        36.000 6
G21  21106694.869 5 110916385.277 5       780.991 5        32.000 5
G26  20544329.581 4         0.000 4         0.000 4        26.000 4
G27  22863954.814 4 120150908.577 4     -2756.695 4        28.000 4
G29  23307515.083 4         0.000 4         0.000 4        27.000 4
> 2016 03 03 23 02 10.0000000  0  9      0.056126641000   
G04  20708694.573 6 108824863.886 6      1683.359 6        37.000 6
G10  23922142.270 6 125711653.004 6     -3650.708 6        39.000 6
G16  20889988.390 2         0.000 2         0.000 2        16.000 2
G18  22110815.979 6 116193077.395 6     -2012.994 6        40.000 6
G20  22372348.094 6 117567471.163 6      1374.605 6        36.000 6
G21  21106843.359 5 110917165.661 5       781.114 5        32.000 5
G26  20544466.091 4         0.000 4         0.000 4        27.000 4
G27  22863429.791 4 120148150.924 4     -2756.715 4        28.000 4
G29  23308059.641 4         0.000 4         0.000 4        27.000 4
> 2016 03 03 23 02 11.0000000  0  9      0.056186518000   
G04  20709014.895 6 108826547.100 6      1683.892 6        37.000 6
G10  23921447.388 6 125708001.320 6     -3650.687 6        39.000 6
G16  20889735.612 2         0.000 2         0.000 2        16.000 2
G18  22110432.781 6 116191063.806 6     -2012.697 6        40.000 6
G20  22372609.649 6 117568845.577 6      1375.108 6        36.000 6
G21  21106991.933 5 110917946.384 5       781.453 5        32.000 5
G26  20544599.031 4         0.000 4       717.243 4        27.000 4
G27  22862904.977 4 120145393.515 4     -2756.469 4        28.000 4
G29  23308591.977 4         0.000 4         0.000 4        26.000 4
> 2016 03 03 23 02 12.0000000  0  9      0.056246395000   
G04  20709335.325 6 108828230.857 6      1684.426 6        37.000 6
G10  23920752.520 6 125704349.788 6     -3650.543 6        39.000 6
G16  20889480.005 2         0.000 2         0.000 2        17.000 2
G18  22110049.667 6 116189050.656 6     -2012.255 6        40.000 6
G20  22372871.338 6 117570220.661 6      1375.775 6        36.000 6
G21  21107140.596 5 110918727.504 5       781.843 5        32.000 5
G26  20544733.803 4 107962872.933 4       718.126 4        27.000 4
G27  22862380.133 4 120142636.083 4     -2756.489 4        28.000 4
G29  23309125.082 4         0.000 4         0.000 4        26.000 4
> 2016 03 03 23 02 13.0000000  0  9      0.056306272000   
G04  20709655.842 6 108829915.159 6      1684.980 6        37.000 6
G10  23920057.646 6 125700698.228 6     -3650.564 6        39.000 6
G16  20889240.379 2         0.000 2         0.000 2        17.000 2
G18  22109666.633 6 116187037.848 6     -2011.917 6        40.000 6
G20  22373133.112 6 117571596.220 6      1376.247 6        36.000 6
G21  21107289.308 5 110919508.819 5       782.038 5        32.000 5
G26  20544869.259 4 107963590.926 4       718.721 4        28.000 4
G27  22861855.136 4 120139878.763 4     -2756.376 4        28.000 4
G29  23309669.028 4         0.000 4         0.000 4        26.000 4
> 2016 03 03 23 02 14.0000000  0  8      0.056366150000   
G04  20709976.199 6 108831598.578 6      1685.397 6        36.000 6
G10  23919362.509 6 125697045.279 6     -3651.379 6        39.000 6
G16  20888985.530 2         0.000 2         0.000 2        17.000 2
G20  22373394.727 6 117572971.019 6      1377.320 6        36.000 6
G21  21107437.806 5 110920289.129 5       782.793 5        32.000 5
G26  20545004.415 4 107964308.022 4       718.460 4        28.000 4
G27  22861329.902 4 120137119.969 4     -2758.629 4        28.000 4
G29  23310202.552 4         0.000 4         0.000 4        26.000 4
> 2016 03 03 23 02 15.0000000  0  9      0.056426027000   
G04  20710296.991 6 108833284.343 6      1685.469 6        36.000 6
G10  23918667.724 6 125693394.207 6     -3651.081 6        39.000 6
G16  20888738.217 3         0.000 3         0.000 3        18.000 3
G18  22108900.579 6 116183012.340 6     -2012.167 6        40.000 6
G20  22373656.799 6 117574348.118 6      1377.680 6        36.000 6
G21  21107586.712 5 110921071.436 5       781.982 5        32.000 5
G26  20545141.459 4 107965027.533 4       718.737 4        28.000 4
G27  22860805.123 4 120134363.304 4     -2755.272 4        28.000 4
G29  23310740.837 4         0.000 4         0.000 4        26.000 4
> 2016 03 03 23 02 16.0000000  0  8      0.056485904000   
G04  20710617.871 6 108834970.564 6      1685.777 6        36.000 6
G10  23917972.957 6 125689743.115 6     -3651.143 6        39.000 6
G16  20888506.232 3         0.000 3         0.000 3        18.000 3
G20  22373918.965 6 117575725.771 6      1377.967 6        36.000 6
G21  21107735.669 5 110921854.142 5       782.639 5        32.000 5
G26  20545278.610 4 107965747.603 4       719.846 4        28.000 4
G27  22860280.430 4 120131606.480 4     -2756.391 4        28.000 4
G29  23311277.461 4         0.000 4         0.000 4        26.000 4
> 2016 03 03 23 02 17.0000000  0  9      0.056545782000   
G04  20710938.590 6 108836655.942 6      1686.372 6        36.000 6
G10  23917277.919 6 125686090.679 6     -3650.866 6        39.000 6
G16  20888254.337 3         0.000 3         0.000 3        18.000 3
G18  22108134.851 6 116178988.614 6     -2010.823 6        40.000 6
G20  22374180.958 6 117577102.530 6      1378.501 6        36.000 6
G21  21107884.393 5 110922635.604 5       782.424 5        32.000 5
G26  20545415.564 4 107966466.776 4       722.022 4        28.000 4
G27  22859755.432 4 120128848.422 4     -2755.591 4        28.000 4
G29  23311813.624 4         0.000 4         0.000 4        26.000 4
> 2016 03 03 23 02 18.0000000  0  9      0.056605659000   
G04  20711259.630 6 108838342.968 6      1688.696 6        36.000 6
G10  23916583.094 6 125682439.356 6     -3650.328 6        39.000 6
G16  20887993.586 3         0.000 3         0.000 3        18.000 3
G18  22107752.160 6 116176977.724 6     -2010.572 6        40.000 6
G20  22374443.252 6 117578481.024 6      1378.464 6        36.000 6
G21  21108033.404 5 110923418.636 5       784.450 5        32.000 5
G26  20545552.748 4 107967187.692 4       723.124 4        28.000 4
G27  22859230.714 4 120126091.499 4     -2758.357 4        28.000 4
G29  23312347.732 4         0.000 4         0.000 4        26.000 4
> 2016 03 03 23 02 19.0000000  0  9      0.056665536000   
G04  20711580.851 6 108840031.003 6      1688.829 6        36.000 6
G10  23915888.378 6 125678788.623 6     -3649.743 6        39.000 6
G16  20887751.007 3         0.000 3         0.000 3        19.000 3
G18  22107369.648 6 116174967.740 6     -2009.125 6        40.000 6
G20  22374705.744 6 117579860.573 6      1379.521 6        36.000 6
G21  21108182.574 5 110924202.441 5       784.696 5        32.000 5
G26  20545689.882 4 107967909.652 4       723.268 4        29.000 4
G27  22858706.136 4 120123335.286 4     -2756.571 4        28.000 4
G29  23312886.466 4         0.000 4         0.000 4        26.000 4
> 2016 03 03 23 02 20.0000000  0  9      0.056725413000   
G04  20711902.197 6 108841719.722 6      1689.291 6        36.000 6
G10  23915193.682 6 125675138.036 6     -3649.599 6        39.000 6
G16  20887510.246 3         0.000 3         0.000 3        19.000 3
G18  22106987.228 6 116172958.244 6     -2008.139 6        40.000 6
G20  22374968.349 6 117581240.854 6      1381.759 6        36.000 6
G21  21108331.824 5 110924986.694 5       784.984 5        32.000 5
G26  20545826.991 4 107968632.248 4       722.590 4        29.000 4
G27  22858181.548 4 120120579.224 4     -2755.689 4        28.000 4
G29  23313426.923 4         0.000 4         0.000 4        26.000 4
> 2016 03 03 23 02 21.0000000  0  9      0.056785290000   
G04  20712223.674 6 108843409.120 6      1688.886 6        36.000 6
G10  23914499.028 6 125671487.681 6     -3650.363 6        39.000 6
G16  20887268.384 3         0.000 3         0.000 3        19.000 3
G18  22106604.905 6 116170949.281 6     -2008.606 6        40.000 6
G20  22375231.119 6 117582621.845 6      1381.128 6        36.000 6
G21  21108481.152 5 110925771.407 5       784.620 5        32.000 5
G26  20545964.500 4 107969355.675 4       723.961 4        29.000 4
G27  22857656.948 4 120117823.528 4     -2755.827 4        28.000 4
G29  23313969.520 4         0.000 4         0.000 4        26.000 4
> 2016 03 03 23 02 22.0000000  0  8      0.056845167000   
G04  20712545.205 6 108845098.807 6      1688.897 6        36.000 6
G10  23913804.328 6 125667837.099 6     -3650.589 6        39.000 6
G16  20887014.052 3         0.000 3         0.000 3        20.000 3
G20  22375493.944 6 117584003.164 6      1381.118 6        36.000 6
G21  21108630.495 5 110926556.199 5       784.363 5        32.000 5
G26  20546101.948 4 107970079.430 4       723.202 4        29.000 4
G27  22857132.328 4 120115067.544 4     -2756.360 4        28.000 4
G29  23314505.966 4         0.000 4         0.000 4        26.000 4
> 2016 03 03 23 02 23.0000000  0  9      0.056905045000   
G04  20712866.472 6 108846787.164 6      1689.790 6        36.000 6
G10  23913109.281 6 125664184.710 6     -3650.825 6        39.000 6
G16  20886772.613 3         0.000 3         0.000 3        20.000 3
G18  22105840.062 6 116166930.114 6     -2008.288 6        40.000 6
G20  22375756.495 6 117585383.171 6      1382.257 6        36.000 6
G21  21108779.536 5 110927339.436 5       785.000 5        32.000 5
G26  20546239.073 4 107970801.868 4       724.156 4        29.000 4
G27  22856607.276 4 120112309.773 4     -2756.104 4        27.000 4
G29  23315042.339 4         0.000 4         0.000 4        26.000 4
> 2016 03 03 23 02 24.0000000  0  9      0.056964922000   
G04  20713188.177 6 108848477.814 6      1691.652 6        36.000 6
G10  23912414.566 6 125660534.115 6     -3649.599 6        39.000 6
G16  20886529.376 3         0.000 3         0.000 3        20.000 3
G18  22105457.872 6 116164921.892 6     -2007.062 6        40.000 6
G20  22376019.492 6 117586765.494 6      1383.442 6        36.000 6
G21  21108928.974 5 110928124.711 5       785.846 5        32.000 5
G26  20546376.836 4 107971526.620 4       725.700 4        29.000 4
G27  22856082.644 4 120109553.795 4     -2754.231 4        27.000 4
G29  23315582.204 4         0.000 4         0.000 4        27.000 4
> 2016 03 03 23 02 25.0000000  0  9      0.057024799000   
G04  20713510.022 6 108850169.192 6      1691.606 6        36.000 6
G10  23911719.913 6 125656883.763 6     -3650.363 6        39.000 6
G16  20886275.300 3         0.000 3         0.000 3        20.000 3
G18  22105075.820 6 116162914.274 6     -2007.179 6        40.000 6
G20  22376282.636 6 117588148.613 6      1383.119 6        36.000 6
G21  21109078.524 5 110928910.578 5       786.509 5        33.000 5
G26  20546514.684 4 107972252.241 4       725.634 4        29.000 4
G27  22855558.137 4 120106798.274 4     -2755.550 4        27.000 4
G29  23316120.772 4         0.000 4         0.000 4        27.000 4
> 2016 03 03 23 02 26.0000000  0  8      0.057084676000   
G04  20713831.963 6 108851861.030 6      1693.325 6        36.000 6
G10  23911025.240 6 125653233.361 6     -3649.404 6        39.000 6
G16  20886028.939 3         0.000 3         0.000 3        21.000 3
G20  22376545.844 5 117589532.171 5      1384.396 5        35.000 5
G21  21109228.111 5 110929696.575 5       785.887 5        33.000 5
G26  20546652.589 4 107972978.269 4       727.958 4        28.000 4
G27  22855033.576 4 120104042.600 4     -2752.640 4        27.000 4
G29  23316656.834 4         0.000 4         0.000 4        27.000 4
