     3.02           OBSERVATION DATA    G: GPS              RINEX VERSION / TYPE
OSPtoRINEX V2.0     RUNBY               20160802 195821 LCL PGM / RUN BY / DATE 
MRKNAM                                                      MARKER NAME         
MRKNUM                                                      MARKER NUMBER       
OBSERVER            AGENCY                                  OBSERVER / AGENCY   
GSD4e_4.0.4-P1 08/13SiRF                GSD4e               REC # / TYPE / VERS 
Antenna#            AntennaType                             ANT # / TYPE        
  4846255.0000  -330728.0000  4120734.0000                  APPROX POSITION XYZ 
        0.0000        0.0000        0.0000                  ANTENNA: DELTA H/E/N
G    4 C1C L1C D1C S1C                                      SYS / # / OBS TYPES 
     1.000                                                  INTERVAL            
  2014    01    11    12    18   47.0000000                 TIME OF FIRST OBS   
                                                            END OF HEADER       
> 2014 01 11 12 18 47.0000000  0 10      0.099393281000   
G01  22526141.708 7 118375695.646 7      2854.940 7        44.000 7
G04  21934989.048 7 115269215.446 7     -2719.883 7        46.000 7
G10  23390301.261 7 122916995.740 7     -2876.261 7        43.000 7
G11  24982880.855 6 131285921.999 6      3718.470 6        37.000 6
G13  21164919.446 7 111222493.375 7     -2435.998 7        46.000 7
G17  21622104.644 7 113624921.808 7      1075.330 7        46.000 7
G20  20938279.430 7 110031484.053 7      1655.139 7        45.000 7
G23  20508580.498 7 107773374.925 7      -121.771 7        46.000 7
G31  24802297.337 6 130336984.207 6      1656.217 6        39.000 6
G32  24211418.982 6 127231862.495 6      2832.791 6        41.000 6
> 2014 01 11 12 18 48.0000000  0 10      0.099452545000   
G01  22526684.041 7 118378547.623 7      2855.412 7        44.000 7
G04  21934470.808 7 115266492.076 7     -2719.308 7        46.000 7
G10  23389753.650 7 122914116.024 7     -2876.251 7        43.000 7
G11  24983591.432 6 131289637.107 6      3718.182 6        37.000 6
G13  21164455.220 7 111220053.849 7     -2435.464 7        46.000 7
G17  21622308.881 7 113625994.083 7      1076.100 7        46.000 7
G20  20938593.931 7 110033135.765 7      1655.571 7        45.000 7
G23  20508556.331 7 107773249.927 7      -120.970 7        46.000 7
G31  24802612.003 6 130338637.788 6      1657.100 6        39.000 6
G32  24211960.065 6 127234691.908 6      2832.945 6        41.000 6
> 2014 01 11 12 18 49.0000000  0 10      0.099511809000   
G01  22527227.073 7 118381400.276 7      2856.326 7        44.000 7
G04  21933952.500 7 115263769.350 7     -2718.980 7        46.000 7
G10  23389207.480 7 122911236.880 7     -2875.461 7        43.000 7
G11  24984297.529 6 131293352.675 6      3719.722 6        37.000 6
G13  21163991.154 7 111217615.167 7     -2434.931 7        46.000 7
G17  21622514.260 7 113627067.355 7      1076.932 7        46.000 7
G20  20938908.743 7 110034788.112 7      1655.725 7        45.000 7
G23  20508532.720 7 107773125.848 7      -120.385 7        46.000 7
G31  24802928.356 6 130340292.233 6      1657.500 6        39.000 6
G32  24212498.557 6 127237521.702 6      2833.396 6        41.000 6
> 2014 01 11 12 18 50.0000000  0 10      0.099571072000   
G01  22527770.870 7 118384254.946 7      2856.500 7        44.000 7
G04  21933435.716 7 115261048.631 7     -2718.897 7        46.000 7
G10  23388657.857 7 122908359.595 7     -2875.194 7        43.000 7
G11  24985001.293 6 131297069.978 6      3718.829 6        37.000 6
G13  21163528.082 7 111215178.706 7     -2434.346 7        46.000 7
G17  21622718.751 7 113628142.962 7      1077.352 7        46.000 7
G20  20939223.360 7 110036442.438 7      1656.176 7        45.000 7
G23  20508510.308 7 107773004.071 7      -119.790 7        46.000 7
G31  24803240.586 6 130341949.013 6      1658.342 6        39.000 6
G32  24213036.798 6 127240353.174 6      2832.914 6        41.000 6
> 2014 01 11 12 18 51.0000000  0 10      0.099630333000   
G01  22528314.370 7 118387113.062 7      2856.818 7        44.000 7
G04  21932918.639 7 115258331.375 7     -2718.425 7        46.000 7
G10  23388111.526 7 122905485.603 7     -2875.358 7        43.000 7
G11  24985708.144 6 131300790.504 6      3719.116 6        37.000 6
G13  21163064.371 7 111212745.889 7     -2433.832 7        46.000 7
G17  21622923.958 7 113629222.336 7      1078.194 7        46.000 7
G20  20939539.197 7 110038100.169 7      1656.351 7        45.000 7
G23  20508486.701 7 107772886.014 7      -118.999 7        46.000 7
G31  24803557.126 6 130343609.439 6      1659.204 6        39.000 6
G32  24213575.075 6 127243187.838 6      2832.914 6        41.000 6
> 2014 01 11 12 18 52.0000000  0 10      0.099689594000   
G01  22528856.951 7 118389971.343 7      2857.003 7        44.000 7
G04  21932401.209 7 115255614.258 7     -2718.343 7        46.000 7
G10  23387565.393 7 122902611.658 7     -2874.865 7        43.000 7
G11  24986419.727 6 131304510.898 6      3718.500 6        37.000 6
G13  21162600.916 7 111210313.414 7     -2433.278 7        46.000 7
G17  21623128.878 7 113630302.198 7      1078.830 7        46.000 7
G20  20939854.868 7 110039758.034 7      1656.833 7        45.000 7
G23  20508464.890 7 107772768.399 7      -118.579 7        46.000 7
G31  24803872.600 6 130345270.267 6      1659.851 6        39.000 6
G32  24214115.614 6 127246022.393 6      2833.273 6        41.000 6
> 2014 01 11 12 18 53.0000000  0 10      0.099748858000   
G01  22529401.134 7 118392825.041 7      2856.941 7        44.000 7
G04  21931884.808 7 115252892.558 7     -2718.292 7        46.000 7
G10  23387019.686 7 122899732.947 7     -2874.568 7        43.000 7
G11  24987127.153 6 131308226.447 6      3718.090 6        37.000 6
G13  21162137.385 7 111207876.543 7     -2433.093 7        46.000 7
G17  21623332.604 7 113631377.782 7      1079.025 7        47.000 7
G20  20940168.513 7 110041411.247 7      1656.474 7        45.000 7
G23  20508441.872 7 107772646.441 7      -118.507 7        46.000 7
G31  24804188.764 6 130346926.724 6      1660.128 6        39.000 6
G32  24214653.884 6 127248852.022 6      2832.883 6        41.000 6
> 2014 01 11 12 18 54.0000000  0 10      0.099808120000   
G01  22529944.852 7 118395682.301 7      2857.321 7        44.000 7
G04  21931367.180 7 115250174.404 7     -2717.625 7        46.000 7
G10  23386470.824 7 122896857.660 7     -2875.266 7        43.000 7
G11  24987832.550 6 131311945.334 6      3719.188 6        37.000 6
G13  21161675.520 7 111205443.429 7     -2432.221 7        46.000 7
G17  21623539.160 7 113632457.243 7      1079.908 7        46.000 7
G20  20940483.780 7 110043067.988 7      1656.874 7        45.000 7
G23  20508419.968 7 107772528.333 7      -117.717 7        46.000 7
G31  24804505.270 6 130348586.973 6      1660.620 6        39.000 6
G32  24215192.778 6 127251684.929 6      2833.232 6        41.000 6
> 2014 01 11 12 18 55.0000000  0 10      0.099867383000   
G01  22530488.325 7 118398538.269 7      2857.824 7        44.000 7
G04  21930847.977 7 115247454.973 7     -2717.430 7        46.000 7
G10  23385924.548 7 122893980.957 7     -2874.588 7        43.000 7
G11  24988537.840 6 131315662.658 6      3718.511 6        37.000 6
G13  21161212.871 7 111203009.190 7     -2432.293 7        46.000 7
G17  21623743.439 7 113633535.734 7      1080.237 7        47.000 7
G20  20940799.366 7 110044723.406 7      1657.644 7        45.000 7
G23  20508397.106 7 107772409.193 7      -117.296 7        46.000 7
G31  24804819.109 6 130350246.205 6      1661.277 6        38.000 6
G32  24215730.609 6 127254516.246 6      2832.935 6        41.000 6
> 2014 01 11 12 18 56.0000000  0 10      0.099926647000   
G01  22531031.010 7 118401393.097 7      2858.153 7        44.000 7
G04  21930331.598 7 115244734.380 7     -2717.050 7        46.000 7
G10  23385376.695 7 122891102.972 7     -2874.116 7        43.000 7
G11  24989249.907 6 131319378.594 6      3718.593 6        37.000 6
G13  21160749.474 7 111200574.021 7     -2431.564 7        46.000 7
G17  21623949.656 7 113634613.415 7      1081.283 7        47.000 7
G20  20941113.772 7 110046377.619 7      1657.675 7        45.000 7
G23  20508374.649 7 107772289.179 7      -116.475 7        46.000 7
G31  24805132.772 6 130351904.519 6      1662.263 6        38.000 6
G32  24216267.406 6 127257346.136 6      2833.047 6        41.000 6
> 2014 01 11 12 18 57.0000000  0 10      0.099985906000   
G01  22531574.664 7 118404256.018 7      2858.029 7        44.000 7
G04  21929815.238 7 115242021.894 7     -2716.568 7        46.000 7
G10  23384828.071 7 122888232.931 7     -2874.065 7        43.000 7
G11  24989960.803 6 131323102.379 6      3719.517 6        37.000 6
G13  21160287.466 7 111198147.153 7     -2430.897 7        46.000 7
G17  21624155.761 7 113635699.503 7      1081.632 7        47.000 7
G20  20941430.090 7 110048039.879 7      1657.459 7        45.000 7
G23  20508353.213 7 107772177.531 7      -116.187 7        46.000 7
G31  24805450.114 6 130353571.158 6      1662.211 6        38.000 6
G32  24216810.256 6 127260183.833 6      2833.253 6        41.000 6
> 2014 01 11 12 18 58.0000000  0 10      0.000045171000   
G01  22532118.671 7 118407109.798 7      2858.830 7        44.000 7
G04  21929297.322 7 115239300.222 7     -2716.249 7        46.000 7
G10  23384282.413 7 122885353.482 7     -2874.403 7        43.000 7
G11  24990663.813 6 131326816.722 6      3718.839 6        37.000 6
G13  21159823.558 7 111195711.300 7     -2430.425 7        46.000 7
G17  21624360.943 7 113636776.741 7      1082.402 7        47.000 7
G20  20941743.706 7 110049692.941 7      1657.911 7        45.000 7
G23  20508329.892 7 107772056.983 7      -115.120 7        46.000 7
G31  24805767.278 6 130355228.870 6      1662.889 6        38.000 6
G32  24217347.496 6 127263012.045 6      2833.089 6        41.000 6
> 2014 01 11 12 18 59.0000000  0 10      0.000104433000   
G01  22532662.687 7 118409968.620 7      2858.748 7        44.000 7
G04  21928780.939 7 115236583.611 7     -2716.249 7        46.000 7
G10  23383734.481 7 122882479.079 7     -2873.531 7        43.000 7
G11  24991371.361 6 131330535.909 6      3718.932 6        37.000 6
G13  21159362.364 7 111193280.711 7     -2430.312 7        46.000 7
G17  21624567.532 7 113637859.374 7      1082.967 7        47.000 7
G20  20942059.616 7 110051351.063 7      1658.527 7        45.000 7
G23  20508308.348 7 107771941.768 7      -115.038 7        46.000 7
G31  24806085.453 6 130356891.890 6      1663.545 6        38.000 6
G32  24217886.405 6 127265845.034 6      2832.709 6        41.000 6
> 2014 01 11 12 19  0.0000000  0 10      0.000163696000   
G01  22533205.681 7 118412826.072 7      2859.353 7        44.000 7
G04  21928263.530 7 115233865.610 7     -2715.942 7        46.000 7
G10  23383189.101 7 122879603.089 7     -2874.208 7        43.000 7
G11  24992080.498 6 131334253.450 6      3718.849 6        37.000 6
G13  21158899.796 7 111190848.897 7     -2430.220 7        46.000 7
G17  21624774.295 7 113638940.923 7      1083.562 7        47.000 7
G20  20942374.865 7 110053007.705 7      1658.609 7        45.000 7
G23  20508286.015 7 107771825.406 7      -114.555 7        46.000 7
G31  24806399.979 6 130358553.733 6      1663.638 6        38.000 6
G32  24218426.323 6 127268676.323 6      2832.965 6        41.000 6
> 2014 01 11 12 19  1.0000000  0 10      0.000222958000   
G01  22533750.529 7 118415685.266 7      2859.405 7        44.000 7
G04  21927746.833 7 115231149.348 7     -2715.634 7        46.000 7
G10  23382640.420 7 122876728.748 7     -2873.459 7        43.000 7
G11  24992791.058 6 131337972.468 6      3719.547 6        37.000 6
G13  21158436.461 7 111188419.059 7     -2429.029 7        46.000 7
G17  21624979.361 7 113640024.549 7      1084.178 7        46.000 7
G20  20942690.057 7 110054666.050 7      1658.824 7        45.000 7
G23  20508264.642 7 107771711.090 7      -113.868 7        46.000 7
G31  24806717.933 6 130360217.596 6      1664.120 6        38.000 6
G32  24218964.618 6 127271509.080 6      2832.750 6        41.000 6
> 2014 01 11 12 19  2.0000000  0 10      0.000282219000   
G01  22534294.969 7 118418546.320 7      2859.743 7        44.000 7
G04  21927230.106 7 115228434.929 7     -2715.305 7        46.000 7
G10  23382092.628 7 122873856.080 7     -2873.521 7        43.000 7
G11  24993496.211 6 131341693.073 6      3719.280 6        37.000 6
G13  21157975.033 7 111185991.237 7     -2428.752 7        46.000 7
G17  21625186.359 7 113641110.334 7      1084.681 7        46.000 7
G20  20943006.546 7 110056326.214 7      1659.040 7        45.000 7
G23  20508241.385 7 107771598.870 7      -113.283 7        46.000 7
G31  24807034.380 6 130361883.533 6      1664.839 6        38.000 6
G32  24219503.398 6 127274343.388 6      2832.986 6        41.000 6
> 2014 01 11 12 19  3.0000000  0 10      0.000341483000   
G01  22534838.573 7 118421402.976 7      2860.010 7        44.000 7
G04  21926712.921 7 115225716.104 7     -2715.028 7        46.000 7
G10  23381549.111 7 122870978.882 7     -2873.952 7        43.000 7
G11  24994204.861 6 131345409.056 6      3719.034 6        37.000 6
G13  21157512.043 7 111183559.209 7     -2428.033 7        46.000 7
G17  21625391.252 7 113642192.050 7      1085.163 7        46.000 7
G20  20943322.382 7 110057981.942 7      1659.173 7        45.000 7
G23  20508220.959 7 107771482.534 7      -112.544 7        46.000 7
G31  24807350.228 6 130363545.327 6      1665.095 6        37.000 6
G32  24220041.852 6 127277172.983 6      2832.924 6        41.000 6
> 2014 01 11 12 19  4.0000000  0 10      0.000400745000   
G01  22535382.268 7 118424263.112 7      2860.462 7        44.000 7
G04  21926196.400 7 115223000.769 7     -2714.371 7        46.000 7
G10  23380999.002 7 122868105.040 7     -2873.244 7        43.000 7
G11  24994908.986 6 131349128.255 6      3718.962 6        37.000 6
G13  21157049.757 7 111181130.878 7     -2427.356 7        46.000 7
G17  21625597.249 7 113643277.570 7      1086.169 7        46.000 7
G20  20943638.109 7 110059641.098 7      1659.430 7        45.000 7
G23  20508198.199 7 107771369.928 7      -112.010 7        46.000 7
G31  24807664.878 6 130365210.824 6      1665.896 6        37.000 6
G32  24220581.487 6 127280005.784 6      2833.366 6        41.000 6
> 2014 01 11 12 19  5.0000000  0 10      0.000460009000   
G01  22535926.941 7 118427120.390 7      2860.431 7        44.000 7
G04  21925678.378 7 115220282.545 7     -2714.823 7        46.000 7
G10  23380450.032 7 122865228.183 7     -2873.428 7        43.000 7
G11  24995620.319 6 131352844.335 6      3718.418 6        37.000 6
G13  21156587.911 7 111178699.862 7     -2427.387 7        46.000 7
G17  21625802.571 7 113644360.546 7      1086.549 7        46.000 7
G20  20943953.095 7 110061297.359 7      1659.296 7        45.000 7
G23  20508177.609 7 107771254.730 7      -111.753 7        46.000 7
G31  24807980.940 6 130366873.739 6      1666.727 6        37.000 6
G32  24221120.136 6 127282835.406 6      2832.555 6        41.000 6
> 2014 01 11 12 19  6.0000000  0 10      0.000519272000   
G01  22536471.179 7 118429979.380 7      2860.719 7        44.000 7
G04  21925161.633 7 115217566.032 7     -2714.761 7        46.000 7
G10  23379904.023 7 122862352.885 7     -2873.849 7        43.000 7
G11  24996327.555 6 131356561.888 6      3719.024 6        37.000 6
G13  21156126.048 7 111176270.756 7     -2426.668 7        46.000 7
G17  21626010.182 7 113645445.553 7      1087.288 7        46.000 7
G20  20944269.349 7 110062955.289 7      1659.317 7        45.000 7
G23  20508155.874 7 107771141.512 7      -111.199 7        46.000 7
G31  24808298.310 6 130368538.530 6      1666.809 6        37.000 6
G32  24221657.539 6 127285666.478 6      2832.411 6        41.000 6
> 2014 01 11 12 19  7.0000000  0 10      0.000578534000   
G01  22537016.151 7 118432840.226 7      2861.088 7        44.000 7
G04  21924645.436 7 115214851.398 7     -2714.186 7        45.000 7
G10  23379357.198 7 122859479.301 7     -2873.469 7        43.000 7
G11  24997034.521 6 131360281.020 6      3719.311 6        37.000 6
G13  21155663.813 7 111173843.694 7     -2426.319 7        46.000 7
G17  21626216.116 7 113646532.740 7      1087.801 7        46.000 7
G20  20944584.999 7 110064615.040 7      1660.169 7        45.000 7
G23  20508134.925 7 107771030.419 7      -110.368 7        46.000 7
G31  24808614.381 6 130370205.496 6      1667.620 6        37.000 6
G32  24222197.517 6 127288499.077 6      2832.493 6        41.000 6
> 2014 01 11 12 19  8.0000000  0 10      0.000637792000   
G01  22537560.112 7 118435707.760 7      2861.365 7        44.000 7
G04  21924128.797 7 115212143.440 7     -2713.704 7        45.000 7
G10  23378812.766 7 122856612.293 7     -2872.700 7        43.000 7
G11  24997743.668 6 131364006.611 6      3719.568 6        37.000 6
G13  21155203.838 7 111171423.508 7     -2425.775 7        46.000 7
G17  21626422.999 7 113647626.920 7      1088.519 7        46.000 7
G20  20944901.913 7 110066281.433 7      1660.733 7        45.000 7
G23  20508114.537 7 107770926.279 7      -109.670 7        46.000 7
G31  24808937.081 6 130371879.297 6      1667.682 6        37.000 6
G32  24222737.192 6 127291338.090 6      2832.904 6        41.000 6
> 2014 01 11 12 19  9.0000000  0 10      0.000697056000   
G01  22538104.994 7 118438566.136 7      2861.540 7        44.000 7
G04  21923611.937 7 115209426.327 7     -2713.232 7        45.000 7
G10  23378264.849 7 122853735.966 7     -2872.289 7        43.000 7
G11  24998451.400 6 131367722.767 6      3719.691 6        37.000 6
G13  21154740.256 7 111168994.367 7     -2425.488 7        46.000 7
G17  21626630.867 7 113648712.274 7      1088.868 7        46.000 7
G20  20945216.315 7 110067938.629 7      1660.651 7        45.000 7
G23  20508094.166 7 107770813.234 7      -109.331 7        46.000 7
G31  24809256.003 6 130373544.243 6      1668.328 6        37.000 6
G32  24223276.400 6 127294167.645 6      2832.955 6        41.000 6
> 2014 01 11 12 19 10.0000000  0 10      0.000756317000   
G01  22538648.931 7 118441429.546 7      2862.084 7        44.000 7
G04  21923094.884 7 115206714.190 7     -2713.263 7        45.000 7
G10  23377718.995 7 122850864.487 7     -2872.361 7        43.000 7
G11  24999160.800 6 131371443.690 6      3719.742 6        37.000 6
G13  21154279.377 7 111166570.433 7     -2424.780 7        46.000 7
G17  21626838.985 7 113649802.940 7      1089.392 7        46.000 7
G20  20945533.566 7 110069600.794 7      1661.000 7        45.000 7
G23  20508073.087 7 107770705.459 7      -108.992 7        46.000 7
G31  24809569.826 6 130375214.395 6      1669.078 6        37.000 6
G32  24223816.306 6 127297001.873 6      2832.350 6        41.000 6
> 2014 01 11 12 19 11.0000000  0 10      0.000815578000   
G01  22539195.211 7 118444293.267 7      2862.320 7        44.000 7
G04  21922578.090 7 115204002.419 7     -2712.534 7        45.000 7
G10  23377172.039 7 122847993.211 7     -2872.279 7        43.000 7
G11  24999867.741 6 131375164.691 6      3719.168 6        37.000 6
G13  21153818.406 7 111164147.016 7     -2424.533 7        46.000 7
G17  21627046.471 7 113650894.283 7      1090.305 7        46.000 7
G20  20945849.349 7 110071263.246 7      1661.031 7        45.000 7
G23  20508052.699 7 107770598.320 7      -108.253 7        46.000 7
G31  24809888.340 6 130376885.195 6      1670.248 6        37.000 6
G32  24224353.189 6 127299836.211 6      2832.729 6        41.000 6
> 2014 01 11 12 19 12.0000000  0 10      0.000874840000   
G01  22539738.967 7 118447155.724 7      2862.638 7        44.000 7
G04  21922062.381 7 115201289.354 7     -2712.277 7        45.000 7
G10  23376624.430 7 122845120.510 7     -2872.238 7        43.000 7
G11  25000571.534 6 131378884.144 6      3718.993 6        37.000 6
G13  21153356.849 7 111161722.515 7     -2423.989 7        46.000 7
G17  21627253.959 7 113651984.644 7      1090.665 7        46.000 7
G20  20946165.643 7 110072924.380 7      1661.585 7        45.000 7
G23  20508032.685 7 107770490.146 7      -107.699 7        46.000 7
G31  24810207.022 6 130378554.879 6      1670.432 6        37.000 6
G32  24224892.049 6 127302668.941 6      2832.935 6        41.000 6
> 2014 01 11 12 19 13.0000000  0 10      0.000934105000   
G01  22540284.146 7 118450013.660 7      2862.843 7        44.000 7
G04  21921545.998 7 115198571.744 7     -2712.401 7        45.000 7
G10  23376077.835 7 122842243.133 7     -2872.648 7        43.000 7
G11  25001283.559 6 131382598.865 6      3719.106 6        37.000 6
G13  21152894.844 7 111159293.665 7     -2423.466 7        46.000 7
G17  21627460.840 7 113653070.807 7      1091.414 7        46.000 7
G20  20946482.587 7 110074580.931 7      1661.493 7        45.000 7
G23  20508011.288 7 107770377.705 7      -107.412 7        46.000 7
G31  24810523.558 6 130380220.289 6      1670.391 6        37.000 6
G32  24225432.659 6 127305496.865 6      2832.955 6        41.000 6
> 2014 01 11 12 19 14.0000000  0 10      0.000993366000   
G01  22540828.304 7 118452878.225 7      2863.038 7        44.000 7
G04  21921029.741 7 115195860.792 7     -2712.072 7        45.000 7
G10  23375530.959 7 122839372.278 7     -2871.950 7        43.000 7
G11  25001991.269 6 131386319.903 6      3719.085 6        37.000 6
G13  21152434.527 7 111156871.682 7     -2423.096 7        46.000 7
G17  21627669.045 7 113654163.933 7      1091.783 7        46.000 7
G20  20946798.505 7 110076244.092 7      1661.985 7        45.000 7
G23  20507990.065 7 107770272.175 7      -106.847 7        46.000 7
G31  24810842.162 6 130381892.567 6      1670.987 6        37.000 6
G32  24225971.616 6 127308331.102 6      2832.380 6        41.000 6
> 2014 01 11 12 19 15.0000000  0 10      0.001052628000   
G01  22541374.131 7 118455741.569 7      2863.551 7        44.000 7
G04  21920512.867 7 115193148.603 7     -2711.764 7        45.000 7
G10  23374984.390 7 122836500.039 7     -2871.612 7        43.000 7
G11  25002697.948 6 131390039.530 6      3720.348 6        37.000 6
G13  21151972.867 7 111154448.641 7     -2422.337 7        46.000 7
G17  21627876.889 7 113655256.159 7      1092.779 7        46.000 7
G20  20947115.132 7 110077905.980 7      1662.180 7        45.000 7
G23  20507970.373 7 107770165.695 7      -105.749 7        46.000 7
G31  24811159.823 6 130383563.882 6      1671.890 6        37.000 6
G32  24226509.906 6 127311163.835 6      2832.678 6        41.000 6
> 2014 01 11 12 19 16.0000000  0 10      0.001111891000   
G01  22541918.941 7 118458603.565 7      2863.705 7        44.000 7
G04  21919997.063 7 115190435.031 7     -2711.528 7        45.000 7
G10  23374436.961 7 122833626.279 7     -2871.591 7        43.000 7
G11  25003401.842 6 131393757.514 6      3719.599 6        37.000 6
G13  21151510.987 7 111152024.447 7     -2422.152 7        46.000 7
G17  21628084.154 7 113656347.347 7      1093.446 7        46.000 7
G20  20947431.303 7 110079566.468 7      1662.252 7        45.000 7
G23  20507949.521 7 107770058.117 7      -105.431 7        46.000 7
G31  24811476.885 6 130385234.057 6      1672.280 6        37.000 6
G32  24227046.165 6 127313994.894 6      2832.411 6        41.000 6
> 2014 01 11 12 19 17.0000000  0 10      0.001171152000   
G01  22542462.297 7 118461468.919 7      2863.746 7        44.000 7
G04  21919481.714 7 115187724.855 7     -2711.436 7        45.000 7
G10  23373893.769 7 122830755.787 7     -2871.684 7        43.000 7
G11  25004115.650 6 131397478.606 6      3719.701 6        37.000 6
G13  21151050.546 7 111149603.812 7     -2421.495 7        46.000 7
G17  21628293.263 7 113657442.224 7      1093.908 7        46.000 7
G20  20947746.968 7 110081230.299 7      1662.889 7        45.000 7
G23  20507930.312 7 107769954.173 7      -104.887 7        46.000 7
G31  24811794.063 6 130386907.839 6      1672.619 6        37.000 6
G32  24227586.246 6 127316829.042 6      2832.308 6        41.000 6
> 2014 01 11 12 19 18.0000000  0 10      0.001230414000   
G01  22543007.497 7 118464332.965 7      2864.403 7        44.000 7
G04  21918967.056 7 115185013.309 7     -2711.292 7        45.000 7
G10  23373344.394 7 122827883.805 7     -2871.170 7        43.000 7
G11  25004823.061 6 131401198.071 6      3719.373 6        37.000 6
G13  21150589.887 7 111147182.035 7     -2420.838 7        46.000 7
G17  21628500.466 7 113658536.079 7      1094.359 7        46.000 7
G20  20948063.507 7 110082892.723 7      1662.786 7        45.000 7
G23  20507909.756 7 107769849.153 7      -104.363 7        46.000 7
G31  24812114.078 6 130388580.527 6      1673.029 6        38.000 6
G32  24228126.213 6 127319661.585 6      2832.904 6        41.000 6
> 2014 01 11 12 19 19.0000000  0 10      0.001289675000   
G01  22543553.638 7 118467198.952 7      2864.814 7        44.000 7
G04  21918449.917 7 115182303.728 7     -2710.604 7        45.000 7
G10  23372799.168 7 122825013.621 7     -2870.945 7        43.000 7
G11  25005527.186 6 131404919.276 6      3719.948 6        37.000 6
G13  21150129.063 7 111144762.386 7     -2420.151 7        46.000 7
G17  21628709.433 7 113659632.210 7      1094.934 7        46.000 7
G20  20948380.030 7 110084557.060 7      1663.227 7        45.000 7
G23  20507889.240 7 107769746.340 7      -103.819 7        46.000 7
G31  24812432.797 6 130390255.408 6      1673.973 6        38.000 6
G32  24228664.391 6 127322495.732 6      2832.740 6        41.000 6
> 2014 01 11 12 19 20.0000000  0 10      0.001348939000   
G01  22544096.864 7 118470060.625 7      2865.286 7        44.000 7
G04  21917934.050 7 115179589.825 7     -2710.276 7        45.000 7
G10  23372251.196 7 122822139.006 7     -2870.472 7        43.000 7
G11  25006231.587 6 131408635.926 6      3720.081 6        37.000 6
G13  21149668.028 7 111142338.631 7     -2419.689 7        46.000 7
G17  21628917.835 7 113660724.368 7      1095.909 7        46.000 7
G20  20948695.538 7 110086217.068 7      1663.648 7        45.000 7
G23  20507868.151 7 107769639.514 7      -103.009 7        46.000 7
G31  24812750.540 6 130391926.160 6      1673.902 6        38.000 6
G32  24229204.930 6 127325325.282 6      2832.935 6        41.000 6
> 2014 01 11 12 19 21.0000000  0 10      0.001408199000   
G01  22544642.693 7 118472928.976 7      2865.337 7        44.000 7
G04  21917418.122 7 115176882.604 7     -2710.071 7        45.000 7
G10  23371707.507 7 122819270.902 7     -2870.667 7        43.000 7
G11  25006946.342 6 131412358.987 6      3719.907 6        37.000 6
G13  21149207.921 7 111139921.753 7     -2419.504 7        46.000 7
G17  21629126.613 7 113661823.506 7      1096.279 7        46.000 7
G20  20949013.638 7 110087883.697 7      1663.463 7        45.000 7
G23  20507849.329 7 107769539.603 7      -102.865 7        46.000 7
G31  24813069.042 6 130393603.898 6      1675.072 6        38.000 6
G32  24229742.122 6 127328161.245 6      2832.924 6        41.000 6
> 2014 01 11 12 19 22.0000000  0 10      0.001467462000   
G01  22545187.853 7 118475792.813 7      2865.635 7        44.000 7
G04  21916901.522 7 115174170.856 7     -2710.040 7        45.000 7
G10  23371159.695 7 122816398.131 7     -2870.606 7        43.000 7
G11  25007652.569 6 131416077.236 6      3719.599 6        37.000 6
G13  21148747.752 7 111137500.548 7     -2419.094 7        46.000 7
G17  21629334.783 7 113662918.444 7      1096.679 7        46.000 7
G20  20949329.348 7 110089545.761 7      1663.576 7        45.000 7
G23  20507830.270 7 107769435.450 7      -102.321 7        46.000 7
G31  24813387.098 6 130395277.293 6      1675.297 6        38.000 6
G32  24230283.336 6 127330992.347 6      2832.411 6        41.000 6
> 2014 01 11 12 19 23.0000000  0 10      0.001526725000   
G01  22545733.444 7 118478656.913 7      2866.271 7        44.000 7
G04  21916386.113 7 115171459.364 7     -2709.280 7        45.000 7
G10  23370611.907 7 122813525.487 7     -2870.596 7        43.000 7
G11  25008356.329 6 131419795.521 6      3719.886 6        37.000 6
G13  21148286.332 7 111135079.772 7     -2418.591 7        46.000 7
G17  21629543.064 7 113664013.968 7      1097.654 7        46.000 7
G20  20949645.481 7 110091208.053 7      1664.274 7        45.000 7
G23  20507810.358 7 107769331.810 7      -101.561 7        46.000 7
G31  24813702.974 6 130396951.229 6      1676.324 6        38.000 6
G32  24230821.882 6 127333823.422 6      2832.709 6        41.000 6
> 2014 01 11 12 19 24.0000000  0 10      0.001585987000   
G01  22546278.277 7 118481523.025 7      2866.528 7        44.000 7
G04  21915869.569 7 115168749.906 7     -2708.962 7        45.000 7
G10  23370068.286 7 122810654.737 7     -2869.990 7        43.000 7
G11  25009064.614 6 131423515.584 6      3720.286 6        37.000 6
G13  21147825.912 7 111132661.243 7     -2417.770 7        46.000 7
G17  21629751.790 7 113665111.835 7      1098.403 7        46.000 7
G20  20949961.803 7 110092872.333 7      1664.664 7        45.000 7
G23  20507791.267 7 107769230.486 7      -100.699 7        46.000 7
G31  24814024.220 6 130398627.389 6      1676.693 6        38.000 6
G32  24231359.808 6 127336656.240 6      2833.089 6        41.000 6
> 2014 01 11 12 19 25.0000000  0 10      0.001645248000   
G01  22546823.847 7 118484391.017 7      2866.979 7        44.000 7
G04  21915354.332 7 115166042.318 7     -2708.654 7        45.000 7
G10  23369520.042 7 122807785.698 7     -2870.318 7        43.000 7
G11  25009771.867 6 131427237.224 6      3720.163 6        37.000 6
G13  21147365.688 7 111130244.753 7     -2417.718 7        46.000 7
G17  21629961.315 7 113666211.896 7      1099.081 7        46.000 7
G20  20950278.470 7 110094538.432 7      1664.849 7        45.000 7
G23  20507771.251 7 107769131.301 7       -99.981 7        46.000 7
G31  24814342.253 6 130400305.666 6      1676.960 6        38.000 6
G32  24231900.124 6 127339490.621 6      2833.119 6        41.000 6
> 2014 01 11 12 19 26.0000000  0 10      0.001704512000   
G01  22547369.177 7 118487254.749 7      2867.308 7        44.000 7
G04  21914838.090 7 115163330.444 7     -2708.182 7        45.000 7
G10  23368974.580 7 122804912.273 7     -2869.528 7        43.000 7
G11  25010479.787 6 131430954.369 6      3719.937 6        37.000 6
G13  21146905.077 7 111127824.225 7     -2416.702 7        46.000 7
G17  21630170.274 7 113667307.984 7      1099.645 7        46.000 7
G20  20950595.839 7 110096200.218 7      1665.075 7        45.000 7
G23  20507752.943 7 107769028.093 7       -99.550 7        46.000 7
G31  24814663.139 6 130401979.934 6      1677.874 6        38.000 6
G32  24232437.094 6 127342320.417 6      2832.986 6        41.000 6
> 2014 01 11 12 19 27.0000000  0 10      0.001763772000   
G01  22547914.233 7 118490125.036 7      2867.349 7        44.000 7
G04  21914323.853 7 115160625.114 7     -2708.038 7        45.000 7
G10  23368425.768 7 122802045.249 7     -2869.908 7        43.000 7
G11  25011191.378 6 131434677.806 6      3720.728 6        37.000 6
G13  21146446.318 7 111125410.429 7     -2416.363 7        46.000 7
G17  21630379.971 7 113668410.944 7      1100.076 7        46.000 7
G20  20950914.449 7 110097868.523 7      1665.280 7        45.000 7
G23  20507733.464 7 107768931.732 7       -99.190 7        46.000 7
G31  24814984.555 6 130403660.985 6      1678.469 6        38.000 6
G32  24232977.354 6 127345156.506 6      2832.986 6        41.000 6
> 2014 01 11 12 19 28.0000000  0 10      0.001823036000   
G01  22548460.212 7 118492989.172 7      2867.503 7        44.000 7
G04  21913808.446 7 115157913.630 7     -2707.679 7        45.000 7
G10  23367880.512 7 122799171.910 7     -2869.826 7        43.000 7
G11  25011900.222 6 131438394.803 6      3720.502 6        37.000 6
G13  21145986.805 7 111122990.672 7     -2415.922 7        46.000 7
G17  21630589.322 7 113669508.091 7      1100.949 7        46.000 7
G20  20951229.595 7 110099530.627 7      1665.496 7        45.000 7
G23  20507714.957 7 107768829.474 7       -98.616 7        46.000 7
G31  24815305.036 6 130405336.128 6      1679.054 6        39.000 6
G32  24233515.815 6 127347986.138 6      2833.109 6        41.000 6
> 2014 01 11 12 19 29.0000000  0 10      0.001882298000   
G01  22549006.289 7 118495856.827 7      2867.359 7        44.000 7
G04  21913292.187 7 115155205.670 7     -2707.843 7        45.000 7
G10  23367335.147 7 122796301.996 7     -2869.333 7        43.000 7
G11  25012602.837 6 131442115.068 6      3719.044 6        37.000 6
G13  21145526.666 7 111120574.629 7     -2415.748 7        46.000 7
G17  21630798.069 7 113670609.067 7      1101.154 7        46.000 7
G20  20951547.117 7 110101196.218 7      1665.793 7        45.000 7
G23  20507696.408 7 107768731.000 7       -98.308 7        46.000 7
G31  24815624.519 6 130407015.022 6      1678.633 6        39.000 6
G32  24234054.709 6 127350819.043 6      2833.027 6        40.000 6
> 2014 01 11 12 19 30.0000000  0 10      0.001941561000   
G01  22549551.561 7 118498723.249 7      2868.191 7        44.000 7
G04  21912776.832 7 115152496.464 7     -2707.135 7        45.000 7
G10  23366789.134 7 122793430.677 7     -2869.210 7        43.000 7
G11  25013311.842 6 131445833.919 6      3720.492 6        37.000 6
G13  21145065.947 7 111118157.530 7     -2415.070 7        46.000 7
G17  21631008.544 7 113671709.122 7      1102.211 7        46.000 7
G20  20951863.631 7 110102860.510 7      1666.142 7        45.000 7
G23  20507676.725 7 107768631.562 7       -97.415 7        46.000 7
G31  24815945.524 6 130408692.912 6      1679.937 6        39.000 6
G32  24234593.483 6 127353650.318 6      2832.565 6        40.000 6
> 2014 01 11 12 19 31.0000000  0 10      0.002000824000   
G01  22550098.802 7 118501590.020 7      2868.827 7        44.000 7
G04  21912263.254 7 115149787.595 7     -2706.663 7        45.000 7
G10  23366244.108 7 122790559.546 7     -2869.066 7        43.000 7
G11  25014023.326 6 131449552.794 6      3720.574 6        37.000 6
G13  21144605.331 7 111115740.981 7     -2413.962 7        46.000 7
G17  21631217.244 7 113672809.845 7      1102.960 7        46.000 7
G20  20952180.204 7 110104525.111 7      1666.707 7        45.000 7
G23  20507657.918 7 107768532.733 7       -96.696 7        46.000 7
G31  24816263.213 6 130410371.381 6      1680.470 6        39.000 6
G32  24235133.225 6 127356481.683 6      2833.160 6        40.000 6
> 2014 01 11 12 19 32.0000000  0 10      0.002060086000   
G01  22550643.751 7 118504458.751 7      2869.073 7        44.000 7
G04  21911747.957 7 115147080.688 7     -2706.427 7        45.000 7
G10  23365698.285 7 122787690.228 7     -2869.426 7        43.000 7
G11  25014729.805 6 131453273.361 6      3721.302 6        37.000 6
G13  21144145.885 7 111113326.574 7     -2413.756 7        46.000 7
G17  21631427.326 7 113673912.834 7      1103.443 7        46.000 7
G20  20952497.520 7 110106191.620 7      1666.686 7        45.000 7
G23  20507639.343 7 107768436.121 7       -96.296 7        46.000 7
G31  24816582.081 6 130412052.044 6      1681.096 6        39.000 6
G32  24235674.237 6 127359314.719 6      2832.914 6        40.000 6
> 2014 01 11 12 19 33.0000000  0 10      0.002119349000   
G01  22551188.825 7 118507326.131 7      2869.381 7        44.000 7
G04  21911232.970 7 115144372.414 7     -2706.294 7        45.000 7
G10  23365151.428 7 122784819.476 7     -2868.563 7        43.000 7
G11  25015432.938 6 131456992.350 6      3720.081 6        37.000 6
G13  21143686.411 7 111110911.022 7     -2413.407 7        45.000 7
G17  21631637.215 7 113675014.808 7      1104.100 7        46.000 7
G20  20952814.956 7 110107856.758 7      1667.179 7        45.000 7
G23  20507620.566 7 107768338.444 7       -95.485 7        45.000 7
G31  24816901.502 6 130413731.613 6      1681.363 6        39.000 6
G32  24236211.699 6 127362146.101 6      2833.325 6        40.000 6
> 2014 01 11 12 19 34.0000000  0 10      0.002178611000   
G01  22551738.276 7 118510195.515 7      2869.443 7        44.000 7
G04  21910717.037 7 115141666.168 7     -2705.750 7        45.000 7
G10  23364604.530 7 122781950.508 7     -2868.933 7        43.000 7
G11  25016141.354 6 131460713.103 6      3720.553 6        37.000 6
G13  21143226.787 7 111108497.680 7     -2412.894 7        45.000 7
G17  21631847.544 7 113676119.094 7      1104.798 7        46.000 7
G20  20953131.812 7 110109523.847 7      1667.384 7        45.000 7
G23  20507602.601 7 107768243.038 7       -94.777 7        45.000 7
G31  24817220.584 6 130415413.397 6      1681.815 6        40.000 6
G32  24236748.343 6 127364979.183 6      2832.791 6        40.000 6
> 2014 01 11 12 19 35.0000000  0 10      0.002237873000   
G01  22552280.925 7 118513065.155 7      2869.843 7        44.000 7
G04  21910202.099 7 115138960.149 7     -2705.657 7        45.000 7
G10  23364059.565 7 122779081.698 7     -2868.420 7        43.000 7
G11  25016853.753 6 131464433.784 6      3720.461 6        37.000 6
G13  21142768.576 7 111106084.763 7     -2412.371 7        45.000 7
G17  21632057.980 7 113677223.945 7      1105.177 7        46.000 7
G20  20953449.657 7 110111191.135 7      1667.538 7        45.000 7
G23  20507585.109 7 107768148.119 7       -94.592 7        45.000 7
G31  24817542.620 6 130417095.709 6      1682.790 6        40.000 6
G32  24237287.076 6 127367812.243 6      2833.212 6        40.000 6
> 2014 01 11 12 19 36.0000000  0 10      0.002297136000   
G01  22552827.304 7 118515933.397 7      2870.110 7        44.000 7
G04  21909685.945 7 115136252.744 7     -2705.360 7        45.000 7
G10  23363513.543 7 122776211.334 7     -2868.019 7        43.000 7
G11  25017560.519 6 131468152.864 6      3720.235 6        37.000 6
G13  21142309.185 7 111103670.651 7     -2411.817 7        45.000 7
G17  21632268.976 7 113678327.735 7      1105.865 7        46.000 7
G20  20953766.280 7 110112856.996 7      1667.846 7        45.000 7
G23  20507566.645 7 107768052.089 7       -94.007 7        45.000 7
G31  24817862.527 6 130418776.831 6      1683.129 6        40.000 6
G32  24237828.719 6 127370643.600 6      2833.119 6        40.000 6
> 2014 01 11 12 19 37.0000000  0 10      0.002356398000   
G01  22553373.240 7 118518803.311 7      2870.500 7        44.000 7
G04  21909171.629 7 115133546.991 7     -2705.134 7        45.000 7
G10  23362966.666 7 122773342.471 7     -2868.830 7        43.000 7
G11  25018266.034 6 131471873.371 6      3720.307 6        37.000 6
G13  21141851.481 7 111101258.400 7     -2411.519 7        45.000 7
G17  21632478.255 7 113679433.505 7      1106.419 7        46.000 7
G20  20954082.639 7 110114524.477 7      1667.784 7        45.000 7
G23  20507547.788 7 107767957.993 7       -93.422 7        45.000 7
G31  24818183.177 6 130420459.858 6      1683.396 6        40.000 6
G32  24238367.768 6 127373476.322 6      2832.575 6        40.000 6
> 2014 01 11 12 19 38.0000000  0 10      0.002415663000   
G01  22553920.270 7 118521668.971 7      2870.695 7        44.000 7
G04  21908656.504 7 115130836.995 7     -2704.508 7        45.000 7
G10  23362419.907 7 122770469.235 7     -2868.368 7        43.000 7
G11  25018972.017 6 131475589.336 6      3720.584 6        37.000 6
G13  21141391.670 7 111098842.076 7     -2411.006 7        46.000 7
G17  21632689.448 7 113680535.330 7      1107.240 7        46.000 7
G20  20954401.221 7 110116187.637 7      1667.795 7        45.000 7
G23  20507528.550 7 107767859.899 7       -92.960 7        45.000 7
G31  24818504.015 6 130422138.875 6      1684.299 6        40.000 6
G32  24238905.953 6 127376304.504 6      2833.314 6        40.000 6
> 2014 01 11 12 19 39.0000000  0 10      0.002474923000   
G01  22554464.898 7 118524543.010 7      2871.321 7        44.000 7
G04  21908141.070 7 115128135.371 7     -2704.179 7        45.000 7
G10  23361875.861 7 122767604.255 7     -2867.527 7        43.000 7
G11  25019683.920 6 131479313.413 6      3720.102 6        37.000 6
G13  21140931.970 7 111096434.338 7     -2410.441 7        46.000 7
G17  21632898.870 7 113681645.851 7      1107.774 7        46.000 7
G20  20954718.351 7 110117859.165 7      1668.708 7        45.000 7
G23  20507512.485 7 107767770.479 7       -91.760 7        45.000 7
G31  24818822.681 6 130423826.474 6      1684.904 6        40.000 6
G32  24239446.626 6 127379140.759 6      2833.222 6        40.000 6
> 2014 01 11 12 19 40.0000000  0 10      0.002534187000   
G01  22555010.863 7 118527411.075 7      2871.362 7        44.000 7
G04  21907626.976 7 115125427.785 7     -2703.830 7        45.000 7
G10  23361330.653 7 122764733.170 7     -2867.280 7        43.000 7
G11  25020389.132 6 131483031.327 6      3721.220 6        37.000 6
G13  21140472.883 7 111094020.817 7     -2409.949 7        46.000 7
G17  21633109.692 7 113682750.727 7      1108.380 7        46.000 7
G20  20955036.049 7 110119524.677 7      1669.170 7        45.000 7
G23  20507494.950 7 107767675.329 7       -91.472 7        45.000 7
G31  24819142.926 6 130425508.372 6      1685.438 6        40.000 6
G32  24239984.588 6 127381970.770 6      2833.417 6        40.000 6
> 2014 01 11 12 19 41.0000000  0 10      0.002593448000   
G01  22555558.736 7 118530284.170 7      2871.475 7        44.000 7
G04  21907112.311 7 115122725.203 7     -2703.830 7        45.000 7
G10  23360784.085 7 122761866.935 7     -2867.311 7        43.000 7
G11  25021100.190 6 131486753.961 6      3720.810 6        37.000 6
G13  21140014.600 7 111091612.524 7     -2409.271 7        46.000 7
G17  21633321.339 7 113683860.938 7      1108.842 7        46.000 7
G20  20955352.979 7 110121195.156 7      1669.149 7        45.000 7
G23  20507477.660 7 107767585.472 7       -91.031 7        45.000 7
G31  24819464.741 6 130427195.526 6      1685.982 6        40.000 6
G32  24240523.826 6 127384805.483 6      2833.561 6        40.000 6
> 2014 01 11 12 19 42.0000000  0 10      0.002652711000   
G01  22556105.103 7 118533154.349 7      2872.245 7        44.000 7
G04  21906598.234 7 115120019.709 7     -2703.040 7        45.000 7
G10  23360238.838 7 122758997.639 7     -2867.044 7        43.000 7
G11  25021804.737 6 131490473.380 6      3720.030 6        37.000 6
G13  21139555.796 7 111089201.491 7     -2409.117 7        46.000 7
G17  21633531.921 7 113684968.553 7      1109.652 7        46.000 7
G20  20955670.677 7 110122862.672 7      1669.498 7        45.000 7
G23  20507458.915 7 107767492.967 7       -90.282 7        45.000 7
G31  24819786.803 6 130428879.973 6      1686.403 6        40.000 6
G32  24241060.357 6 127387636.971 6      2833.314 6        40.000 6
> 2014 01 11 12 19 43.0000000  0 10      0.002711971000   
G01  22556651.458 7 118536029.463 7      2872.450 7        44.000 7
G04  21906084.526 7 115117319.157 7     -2703.061 7        45.000 7
G10  23359693.171 7 122756133.144 7     -2867.106 7        43.000 7
G11  25022516.472 6 131494197.575 6      3721.538 6        37.000 6
G13  21139097.781 7 111086795.608 7     -2408.419 7        46.000 7
G17  21633743.120 7 113686081.412 7      1110.022 7        46.000 7
G20  20955988.739 7 110124535.096 7      1669.724 7        45.000 7
G23  20507442.872 7 107767405.657 7       -89.758 7        45.000 7
G31  24820106.619 6 130430569.614 6      1687.286 6        40.000 6
G32  24241599.486 6 127390473.113 6      2833.704 6        40.000 6
> 2014 01 11 12 19 44.0000000  0 10      0.002771233000   
G01  22557197.846 7 118538901.751 7      2872.440 7        44.000 7
G04  21905569.138 7 115114615.778 7     -2702.917 7        45.000 7
G10  23359145.991 7 122753265.691 7     -2866.921 7        43.000 7
G11  25023224.181 6 131497918.609 6      3720.912 6        37.000 6
G13  21138639.456 7 111084387.092 7     -2408.101 7        46.000 7
G17  21633954.416 7 113687191.784 7      1110.781 7        46.000 7
G20  20956305.684 7 110126204.654 7      1669.960 7        45.000 7
G23  20507426.723 7 107767315.793 7       -89.471 7        45.000 7
G31  24820427.649 6 130432256.638 6      1687.234 6        40.000 6
G32  24242138.210 6 127393306.129 6      2833.027 6        40.000 6
> 2014 01 11 12 19 45.0000000  0 10      0.002830493000   
G01  22557745.444 7 118541777.399 7      2872.563 7        44.000 7
G04  21905056.861 7 115111915.739 7     -2702.845 7        45.000 7
G10  23358598.849 7 122750401.438 7     -2867.137 7        43.000 7
G11  25023932.862 6 131501642.754 6      3720.389 6        37.000 6
G13  21138181.996 7 111081982.123 7     -2407.547 7        46.000 7
G17  21634165.650 7 113688305.821 7      1111.223 7        46.000 7
G20  20956623.826 7 110127877.501 7      1669.611 7        45.000 7
G23  20507409.362 7 107767229.564 7       -88.834 7        45.000 7
G31  24820748.796 6 130433947.276 6      1687.532 6        40.000 6
G32  24242676.567 6 127396142.214 6      2832.801 6        40.000 6
> 2014 01 11 12 19 46.0000000  0 10      0.002889758000   
G01  22558291.398 7 118544645.404 7      2872.758 7        44.000 7
G04  21904539.706 7 115109208.073 7     -2702.455 7        45.000 7
G10  23358055.364 7 122747529.409 7     -2866.788 7        43.000 7
G11  25024637.960 6 131505359.066 6      3721.272 6        37.000 6
G13  21137723.690 7 111079569.711 7     -2407.434 7        46.000 7
G17  21634376.820 7 113689412.528 7      1111.798 7        46.000 7
G20  20956939.936 7 110129542.672 7      1669.837 7        45.000 7
G23  20507392.688 7 107767135.939 7       -88.650 7        45.000 7
G31  24821070.247 6 130435630.515 6      1688.055 6        41.000 6
G32  24243217.601 6 127398970.366 6      2832.965 6        40.000 6
> 2014 01 11 12 19 47.0000000  0 10      0.002949018000   
G01  22558836.616 7 118547521.544 7      2872.932 7        44.000 7
G04  21904026.572 7 115106508.534 7     -2702.096 7        45.000 7
G10  23357508.076 7 122744665.387 7     -2866.367 7        43.000 7
G11  25025344.547 6 131509083.205 6      3720.379 6        37.000 6
G13  21137265.640 7 111077165.641 7     -2406.726 7        46.000 7
G17  21634588.646 7 113690527.681 7      1112.208 7        46.000 7
G20  20957258.734 7 110131215.968 7      1670.576 7        45.000 7
G23  20507376.281 7 107767050.720 7       -87.808 7        46.000 7
G31  24821391.195 6 130437322.105 6      1688.794 6        41.000 6
G32  24243757.269 6 127401806.338 6      2832.955 6        40.000 6
> 2014 01 11 12 19 48.0000000  0 10      0.003008281000   
G01  22559384.033 7 118550393.242 7      2873.538 7        44.000 7
G04  21903511.259 7 115103804.548 7     -2702.055 7        45.000 7
G10  23356963.712 7 122741796.736 7     -2866.429 7        43.000 7
G11  25026054.241 6 131512802.676 6      3721.559 6        37.000 6
G13  21136807.351 7 111074757.315 7     -2405.956 7        46.000 7
G17  21634800.640 7 113691638.721 7      1113.234 7        46.000 7
G20  20957576.099 7 110132884.732 7      1670.679 7        45.000 7
G23  20507360.032 7 107766961.331 7       -87.141 7        46.000 7
G31  24821711.913 6 130439009.494 6      1689.482 6        41.000 6
G32  24244295.080 6 127404637.555 6      2833.212 6        40.000 6
> 2014 01 11 12 19 49.0000000  0 10      0.003067542000   
G01  22559930.988 7 118553268.506 7      2873.877 7        44.000 7
G04  21902998.338 7 115101104.130 7     -2701.654 7        45.000 7
G10  23356418.675 7 122738931.549 7     -2866.480 7        43.000 7
G11  25026764.361 6 131516525.383 6      3720.389 6        37.000 6
G13  21136349.773 7 111072352.727 7     -2405.812 7        46.000 7
G17  21635012.421 7 113692753.633 7      1113.542 7        46.000 7
G20  20957894.138 7 110134557.035 7      1671.079 7        45.000 7
G23  20507343.366 7 107766875.752 7       -86.925 7        46.000 7
G31  24822032.403 6 130440700.678 6      1690.190 6        41.000 6
G32  24244832.754 6 127407472.050 6      2833.130 6        40.000 6
> 2014 01 11 12 19 50.0000000  0 10      0.003126806000   
G01  22560477.662 7 118556139.300 7      2874.380 7        44.000 7
G04  21902484.375 7 115098399.236 7     -2700.956 7        45.000 7
G10  23355875.803 7 122736061.737 7     -2866.336 7        43.000 7
G11  25027467.890 6 131520243.452 6      3722.195 6        37.000 6
G13  21135890.815 7 111069943.890 7     -2405.053 7        46.000 7
G17  21635223.792 7 113693864.397 7      1114.456 7        46.000 7
G20  20958211.504 7 110136224.808 7      1671.305 7        45.000 7
G23  20507327.616 7 107766785.984 7       -86.002 7        46.000 7
G31  24822354.558 6 130442387.615 6      1690.724 6        40.000 6
G32  24245372.944 6 127410301.770 6      2833.037 6        40.000 6
> 2014 01 11 12 19 51.0000000  0 10      0.003186069000   
G01  22561024.321 7 118559012.011 7      2874.195 7        44.000 7
G04  21901970.778 7 115095696.265 7     -2701.080 7        45.000 7
G10  23355329.657 7 122733193.719 7     -2866.182 7        43.000 7
G11  25028178.006 6 131523963.135 6      3721.816 6        37.000 6
G13  21135432.827 7 111067537.146 7     -2404.755 7        46.000 7
G17  21635435.210 7 113694977.408 7      1114.805 7        46.000 7
G20  20958528.278 7 110137894.466 7      1671.233 7        45.000 7
G23  20507309.998 7 107766698.400 7       -85.899 7        46.000 7
G31  24822676.932 6 130444076.700 6      1690.724 6        40.000 6
G32  24245913.636 6 127413133.127 6      2832.319 6        40.000 6
> 2014 01 11 12 19 52.0000000  0 10      0.003245332000   
G01  22561570.086 7 118561885.026 7      2874.698 7        44.000 7
G04  21901457.043 7 115092993.573 7     -2700.638 7        45.000 7
G10  23354781.058 7 122730325.811 7     -2866.254 7        43.000 7
G11  25028886.226 6 131527682.854 6      3721.569 6        37.000 6
G13  21134975.506 7 111065130.904 7     -2403.821 7        46.000 7
G17  21635647.690 7 113696090.998 7      1115.513 7        46.000 7
G20  20958847.387 7 110139564.392 7      1671.603 7        45.000 7
G23  20507293.436 7 107766611.365 7       -85.088 7        46.000 7
G31  24822998.455 6 130445766.315 6      1691.689 6        41.000 6
G32  24246453.948 6 127415964.484 6      2832.668 6        40.000 6
> 2014 01 11 12 19 53.0000000  0 10      0.003304593000   
G01  22562118.560 7 118564761.276 7      2874.821 7        44.000 7
G04  21900941.266 7 115090294.142 7     -2700.710 7        45.000 7
G10  23354236.485 7 122727461.061 7     -2866.059 7        43.000 7
G11  25029598.239 6 131531405.513 6      3720.368 6        37.000 6
G13  21134517.316 7 111062728.099 7     -2403.729 7        46.000 7
G17  21635861.042 7 113697208.172 7      1115.893 7        46.000 7
G20  20959164.249 7 110141237.516 7      1671.828 7        45.000 7
G23  20507277.925 7 107766527.859 7       -84.626 7        46.000 7
G31  24823320.260 6 130447459.414 6      1692.038 6        41.000 6
G32  24246992.540 6 127418798.802 6      2832.904 6        40.000 6
> 2014 01 11 12 19 54.0000000  0 10      0.003363855000   
G01  22562664.154 7 118567636.394 7      2875.447 7        44.000 7
G04  21900427.176 7 115087593.581 7     -2700.094 7        45.000 7
G10  23353691.667 7 122724595.027 7     -2865.484 7        43.000 7
G11  25030304.099 6 131535126.831 6      3720.800 6        37.000 6
G13  21134061.041 7 111060324.359 7     -2403.318 7        46.000 7
G17  21636072.147 7 113698324.533 7      1116.734 7        46.000 7
G20  20959481.838 7 110142909.458 7      1672.167 7        45.000 7
G23  20507260.725 7 107766443.468 7       -84.031 7        46.000 7
G31  24823644.366 6 130449151.604 6      1692.027 6        41.000 6
G32  24247530.664 6 127421631.664 6      2832.945 6        40.000 6
> 2014 01 11 12 19 55.0000000  0 10      0.003423117000   
G01  22563211.901 7 118570511.822 7      2875.509 7        44.000 7
G04  21899914.476 7 115084893.328 7     -2699.632 7        45.000 7
G10  23353145.735 7 122721729.133 7     -2865.125 7        43.000 7
G11  25031008.824 6 131538848.183 6      3721.107 6        37.000 6
G13  21133603.719 7 111057921.116 7     -2402.897 7        46.000 7
G17  21636284.130 7 113699441.509 7      1117.432 7        46.000 7
G20  20959801.191 7 110144581.666 7      1672.454 7        45.000 7
G23  20507245.157 7 107766359.660 7       -83.456 7        46.000 7
G31  24823966.109 6 130450844.370 6      1692.941 6        41.000 6
G32  24248072.597 6 127424464.541 6      2832.955 6        40.000 6
> 2014 01 11 12 19 56.0000000  0 10      0.003482378000   
G01  22563759.046 7 118573389.088 7      2875.714 7        44.000 7
G04  21899400.030 7 115082194.895 7     -2700.033 7        45.000 7
G10  23352598.412 7 122718864.930 7     -2865.648 7        42.000 7
G11  25031716.526 6 131542571.184 6      3721.077 6        37.000 6
G13  21133146.215 7 111055519.917 7     -2402.323 7        46.000 7
G17  21636497.857 7 113700560.656 7      1117.997 7        46.000 7
G20  20960119.744 7 110146255.675 7      1672.783 7        45.000 7
G23  20507229.993 7 107766277.970 7       -82.974 7        46.000 7
G31  24824288.429 6 130452539.174 6      1692.879 6        41.000 6
G32  24248609.875 6 127427298.958 6      2832.935 6        40.000 6
> 2014 01 11 12 19 57.0000000  0 10      0.003541641000   
G01  22564306.404 7 118576263.475 7      2876.463 7        44.000 7
G04  21898885.606 7 115079493.575 7     -2699.386 7        45.000 7
G10  23352054.893 7 122715997.721 7     -2865.197 7        42.000 7
G11  25032427.992 6 131546290.961 6      3720.769 6        37.000 6
G13  21132688.007 7 111053116.019 7     -2401.717 7        46.000 7
G17  21636710.329 7 113701677.203 7      1118.325 7        46.000 7
G20  20960437.737 7 110147926.738 7      1672.978 7        45.000 7
G23  20507214.704 7 107766193.630 7       -82.204 7        46.000 7
G31  24824609.875 6 130454231.385 6      1694.388 6        41.000 6
G32  24249147.498 6 127430130.184 6      2832.719 6        40.000 6
> 2014 01 11 12 19 58.0000000  0 10      0.003600903000   
G01  22564854.490 7 118579139.687 7      2876.740 7        43.000 7
G04  21898371.152 7 115076794.101 7     -2698.863 7        45.000 7
G10  23351508.462 7 122713132.204 7     -2865.320 7        42.000 7
G11  25033139.764 6 131550012.353 6      3721.559 6        37.000 6
G13  21132232.090 7 111050714.158 7     -2401.358 7        46.000 7
G17  21636922.836 7 113702795.932 7      1119.003 7        46.000 7
G20  20960756.262 7 110149599.600 7      1673.019 7        45.000 7
G23  20507199.059 7 107766111.412 7       -81.896 7        46.000 7
G31  24824933.044 6 130455925.651 6      1695.435 6        41.000 6
G32  24249685.227 6 127432962.969 6      2832.894 6        40.000 6
> 2014 01 11 12 19 59.0000000  0 10      0.003660169000   
G01  22565402.008 7 118582009.913 7      2876.730 7        43.000 7
G04  21897857.460 7 115074088.636 7     -2698.688 7        45.000 7
G10  23350964.859 7 122710260.552 7     -2865.258 7        42.000 7
G11  25033842.161 6 131553727.471 6      3720.964 6        37.000 6
G13  21131774.119 7 111048306.506 7     -2400.865 7        46.000 7
G17  21637135.215 7 113703908.996 7      1119.916 7        46.000 7
G20  20961075.356 7 110151266.452 7      1673.686 7        45.000 7
G23  20507183.088 7 107766023.485 7       -80.921 7        46.000 7
G31  24825256.441 6 130457614.115 6      1694.911 6        41.000 6
G32  24250222.333 6 127435789.480 6      2832.924 6        40.000 6
> 2014 01 11 12 20  0.0000000  0 10      0.003719429000   
G01  22565948.362 7 118584890.025 7      2876.956 7        43.000 7
G04  21897344.698 7 115071393.051 7     -2698.462 7        45.000 7
G10  23350418.163 7 122707398.645 7     -2865.125 7        42.000 7
G11  25034550.396 6 131557452.270 6      3722.103 6        37.000 6
G13  21131318.829 7 111045908.940 7     -2400.198 7        46.000 7
G17  21637347.819 7 113705032.232 7      1120.358 7        46.000 7
G20  20961392.698 7 110152943.093 7      1673.183 7        45.000 7
G23  20507166.375 7 107765945.656 7       -81.044 7        46.000 7
G31  24825578.342 6 130459312.715 6      1695.527 6        41.000 6
G32  24250762.590 6 127438625.548 6      2832.924 6        40.000 6
> 2014 01 11 12 20  1.0000000  0 10      0.003778691000   
G01  22566496.241 7 118587767.144 7      2877.336 7        43.000 7
G04  21896830.220 7 115068694.453 7     -2697.939 7        45.000 7
G10  23349872.199 7 122704533.587 7     -2864.561 7        42.000 7
G11  25035261.234 6 131561173.750 6      3721.087 6        37.000 6
G13  21130863.573 7 111043508.555 7     -2399.685 7        46.000 7
G17  21637561.243 7 113706152.784 7      1121.127 7        46.000 7
G20  20961711.180 7 110154616.729 7      1673.973 7        45.000 7
G23  20507151.433 7 107765865.135 7       -79.782 7        46.000 7
G31  24825901.051 6 130461008.562 6      1696.205 6        41.000 6
G32  24251301.647 6 127441458.313 6      2832.637 6        40.000 6
> 2014 01 11 12 20  2.0000000  0 10      0.003837954000   
G01  22567042.912 7 118590642.919 7      2877.674 7        43.000 7
G04  21896317.777 7 115065994.546 7     -2697.867 7        45.000 7
G10  23349329.192 7 122701667.062 7     -2864.797 7        42.000 7
G11  25035967.390 6 131564893.626 6      3721.231 6        37.000 6
G13  21130405.057 7 111041107.033 7     -2399.172 7        46.000 7
G17  21637776.186 7 113707272.320 7      1121.425 7        46.000 7
G20  20962029.397 7 110156288.972 7      1674.302 7        45.000 7
G23  20507134.570 7 107765783.523 7       -79.679 7        46.000 7
G31  24826224.500 6 130462703.299 6      1696.482 6        41.000 6
G32  24251842.108 6 127444289.456 6      2832.832 6        40.000 6
> 2014 01 11 12 20  3.0000000  0 10      0.003897216000   
G01  22567591.261 7 118593520.514 7      2877.654 7        43.000 7
G04  21895804.156 7 115063296.447 7     -2697.693 7        45.000 7
G10  23348781.936 7 122698802.215 7     -2864.509 7        42.000 7
G11  25036670.244 6 131568615.146 6      3722.719 6        37.000 6
G13  21129948.064 7 111038707.523 7     -2398.710 7        46.000 7
G17  21637990.775 7 113708393.990 7      1122.000 7        46.000 7
G20  20962348.715 7 110157962.997 7      1674.158 7        45.000 7
G23  20507121.343 7 107765704.010 7       -79.012 7        46.000 7
G31  24826546.440 6 130464400.105 6      1697.200 6        41.000 6
G32  24252380.196 6 127447122.129 6      2832.842 6        40.000 6
> 2014 01 11 12 20  4.0000000  0 10      0.003956477000   
G01  22568138.435 7 118596399.932 7      2878.044 7        43.000 7
G04  21895290.692 7 115060600.179 7     -2697.067 7        45.000 7
G10  23348238.041 7 122695939.025 7     -2864.663 7        42.000 7
G11  25037380.618 6 131572338.189 6      3721.354 6        37.000 6
G13  21129490.884 7 111036310.025 7     -2398.587 7        46.000 7
G17  21638204.057 7 113709517.796 7      1123.077 7        46.000 7
G20  20962666.655 7 110159638.783 7      1674.179 7        45.000 7
G23  20507104.514 7 107765626.574 7       -78.437 7        46.000 7
G31  24826869.911 6 130466098.957 6      1698.134 6        41.000 6
G32  24252920.665 6 127449956.313 6      2832.955 6        40.000 6
> 2014 01 11 12 20  5.0000000  0 10      0.004015739000   
G01  22568684.034 7 118599278.075 7      2878.228 7        43.000 7
G04  21894776.987 7 115057902.641 7     -2697.025 7        45.000 7
G10  23347690.839 7 122693074.461 7     -2864.489 7        42.000 7
G11  25038092.218 6 131576059.671 6      3720.368 6        37.000 6
G13  21129034.074 7 111033911.471 7     -2398.032 7        46.000 7
G17  21638416.968 7 113710640.652 7      1123.519 7        46.000 7
G20  20962984.729 7 110161313.274 7      1674.764 7        45.000 7
G23  20507090.540 7 107765548.142 7       -78.170 7        46.000 7
G31  24827193.754 6 130467796.764 6      1698.032 6        41.000 6
G32  24253459.129 6 127452788.956 6      2832.688 6        40.000 6
> 2014 01 11 12 20  6.0000000  0 10      0.004075000000   
G01  22569233.595 7 118602158.039 7      2878.690 7        43.000 7
G04  21894264.199 7 115055206.919 7     -2696.759 7        45.000 7
G10  23347149.090 7 122690211.551 7     -2863.606 7        42.000 7
G11  25038799.934 6 131579782.745 6      3721.744 6        37.000 6
G13  21128578.411 7 111031514.943 7     -2397.232 7        46.000 7
G17  21638629.907 7 113711765.650 7      1124.124 7        46.000 7
G20  20963303.905 7 110162989.554 7      1675.102 7        45.000 7
G23  20507075.632 7 107765471.797 7       -77.329 7        46.000 7
G31  24827516.662 6 130469496.653 6      1699.140 6        41.000 6
G32  24253999.589 6 127455623.097 6      2832.688 6        40.000 6
> 2014 01 11 12 20  7.0000000  0 10      0.004134263000   
G01  22569780.360 7 118605035.309 7      2879.019 7        43.000 7
G04  21893751.085 7 115052508.487 7     -2696.564 7        45.000 7
G10  23346601.660 7 122687345.785 7     -2863.883 7        42.000 7
G11  25039506.329 6 131583502.874 6      3721.446 6        37.000 6
G13  21128121.507 7 111029115.898 7     -2397.016 7        46.000 7
G17  21638844.674 7 113712888.260 7      1124.535 7        46.000 7
G20  20963622.934 7 110164663.065 7      1675.102 7        45.000 7
G23  20507061.593 7 107765393.026 7       -76.928 7        46.000 7
G31  24827841.565 6 130471194.034 6      1699.089 6        41.000 6
G32  24254538.537 6 127458454.288 6      2833.017 6        40.000 6
> 2014 01 11 12 20  8.0000000  0 10      0.004193525000   
G01  22570329.364 7 118607914.342 7      2879.265 7        43.000 7
G04  21893237.360 7 115049811.843 7     -2695.948 7        45.000 7
G10  23346059.116 7 122684481.699 7     -2863.514 7        42.000 7
G11  25040215.096 6 131587224.471 6      3721.138 6        37.000 6
G13  21127666.879 7 111026718.810 7     -2396.349 7        46.000 7
G17  21639057.743 7 113714012.944 7      1125.079 7        46.000 7
G20  20963940.770 7 110166338.303 7      1675.441 7        45.000 7
G23  20507046.606 7 107765316.269 7       -76.210 7        46.000 7
G31  24828163.426 6 130472893.425 6      1699.725 6        41.000 6
G32  24255076.424 6 127461286.900 6      2832.770 6        40.000 6
> 2014 01 11 12 20  9.0000000  0 10      0.004252787000   
G01  22570879.573 7 118610793.712 7      2879.542 7        43.000 7
G04  21892723.888 7 115047115.529 7     -2695.619 7        45.000 7
G10  23345511.655 7 122681617.774 7     -2863.360 7        42.000 7
G11  25040921.225 6 131590946.201 6      3721.744 6        37.000 6
G13  21127211.592 7 111024322.261 7     -2396.072 7        46.000 7
G17  21639272.082 7 113715138.303 7      1125.777 7        46.000 7
G20  20964259.425 7 110168013.844 7      1675.749 7        45.000 7
G23  20507031.543 7 107765240.110 7       -75.645 7        46.000 7
G31  24828485.590 6 130474593.404 6      1700.033 6        41.000 6
G32  24255616.033 6 127464119.567 6      2833.232 6        40.000 6
> 2014 01 11 12 20 10.0000000  0 10      0.004312048000   
G01  22571426.336 7 118613674.969 7      2879.973 7        43.000 7
G04  21892210.582 7 115044421.090 7     -2695.322 7        45.000 7
G10  23344969.665 7 122678755.597 7     -2863.165 7        42.000 7
G11  25041632.221 6 131594669.513 6      3721.385 6        37.000 6
G13  21126754.799 7 111021927.799 7     -2395.477 7        46.000 7
G17  21639485.699 7 113716265.869 7      1126.577 7        46.000 7
G20  20964579.762 7 110169691.228 7      1676.067 7        45.000 7
G23  20507017.843 7 107765166.118 7       -74.927 7        46.000 7
G31  24828809.113 6 130476295.528 6      1701.347 6        41.000 6
G32  24256154.414 6 127466953.779 6      2832.699 6        40.000 6
> 2014 01 11 12 20 11.0000000  0 10      0.004371311000   
G01  22571972.948 7 118616553.433 7      2880.004 7        43.000 7
G04  21891697.125 7 115041723.853 7     -2695.383 7        45.000 7
G10  23344422.740 7 122675890.485 7     -2862.580 7        42.000 7
G11  25042343.206 6 131598389.764 6      3721.426 6        37.000 6
G13  21126299.603 7 111019530.727 7     -2394.964 7        46.000 7
G17  21639700.365 7 113717390.945 7      1126.793 7        46.000 7
G20  20964898.034 7 110171365.759 7      1675.934 7        45.000 7
G23  20507002.709 7 107765089.588 7       -74.691 7        46.000 7
G31  24829134.231 6 130477995.039 6      1701.583 6        41.000 6
G32  24256693.929 6 127469784.947 6      2832.657 6        40.000 6
> 2014 01 11 12 20 12.0000000  0 10      0.004430571000   
G01  22572522.231 7 118619436.937 7      2880.764 7        43.000 7
G04  21891185.960 7 115039031.663 7     -2694.767 7        45.000 7
G10  23343875.217 7 122673030.231 7     -2862.846 7        42.000 7
G11  25043050.913 6 131602114.787 6      3721.210 6        37.000 6
G13  21125843.122 7 111017138.907 7     -2394.142 7        46.000 7
G17  21639915.099 7 113718521.382 7      1127.840 7        46.000 7
G20  20965218.019 7 110173045.289 7      1676.519 7        45.000 7
G23  20506988.966 7 107765018.364 7       -73.706 7        46.000 7
G31  24829456.551 6 130479699.840 6      1702.353 6        41.000 6
G32  24257234.915 6 127472620.848 6      2833.099 6        40.000 6
> 2014 01 11 12 20 13.0000000  0 10      0.004489835000   
G01  22573070.163 7 118622314.338 7      2880.743 7        43.000 7
G04  21890671.543 7 115036333.383 7     -2694.850 7        45.000 7
G10  23343332.984 7 122670163.778 7     -2863.257 7        42.000 7
G11  25043754.196 6 131605833.566 6      3721.939 6        37.000 6
G13  21125387.613 7 111014741.187 7     -2393.557 7        46.000 7
G17  21640130.638 7 113719646.047 7      1128.055 7        46.000 7
G20  20965537.600 7 110174718.701 7      1676.827 7        45.000 7
G23  20506974.495 7 107764941.322 7       -73.582 7        46.000 7
G31  24829781.566 6 130481398.808 6      1702.650 6        41.000 6
G32  24257772.022 6 127475450.362 6      2832.668 6        40.000 6
> 2014 01 11 12 20 14.0000000  0 10      0.004549096000   
G01  22573618.868 7 118625196.804 7      2881.082 7        43.000 7
G04  21890160.179 7 115033640.148 7     -2694.357 7        45.000 7
G10  23342786.166 7 122667302.230 7     -2862.775 7        42.000 7
G11  25044467.506 6 131609557.033 6      3722.175 6        37.000 6
G13  21124931.763 7 111012348.683 7     -2393.557 7        46.000 7
G17  21640345.101 7 113720776.057 7      1128.743 7        46.000 7
G20  20965856.795 7 110176397.082 7      1677.155 7        45.000 7
G23  20506961.413 7 107764869.576 7       -72.956 7        46.000 7
G31  24830102.442 6 130483103.019 6      1703.071 6        41.000 6
G32  24258311.361 6 127478284.610 6      2832.914 6        40.000 6
> 2014 01 11 12 20 15.0000000  0 10      0.004608357000   
G01  22574167.254 7 118628079.593 7      2881.441 7        43.000 7
G04  21889646.605 7 115030947.299 7     -2693.833 7        45.000 7
G10  23342242.054 7 122664440.900 7     -2862.077 7        42.000 7
G11  25045174.741 6 131613280.579 6      3721.795 6        37.000 6
G13  21124476.214 7 111009956.755 7     -2392.972 7        46.000 7
G17  21640559.310 7 113721906.734 7      1129.800 7        46.000 7
G20  20966176.054 7 110178075.799 7      1677.391 7        45.000 7
G23  20506947.500 7 107764798.463 7       -72.022 7        46.000 7
G31  24830427.809 6 130484807.832 6      1703.841 6        41.000 6
G32  24258851.661 6 127481118.905 6      2832.647 6        40.000 6
> 2014 01 11 12 20 16.0000000  0 10      0.004667619000   
G01  22574714.442 7 118630961.082 7      2881.379 7        43.000 7
G04  21889134.492 7 115028253.126 7     -2694.008 7        45.000 7
G10  23341696.324 7 122661578.074 7     -2862.580 7        42.000 7
G11  25045880.736 6 131617002.609 6      3721.949 6        37.000 6
G13  21124021.402 7 111007563.704 7     -2392.706 7        46.000 7
G17  21640774.474 7 113723036.426 7      1130.159 7        46.000 7
G20  20966495.243 7 110179753.149 7      1677.863 7        45.000 7
G23  20506933.955 7 107764726.280 7       -71.879 7        46.000 7
G31  24830751.442 6 130486511.537 6      1703.420 6        40.000 6
G32  24259389.376 6 127483951.618 6      2832.473 6        40.000 6
> 2014 01 11 12 20 17.0000000  0 10      0.004726881000   
G01  22575263.380 7 118633842.772 7      2882.201 7        43.000 7
G04  21888622.794 7 115025559.139 7     -2693.259 7        45.000 7
G10  23341154.035 7 122658715.322 7     -2862.292 7        42.000 7
G11  25046588.434 6 131620724.584 6      3722.452 6        37.000 6
G13  21123566.664 7 111005171.038 7     -2391.802 7        46.000 7
G17  21640989.731 7 113724166.613 7      1130.785 7        46.000 7
G20  20966814.457 7 110181430.628 7      1677.207 7        45.000 7
G23  20506919.355 7 107764654.556 7       -71.201 7        46.000 7
G31  24831075.737 6 130488215.717 6      1704.970 6        40.000 6
G32  24259927.830 6 127486784.211 6      2832.894 6        40.000 6
> 2014 01 11 12 20 18.0000000  0 10      0.004786144000   
G01  22575811.463 7 118636722.965 7      2882.211 7        43.000 7
G04  21888109.673 7 115022863.669 7     -2693.094 7        45.000 7
G10  23340608.396 7 122655850.974 7     -2862.190 7        42.000 7
G11  25047300.929 6 131624444.773 6      3721.754 6        37.000 6
G13  21123110.543 7 111002777.103 7     -2391.648 7        46.000 7
G17  21641205.149 7 113725295.640 7      1131.001 7        46.000 7
G20  20967133.959 7 110183106.626 7      1678.161 7        45.000 7
G23  20506905.671 7 107764581.648 7       -70.698 7        46.000 7
G31  24831399.220 6 130489918.634 6      1704.908 6        40.000 6
G32  24260467.468 6 127489615.029 6      2832.606 6        40.000 6
> 2014 01 11 12 20 19.0000000  0 10      0.004845405000   
G01  22576359.848 7 118639606.750 7      2883.385 7        43.000 7
G04  21887596.853 7 115020171.781 7     -2692.053 7        45.000 7
G10  23340063.786 7 122652990.026 7     -2861.333 7        42.000 7
G11  25048007.776 6 131628168.278 6      3722.590 6        37.000 6
G13  21122655.515 7 111000386.918 7     -2390.361 7        46.000 7
G17  21641420.928 7 113726428.567 7      1132.637 7        46.000 7
G20  20967452.799 7 110184786.138 7      1679.459 7        45.000 7
G23  20506892.335 7 107764512.565 7       -69.349 7        46.000 7
G31  24831724.385 6 130491625.384 6      1706.729 6        40.000 6
G32  24261007.734 6 127492449.148 6      2833.740 6        40.000 6
> 2014 01 11 12 20 20.0000000  0 10      0.004904669000   
G01  22576908.718 7 118642486.083 7      2882.488 7        43.000 7
G04  21887084.522 7 115017475.462 7     -2692.438 7        45.000 7
G10  23339518.502 7 122650124.539 7     -2861.502 7        42.000 7
G11  25048714.307 6 131631887.125 6      3722.380 6        37.000 6
G13  21122199.689 7 110997992.535 7     -2390.314 7        46.000 7
G17  21641635.541 7 113727557.369 7      1132.458 7        46.000 7
G20  20967770.970 7 110186461.140 7      1678.038 7        45.000 7
G23  20506878.586 7 107764439.314 7       -69.795 7        46.000 7
G31  24832047.224 6 130493327.919 6      1706.243 6        40.000 6
G32  24261546.334 6 127495278.509 6      2832.750 6        40.000 6
> 2014 01 11 12 20 21.0000000  0 10      0.004963931000   
G01  22577457.321 7 118645369.010 7      2883.525 7        43.000 7
G04  21886573.252 7 115014782.723 7     -2692.407 7        45.000 7
G10  23338975.576 7 122647262.444 7     -2862.107 7        42.000 7
G11  25049422.794 6 131635609.247 6      3721.805 6        37.000 6
G13  21121744.762 7 110995601.879 7     -2390.427 7        46.000 7
G17  21641850.896 7 113728690.062 7      1133.033 7        46.000 7
G20  20968090.583 7 110188139.716 7      1678.921 7        45.000 7
G23  20506866.138 7 107764369.903 7       -68.964 7        46.000 7
G31  24832373.830 6 130495034.245 6      1706.663 6        40.000 6
G32  24262083.843 6 127498111.134 6      2832.421 6        40.000 6
> 2014 01 11 12 20 22.0000000  0 10      0.005023193000   
G01  22578006.392 7 118648252.396 7      2883.401 7        43.000 7
G04  21886060.365 7 115012090.480 7     -2691.904 7        45.000 7
G10  23338429.296 7 122644400.723 7     -2861.122 7        42.000 7
G11  25050130.571 6 131639331.644 6      3722.339 6        37.000 6
G13  21121290.541 7 110993211.928 7     -2389.339 7        46.000 7
G17  21642067.164 7 113729823.558 7      1133.793 7        46.000 7
G20  20968410.274 7 110189818.707 7      1679.013 7        45.000 7
G23  20506852.499 7 107764301.229 7       -68.420 7        46.000 7
G31  24832699.243 6 130496741.299 6      1707.433 6        39.000 6
G32  24262624.053 6 127500943.960 6      2832.822 6        40.000 6
> 2014 01 11 12 20 23.0000000  0 10      0.005082453000   
G01  22578555.907 7 118651139.120 7      2883.658 7        43.000 7
G04  21885547.141 7 115009401.473 7     -2691.740 7        45.000 7
G10  23337883.240 7 122641542.181 7     -2861.184 7        42.000 7
G11  25050839.882 6 131643057.098 6      3721.723 6        37.000 6
G13  21120835.466 7 110990825.496 7     -2389.185 7        46.000 7
G17  21642283.363 7 113730960.694 7      1134.409 7        46.000 7
G20  20968728.878 7 110191500.978 7      1679.126 7        45.000 7
G23  20506840.496 7 107764236.152 7       -67.978 7        46.000 7
G31  24833024.948 6 130498451.890 6      1708.029 6        39.000 6
G32  24263164.082 6 127503779.833 6      2832.760 6        40.000 6
> 2014 01 11 12 20 24.0000000  0 10      0.005141717000   
G01  22579104.840 7 118654019.784 7      2884.058 7        43.000 7
G04  21885035.638 7 115006706.504 7     -2691.196 7        45.000 7
G10  23337340.187 6 122638677.419 6     -2861.256 6        41.000 6
G11  25051551.789 6 131646776.195 6      3721.651 6        37.000 6
G13  21120381.185 7 110988433.233 7     -2388.384 7        46.000 7
G17  21642499.422 7 113732092.094 7      1135.035 7        46.000 7
G20  20969047.658 7 110193177.179 7      1679.762 7        45.000 7
G23  20506826.824 7 107764165.306 7       -66.921 7        45.000 7
G31  24833347.268 6 130500156.695 6      1708.716 6        39.000 6
G32  24263703.472 6 127506609.346 6      2832.924 6        40.000 6
> 2014 01 11 12 20 25.0000000  0 10      0.005200978000   
G01  22579651.116 7 118656905.482 7      2884.808 7        43.000 7
G04  21884523.183 7 115004016.535 7     -2691.072 7        45.000 7
G10  23336792.927 6 122635817.546 6     -2861.410 6        41.000 6
G11  25052258.321 6 131650500.046 6      3722.288 6        37.000 6
G13  21119927.505 7 110986046.128 7     -2388.189 7        46.000 7
G17  21642714.593 7 113733228.821 7      1135.733 7        46.000 7
G20  20969368.902 7 110194858.331 7      1679.793 7        45.000 7
G23  20506814.915 7 107764099.720 7       -66.695 7        45.000 7
G31  24833671.727 6 130501866.739 6      1709.219 6        39.000 6
G32  24264240.522 6 127509443.564 6      2833.006 6        39.000 6
> 2014 01 11 12 20 26.0000000  0 10      0.005260238000   
G01  22580203.081 7 118659793.076 7      2884.705 7        43.000 7
G04  21884009.762 7 115001328.491 7     -2690.775 7        45.000 7
G10  23336249.819 6 122632959.495 6     -2860.270 6        41.000 6
G11  25052963.090 6 131654225.629 6      3722.637 6        37.000 6
G13  21119473.474 7 110983661.178 7     -2387.327 7        46.000 7
G17  21642930.949 7 113734367.783 7      1136.205 7        46.000 7
G20  20969688.414 7 110196541.374 7      1680.183 7        45.000 7
G23  20506802.852 7 107764036.330 7       -66.213 7        46.000 7
G31  24833999.448 6 130503578.926 6      1709.979 6        39.000 6
G32  24264778.261 6 127512279.400 6      2832.822 6        39.000 6
> 2014 01 11 12 20 27.0000000  0 10      0.005319500000   
G01  22580750.872 7 118662677.739 7      2884.448 7        44.000 7
G04  21883497.687 7 114998637.516 7     -2690.221 7        45.000 7
G10  23335703.828 6 122630098.292 6     -2861.112 6        41.000 6
G11  25053675.235 6 131657947.980 6      3722.277 6        37.000 6
G13  21119018.158 7 110981273.475 7     -2387.091 7        46.000 7
G17  21643146.430 7 113735504.139 7      1136.738 7        46.000 7
G20  20970009.258 7 110198221.421 7      1680.337 7        45.000 7
G23  20506789.332 7 107763970.284 7       -65.546 7        46.000 7
G31  24834322.663 6 130505288.430 6      1710.338 6        39.000 6
G32  24265319.386 6 127515112.027 6      2832.955 6        39.000 6
> 2014 01 11 12 20 28.0000000  0 10      0.005378763000   
G01  22581299.733 7 118665561.020 7      2886.074 7        44.000 7
G04  21882985.917 7 114995945.146 7     -2689.118 7        45.000 7
G10  23335161.934 6 122627235.620 6     -2859.198 6        41.000 6
G11  25054386.682 6 131661668.657 6      3722.744 6        37.000 6
G13  21118563.565 7 110978884.572 7     -2385.773 7        46.000 7
G17  21643364.176 7 113736639.404 7      1138.426 7        46.000 7
G20  20970328.309 7 110199900.048 7      1681.224 7        45.000 7
G23  20506776.354 7 107763903.081 7       -64.228 7        46.000 7
G31  24834648.118 6 130506996.709 6      1711.092 6        39.000 6
G32  24265858.658 6 127517942.922 6      2833.668 6        39.000 6
> 2014 01 11 12 20 29.0000000  0 10      0.005438024000   
G01  22581848.888 7 118668447.852 7      2885.772 7        44.000 7
G04  21882475.204 7 114993256.333 7     -2689.492 7        45.000 7
G10  23334617.447 6 122624376.323 6     -2860.496 6        41.000 6
G11  25055090.954 6 131665392.630 6      3722.267 6        37.000 6
G13  21118110.072 7 110976499.454 7     -2386.034 7        46.000 7
G17  21643579.234 7 113737778.542 7      1138.021 7        46.000 7
G20  20970648.219 7 110201582.184 7      1680.758 7        45.000 7
G23  20506764.299 7 107763839.732 7       -63.986 7        46.000 7
G31  24834975.073 6 130508708.870 6      1711.559 6        39.000 6
G32  24266397.983 6 127520777.096 6      2832.791 6        39.000 6
> 2014 01 11 12 20 30.0000000  0 10      0.005497287000   
G01  22582397.699 7 118671331.872 7      2885.813 7        44.000 7
G04  21881963.195 7 114990564.708 7     -2689.461 7        45.000 7
G10  23334074.307 6 122621514.101 6     -2860.424 6        41.000 6
G11  25055795.610 6 131669113.621 6      3722.534 6        37.000 6
G13  21117655.503 7 110974111.678 7     -2385.788 7        46.000 7
G17  21643796.482 7 113738915.187 7      1138.853 7        46.000 7
G20  20970967.776 7 110203261.470 7      1681.045 7        45.000 7
G23  20506753.083 7 107763773.795 7       -64.006 7        46.000 7
G31  24835301.329 6 130510418.357 6      1711.251 6        39.000 6
G32  24266937.479 6 127523608.168 6      2832.555 6        39.000 6
> 2014 01 11 12 20 31.0000000  0 10      0.005556549000   
G01  22582948.409 7 118674217.870 7      2885.998 7        44.000 7
G04  21881449.473 7 114987875.078 7     -2689.287 7        45.000 7
G10  23333529.803 6 122618653.717 6     -2860.619 6        41.000 6
G11  25056512.000 6 131672836.278 6      3722.996 6        37.000 6
G13  21117201.548 7 110971726.126 7     -2385.326 7        46.000 7
G17  21644011.502 7 113740054.124 7      1138.863 7        46.000 7
G20  20971287.325 7 110204942.707 7      1681.579 7        45.000 7
G23  20506740.401 7 107763710.150 7       -63.432 7        46.000 7
G31  24835626.885 6 130512130.164 6      1712.411 6        39.000 6
G32  24267476.535 6 127526440.926 6      2832.534 6        40.000 6
> 2014 01 11 12 20 32.0000000  0 10      0.005615811000   
G01  22583497.686 7 118677104.345 7      2886.552 7        44.000 7
G04  21880939.265 7 114985185.917 7     -2688.773 7        45.000 7
G10  23332984.413 6 122615793.670 6     -2859.367 6        41.000 6
G11  25057219.857 6 131676559.095 6      3722.965 6        37.000 6
G13  21116747.717 7 110969341.227 7     -2384.094 7        46.000 7
G17  21644229.148 7 113741193.863 7      1139.982 7        46.000 7
G20  20971607.520 7 110206624.345 7      1681.835 7        45.000 7
G23  20506728.808 7 107763647.226 7       -62.795 7        46.000 7
G31  24835952.938 6 130513842.584 6      1712.226 6        39.000 6
G32  24268013.343 6 127529273.867 6      2832.935 6        39.000 6
> 2014 01 11 12 20 33.0000000  0 10      0.005675076000   
G01  22584047.609 7 118679986.208 7      2886.932 7        44.000 7
G04  21880427.415 7 114982492.132 7     -2688.537 7        45.000 7
G10  23332440.781 6 122612928.865 6     -2859.439 6        41.000 6
G11  25057922.805 6 131680277.107 6      3722.431 6        37.000 6
G13  21116293.422 7 110966951.895 7     -2383.940 7        46.000 7
G17  21644445.972 7 113742329.280 7      1140.618 7        46.000 7
G20  20971927.780 7 110208301.325 7      1681.856 7        45.000 7
G23  20506714.863 7 107763579.944 7       -62.251 7        46.000 7
G31  24836280.831 6 130515550.672 6      1713.386 6        39.000 6
G32  24268553.974 6 127532101.905 6      2833.140 6        39.000 6
> 2014 01 11 12 20 34.0000000  0 10      0.005734336000   
G01  22584596.038 7 118682876.222 7      2887.271 7        44.000 7
G04  21879915.792 7 114979806.530 7     -2687.942 7        46.000 7
G10  23331893.726 6 122610072.071 6     -2859.264 6        41.000 6
G11  25058635.243 6 131684002.997 6      3722.514 6        37.000 6
G13  21115839.388 7 110964570.928 7     -2383.489 7        46.000 7
G17  21644663.081 7 113743473.196 7      1141.142 7        46.000 7
G20  20972246.925 7 110209986.443 7      1682.184 7        45.000 7
G23  20506704.999 7 107763521.112 7       -61.471 7        46.000 7
G31  24836606.319 6 130517267.126 6      1713.520 6        39.000 6
G32  24269093.434 6 127534937.787 6      2832.904 6        39.000 6
> 2014 01 11 12 20 35.0000000  0 10      0.005793598000   
G01  22585146.204 7 118685763.361 7      2887.671 7        44.000 7
G04  21879404.192 7 114977118.055 7     -2687.819 7        46.000 7
G10  23331352.566 6 122607212.256 6     -2859.357 6        41.000 6
G11  25059343.276 6 131687725.736 6      3722.760 6        37.000 6
G13  21115386.561 7 110962187.305 7     -2382.934 7        46.000 7
G17  21644880.463 7 113744614.547 7      1141.788 7        46.000 7
G20  20972568.561 7 110211668.650 7      1682.503 7        45.000 7
G23  20506691.592 7 107763459.655 7       -60.989 7        46.000 7
G31  24836929.981 6 130518980.977 6      1714.792 6        39.000 6
G32  24269630.963 6 127537770.519 6      2833.130 6        39.000 6
> 2014 01 11 12 20 36.0000000  0 10      0.005852860000   
G01  22585695.096 7 118688650.812 7      2887.763 7        44.000 7
G04  21878893.601 7 114974429.884 7     -2687.634 7        46.000 7
G10  23330808.586 6 122604352.620 6     -2859.367 6        41.000 6
G11  25060049.051 6 131691448.606 6      3722.965 6        37.000 6
G13  21114932.689 7 110959804.191 7     -2382.473 7        46.000 7
G17  21645097.393 7 113745756.522 7      1142.240 7        46.000 7
G20  20972887.770 7 110213351.103 7      1682.739 7        45.000 7
G23  20506680.007 7 107763398.776 7       -60.445 7        46.000 7
G31  24837256.588 6 130520695.311 6      1714.330 6        39.000 6
G32  24270172.486 6 127540603.241 6      2833.068 6        39.000 6
> 2014 01 11 12 20 37.0000000  0 10      0.005912123000   
G01  22586243.769 7 118691537.107 7      2889.246 7        44.000 7
G04  21878379.361 7 114971740.533 7     -2686.573 7        46.000 7
G10  23330263.981 6 122601491.704 6     -2857.967 6        41.000 6
G11  25060758.721 6 131695169.947 6      3723.072 6        37.000 6
G13  21114479.771 7 110957420.090 7     -2381.175 7        46.000 7
G17  21645316.257 7 113746897.658 7      1143.804 7        46.000 7
G20  20973207.513 7 110215032.367 7      1684.170 7        45.000 7
G23  20506669.199 7 107763336.981 7       -59.630 7        46.000 7
G31  24837584.551 6 130522408.768 6      1716.203 6        39.000 6
G32  24270709.919 6 127543434.474 6      2833.257 6        39.000 6
> 2014 01 11 12 20 38.0000000  0 10      0.005971384000   
G01  22586794.406 7 118694426.726 7      2889.164 7        44.000 7
G04  21877867.664 7 114969054.547 7     -2686.059 7        46.000 7
G10  23329720.736 6 122598633.931 6     -2858.305 6        41.000 6
G11  25061470.508 6 131698894.413 6      3722.959 6        37.000 6
G13  21114026.196 7 110955039.540 7     -2380.703 7        46.000 7
G17  21645534.293 7 113748042.448 7      1144.759 7        46.000 7
G20  20973528.072 7 110216716.917 7      1684.108 7        45.000 7
G23  20506658.134 7 107763278.831 7       -58.418 7        46.000 7
G31  24837907.864 6 130524125.788 6      1716.706 6        38.000 6
G32  24271250.416 6 127546268.803 6      2833.760 6        39.000 6
> 2014 01 11 12 20 39.0000000  0 10      0.006030646000   
G01  22587343.662 7 118697315.081 7      2888.513 7        44.000 7
G04  21877357.250 7 114966367.302 7     -2686.700 7        46.000 7
G10  23329176.663 6 122595774.808 6     -2858.987 6        41.000 6
G11  25062177.634 6 131702617.386 6      3723.037 6        38.000 6
G13  21113573.181 7 110952657.928 7     -2381.005 7        46.000 7
G17  21645752.149 7 113749186.287 7      1144.241 7        46.000 7
G20  20973848.956 7 110218400.170 7      1683.406 7        45.000 7
G23  20506648.208 7 107763219.669 7       -58.628 7        46.000 7
G31  24838233.449 6 130525841.750 6      1715.942 6        38.000 6
G32  24271787.190 6 127549101.570 6      2833.089 6        40.000 6
> 2014 01 11 12 20 40.0000000  0 10      0.006089909000   
G01  22587891.760 7 118700202.356 7      2889.139 7        44.000 7
G04  21876845.869 7 114963678.979 7     -2686.300 7        46.000 7
G10  23328629.692 6 122592914.456 6     -2858.228 6        41.000 6
G11  25062883.544 6 131706338.970 6      3722.678 6        38.000 6
G13  21113118.093 7 110950275.423 7     -2380.420 7        46.000 7
G17  21645971.003 7 113750329.374 7      1145.350 7        46.000 7
G20  20974168.863 7 110220082.293 7      1684.094 7        45.000 7
G23  20506636.223 7 107763159.688 7       -58.115 7        46.000 7
G31  24838558.690 6 130527556.900 6      1717.204 6        38.000 6
G32  24272329.023 6 127551932.921 6      2832.924 6        40.000 6
> 2014 01 11 12 20 41.0000000  0 10      0.006149169000   
G01  22588442.521 7 118703094.625 7      2889.108 7        44.000 7
G04  21876335.062 7 114960995.667 7     -2685.971 7        46.000 7
G10  23328085.167 6 122590058.956 6     -2857.797 6        41.000 6
G11  25063597.210 6 131710065.312 6      3723.386 6        38.000 6
G13  21112666.657 7 110947898.116 7     -2379.630 7        46.000 7
G17  21646189.341 7 113751477.748 7      1145.699 7        46.000 7
G20  20974490.472 7 110221769.362 7      1684.289 7        45.000 7
G23  20506625.240 7 107763104.973 7       -57.294 7        46.000 7
G31  24838887.964 6 130529277.249 6      1717.225 6        38.000 6
G32  24272866.999 6 127554769.005 6      2833.304 6        40.000 6
> 2014 01 11 12 20 42.0000000  0 10      0.006208431000   
G01  22588992.781 7 118705984.264 7      2890.309 7        44.000 7
G04  21875822.986 7 114958309.689 7     -2685.294 7        46.000 7
G10  23327540.869 6 122587200.652 6     -2857.437 6        41.000 6
G11  25064304.221 6 131713788.678 6      3722.975 6        38.000 6
G13  21112213.991 7 110945518.340 7     -2379.229 7        46.000 7
G17  21646407.045 7 113752623.787 7      1146.427 7        46.000 7
G20  20974810.423 7 110223453.716 7      1684.771 7        45.000 7
G23  20506613.992 7 107763047.865 7       -56.504 7        46.000 7
G31  24839214.114 6 130530995.177 6      1717.923 6        38.000 6
G32  24273407.074 6 127557602.115 6      2833.622 6        40.000 6
> 2014 01 11 12 20 43.0000000  0 10      0.006267696000   
G01  22589542.709 7 118708869.153 7      2890.714 7        44.000 7
G04  21875312.103 7 114955618.981 7     -2684.776 7        46.000 7
G10  23326995.826 6 122584337.434 6     -2857.433 6        41.000 6
G11  25065009.161 6 131717507.160 6      3723.893 6        38.000 6
G13  21111760.657 7 110943134.050 7     -2378.229 7        46.000 7
G17  21646624.478 7 113753765.407 7      1147.232 7        46.000 7
G20  20975130.230 7 110225133.312 7      1685.001 7        45.000 7
G23  20506603.230 7 107762986.313 7       -55.309 7        46.000 7
G31  24839537.517 6 130532708.672 6      1719.477 6        37.000 6
G32  24273945.621 6 127560430.200 6      2833.657 6        40.000 6
> 2014 01 11 12 20 44.0000000  0 10      0.006326957000   
G01  22590091.069 7 118711760.803 7      2890.258 7        44.000 7
G04  21874801.371 7 114952935.068 7     -2685.048 7        46.000 7
G10  23326453.963 6 122581480.923 6     -2857.520 6        41.000 6
G11  25065715.710 6 131721232.103 6      3722.965 6        38.000 6
G13  21111309.031 7 110940756.741 7     -2378.418 7        46.000 7
G17  21646843.263 7 113754914.132 7      1147.546 7        46.000 7
G20  20975450.940 7 110226819.654 7      1685.017 7        45.000 7
G23  20506593.234 7 107762931.781 7       -55.734 7        46.000 7
G31  24839864.717 6 130534429.121 6      1719.380 6        37.000 6
G32  24274483.310 6 127563264.775 6      2833.550 6        40.000 6
> 2014 01 11 12 20 45.0000000  0 10      0.006386221000   
G01  22590642.996 7 118714648.203 7      2890.822 7        44.000 7
G04  21874290.587 7 114950246.880 7     -2684.422 7        46.000 7
G10  23325910.684 6 122578619.976 6     -2856.904 6        41.000 6
G11  25066424.060 6 131724952.503 6      3722.986 6        38.000 6
G13  21110855.294 7 110938375.338 7     -2377.556 7        46.000 7
G17  21647060.530 7 113756058.877 7      1148.141 7        46.000 7
G20  20975771.016 7 110228501.664 7      1685.530 7        45.000 7
G23  20506581.715 7 107762873.250 7       -54.697 7        46.000 7
G31  24840193.245 6 130536145.547 6      1720.130 6        37.000 6
G32  24275021.643 6 127566094.732 6      2832.996 6        40.000 6
> 2014 01 11 12 20 46.0000000  0 10      0.006445481000   
G01  22591191.429 7 118717542.237 7      2891.109 7        44.000 7
G04  21873779.926 7 114947565.337 7     -2684.319 7        46.000 7
G10  23325367.312 7 122575765.536 7     -2857.119 7        42.000 7
G11  25067137.055 6 131728679.318 6      3722.873 6        38.000 6
G13  21110403.243 7 110936000.793 7     -2377.238 7        46.000 7
G17  21647279.125 7 113757210.601 7      1148.737 7        46.000 7
G20  20976092.730 7 110230190.283 7      1685.623 7        45.000 7
G23  20506573.223 7 107762821.620 7       -54.595 7        46.000 7
G31  24840523.461 6 130537868.843 6      1720.827 6        37.000 6
G32  24275560.240 6 127568931.079 6      2833.253 6        40.000 6
> 2014 01 11 12 20 47.0000000  0 10      0.006504745000   
G01  22591740.799 7 118720430.191 7      2891.274 7        44.000 7
G04  21873268.681 7 114944877.728 7     -2683.837 7        46.000 7
G10  23324824.083 7 122572904.847 7     -2857.417 7        42.000 7
G11  25067842.757 6 131732399.811 6      3723.211 6        38.000 6
G13  21109949.502 7 110933620.367 7     -2376.786 7        46.000 7
G17  21647496.434 7 113758356.564 7      1149.435 7        46.000 7
G20  20976412.327 7 110231872.777 7      1685.910 7        45.000 7
G23  20506561.727 7 107762764.213 7       -53.373 7        46.000 7
G31  24840850.082 6 130539586.247 6      1720.992 6        37.000 6
G32  24276100.095 6 127571761.036 6      2833.253 6        40.000 6
> 2014 01 11 12 20 48.0000000  0 10      0.006564006000   
G01  22592290.354 7 118723323.126 7      2891.674 7        43.000 7
G04  21872758.382 7 114942195.086 7     -2683.683 7        46.000 7
G10  23324280.069 7 122570049.035 7     -2856.698 7        42.000 7
G11  25068552.395 6 131736124.979 6      3723.448 6        38.000 6
G13  21109497.127 7 110931245.121 7     -2375.647 7        46.000 7
G17  21647715.511 7 113759507.824 7      1150.420 7        46.000 7
G20  20976734.575 7 110233560.200 7      1686.085 7        45.000 7
G23  20506551.223 7 107762712.009 7       -52.963 7        46.000 7
G31  24841176.558 6 130541308.891 6      1721.525 6        37.000 6
G32  24276638.176 6 127574595.674 6      2833.099 6        40.000 6
> 2014 01 11 12 20 49.0000000  0 10      0.006623270000   
G01  22592842.112 7 118726211.635 7      2891.828 7        43.000 7
G04  21872246.672 7 114939508.032 7     -2683.549 7        46.000 7
G10  23323737.656 7 122567188.637 7     -2856.955 7        42.000 7
G11  25069260.759 6 131739845.461 6      3722.924 6        38.000 6
G13  21109043.565 7 110928865.634 7     -2375.657 7        46.000 7
G17  21647933.994 7 113760654.958 7      1150.553 7        46.000 7
G20  20977055.594 7 110235243.167 7      1686.588 7        45.000 7
G23  20506540.495 7 107762655.637 7       -52.788 7        46.000 7
G31  24841507.567 6 130543027.358 6      1721.669 6        37.000 6
G32  24277178.215 6 127577425.595 6      2833.037 6        40.000 6
> 2014 01 11 12 20 50.0000000  0 10      0.006682531000   
G01  22593392.756 7 118729105.287 7      2892.321 7        43.000 7
G04  21871737.278 7 114936826.149 7     -2682.851 7        46.000 7
G10  23323191.823 7 122564333.261 7     -2856.247 7        42.000 7
G11  25069969.109 6 131743570.865 6      3724.361 6        38.000 6
G13  21108591.398 7 110926491.484 7     -2375.534 7        46.000 7
G17  21648152.564 7 113761807.555 7      1151.508 7        46.000 7
G20  20977376.057 7 110236931.211 7      1686.629 7        45.000 7
G23  20506531.753 7 107762604.697 7       -52.100 7        46.000 7
G31  24841833.129 6 130544751.193 6      1722.346 6        37.000 6
G32  24277716.517 6 127580260.395 6      2833.314 6        40.000 6
> 2014 01 11 12 20 51.0000000  0 10      0.006741792000   
G01  22593941.545 7 118731999.189 7      2892.782 7        43.000 7
G04  21871225.838 7 114934144.518 7     -2682.564 7        46.000 7
G10  23322650.382 7 122561477.974 7     -2856.175 7        42.000 7
G11  25070679.925 6 131747296.230 6      3724.125 6        38.000 6
G13  21108140.082 7 110924117.802 7     -2374.795 7        46.000 7
G17  21648372.006 7 113762960.727 7      1152.226 7        46.000 7
G20  20977697.132 7 110238619.472 7      1687.224 7        45.000 7
G23  20506522.346 7 107762554.261 7       -51.577 7        46.000 7
G31  24842161.833 6 130546475.546 6      1723.270 6        37.000 6
G32  24278256.324 6 127583095.098 6      2833.212 6        40.000 6
> 2014 01 11 12 20 52.0000000  0 10      0.006801053000   
G01  22594491.548 7 118734893.476 7      2893.183 7        43.000 7
G04  21870715.427 7 114931463.289 7     -2682.246 7        46.000 7
G10  23322105.945 7 122558622.938 7     -2856.360 7        42.000 7
G11  25071389.807 6 131751021.681 6      3723.879 6        38.000 6
G13  21107689.453 7 110921744.732 7     -2373.974 7        46.000 7
G17  21648592.153 7 113764114.607 7      1152.873 7        46.000 7
G20  20978017.895 7 110240308.092 7      1687.316 7        45.000 7
G23  20506511.546 7 107762504.506 7       -50.705 7        46.000 7
G31  24842487.795 6 130548200.486 6      1723.127 6        37.000 6
G32  24278795.771 6 127585929.910 6      2833.017 6        40.000 6
> 2014 01 11 12 20 53.0000000  0 10      0.006860316000   
G01  22595042.522 7 118737784.866 7      2893.131 7        43.000 7
G04  21870203.700 7 114928779.144 7     -2682.369 7        46.000 7
G10  23321563.408 7 122555764.883 7     -2856.165 7        42.000 7
G11  25072090.156 6 131754744.040 6      3723.797 6        38.000 6
G13  21107237.169 7 110919368.963 7     -2373.523 7        46.000 7
G17  21648810.473 7 113765265.889 7      1152.986 7        46.000 7
G20  20978339.620 7 110241993.769 7      1687.501 7        45.000 7
G23  20506502.908 7 107762452.113 7       -50.397 7        46.000 7
G31  24842816.688 6 130549922.834 6      1725.190 6        37.000 6
G32  24279333.663 6 127588761.551 6      2833.427 6        40.000 6
> 2014 01 11 12 20 54.0000000  0 10      0.006919581000   
G01  22595593.159 7 118740673.480 7      2893.521 7        43.000 7
G04  21869693.349 7 114926092.232 7     -2681.517 7        46.000 7
G10  23321018.027 7 122552903.890 7     -2856.298 7        42.000 7
G11  25072803.621 6 131758463.323 6      3724.330 6        38.000 6
G13  21106785.909 7 110916990.575 7     -2373.287 7        46.000 7
G17  21649030.224 7 113766414.690 7      1153.807 7        46.000 7
G20  20978660.232 7 110243676.599 7      1687.563 7        45.000 7
G23  20506492.262 7 107762397.169 7       -50.181 7        46.000 7
G31  24843146.984 6 130551642.552 6      1725.159 6        37.000 6
G32  24279872.864 6 127591590.070 6      2833.047 6        40.000 6
> 2014 01 11 12 20 55.0000000  0 10      0.006978845000   
G01  22596143.398 7 118743564.009 7      2893.870 7        43.000 7
G04  21869182.411 7 114923407.233 7     -2681.527 7        46.000 7
G10  23320475.087 7 122550044.720 7     -2855.374 7        42.000 7
G11  25073514.547 6 131762184.267 6      3723.858 6        38.000 6
G13  21106334.104 7 110914614.323 7     -2372.445 7        46.000 7
G17  21649250.595 7 113767565.747 7      1154.546 7        46.000 7
G20  20978980.255 7 110245361.327 7      1687.963 7        45.000 7
G23  20506482.422 7 107762344.461 7       -49.155 7        46.000 7
G31  24843474.080 6 130553364.454 6      1725.405 6        37.000 6
G32  24280413.142 6 127594420.252 6      2833.253 6        40.000 6
> 2014 01 11 12 20 56.0000000  0 10      0.007038105000   
G01  22596692.598 7 118746461.072 7      2894.486 7        43.000 7
G04  21868672.529 7 114920728.784 7     -2680.901 7        46.000 7
G10  23319933.734 7 122547191.891 7     -2856.083 7        42.000 7
G11  25074222.856 6 131765911.455 6      3723.540 6        38.000 6
G13  21105882.630 7 110912244.813 7     -2372.219 7        46.000 7
G17  21649468.653 7 113768723.645 7      1155.347 7        46.000 7
G20  20979303.413 7 110247052.536 7      1688.322 7        45.000 7
G23  20506473.301 7 107762298.529 7       -48.529 7        46.000 7
G31  24843801.319 6 130555093.103 6      1725.846 6        37.000 6
G32  24280950.603 6 127597256.632 6      2832.996 6        40.000 6
> 2014 01 11 12 20 57.0000000  0 10      0.007097367000   
G01  22597245.084 7 118749355.407 7      2894.517 7        43.000 7
G04  21868162.891 7 114918047.622 7     -2680.429 7        46.000 7
G10  23319388.229 7 122544336.240 7     -2855.600 7        42.000 7
G11  25074927.955 6 131769635.778 6      3724.176 6        38.000 6
G13  21105430.301 7 110909872.807 7     -2370.936 7        46.000 7
G17  21649686.828 7 113769879.164 7      1156.322 7        46.000 7
G20  20979625.097 7 110248740.998 7      1688.538 7        45.000 7
G23  20506462.954 7 107762250.156 7       -47.810 7        46.000 7
G31  24844130.751 6 130556819.278 6      1726.226 6        37.000 6
G32  24281490.736 6 127600090.046 6      2833.735 6        40.000 6
> 2014 01 11 12 20 58.0000000  0 10      0.007156631000   
G01  22597794.740 7 118752246.868 7      2894.722 7        43.000 7
G04  21867653.656 7 114915363.574 7     -2680.460 7        46.000 7
G10  23318844.433 7 122541477.575 7     -2854.872 7        42.000 7
G11  25075635.862 6 131773356.850 6      3723.376 6        38.000 6
G13  21104978.786 7 110907498.080 7     -2371.193 7        46.000 7
G17  21649908.506 7 113771032.091 7      1156.301 7        46.000 7
G20  20979945.271 7 110250426.524 7      1688.764 7        45.000 7
G23  20506453.061 7 107762199.167 7       -47.430 7        46.000 7
G31  24844457.010 6 130558542.784 6      1726.411 6        37.000 6
G32  24282030.257 6 127602920.251 6      2833.171 6        40.000 6
> 2014 01 11 12 20 59.0000000  0 10      0.007215893000   
G01  22598346.945 7 118755141.728 7      2895.205 7        43.000 7
G04  21867143.167 7 114912682.934 7     -2680.183 7        46.000 7
G10  23318301.633 7 122538622.144 7     -2855.374 7        43.000 7
G11  25076347.413 6 131777081.080 6      3723.827 6        38.000 6
G13  21104526.433 7 110905126.947 7     -2370.762 7        46.000 7
G17  21650128.229 7 113772188.744 7      1157.307 7        46.000 7
G20  20980266.273 7 110252115.402 7      1689.410 7        45.000 7
G23  20506445.007 7 107762151.841 7       -46.856 7        46.000 7
G31  24844786.643 6 130560270.016 6      1728.033 6        37.000 6
G32  24282570.940 6 127605753.559 6      2833.078 6        40.000 6
> 2014 01 11 12 21  0.0000000  0 10      0.007275154000   
G01  22598897.223 7 118758038.458 7      2895.492 7        43.000 7
G04  21866632.847 7 114910004.188 7     -2679.782 7        46.000 7
G10  23317755.931 7 122535768.459 7     -2854.974 7        43.000 7
G11  25077054.519 6 131780806.944 6      3724.197 6        38.000 6
G13  21104076.196 7 110902757.935 7     -2369.797 7        46.000 7
G17  21650348.559 7 113773347.583 7      1157.697 7        46.000 7
G20  20980588.388 7 110253806.126 7      1689.728 7        45.000 7
G23  20506436.599 7 107762106.658 7       -46.147 7        46.000 7
G31  24845117.994 6 130561999.279 6      1728.494 6        37.000 6
G32  24283106.977 6 127608588.453 6      2833.284 6        40.000 6
> 2014 01 11 12 21  1.0000000  0 10      0.007334416000   
G01  22599448.415 7 118760933.990 7      2895.687 7        43.000 7
G04  21866122.489 7 114907324.238 7     -2679.474 7        46.000 7
G10  23317214.351 7 122532913.437 7     -2854.379 7        43.000 7
G11  25077760.778 6 131784531.361 6      3723.807 6        38.000 6
G13  21103625.574 7 110900387.904 7     -2369.253 7        46.000 7
G17  21650568.721 7 113774505.542 7      1158.405 7        46.000 7
G20  20980909.693 7 110255495.597 7      1690.077 7        45.000 7
G23  20506427.823 7 107762060.541 7       -45.757 7        46.000 7
G31  24845445.736 6 130563727.576 6      1729.110 6        37.000 6
G32  24283647.871 6 127611421.868 6      2833.602 6        39.000 6
> 2014 01 11 12 21  2.0000000  0 10      0.007393680000   
G01  22599999.653 7 118763826.765 7      2896.149 7        43.000 7
G04  21865612.560 7 114904641.541 7     -2679.218 7        46.000 7
G10  23316670.127 7 122530055.518 7     -2854.399 7        43.000 7
G11  25078471.785 6 131788252.729 6      3723.786 6        38.000 6
G13  21103174.276 7 110898015.315 7     -2368.812 7        46.000 7
G17  21650787.846 7 113775661.053 7      1159.329 7        46.000 7
G20  20981230.467 7 110257182.276 7      1690.785 7        45.000 7
G23  20506418.571 7 107762011.920 7       -44.967 7        46.000 7
G31  24845776.231 6 130565453.336 6      1729.531 6        37.000 6
G32  24284184.572 6 127614252.253 6      2833.253 6        39.000 6
> 2014 01 11 12 21  3.0000000  0 10      0.007452942000   
G01  22600550.766 7 118766722.883 7      2896.118 7        43.000 7
G04  21865102.887 7 114901962.192 7     -2678.972 7        46.000 7
G10  23316127.084 7 122527200.809 7     -2854.399 7        43.000 7
G11  25079181.106 6 131791977.237 6      3724.474 6        38.000 6
G13  21102724.410 7 110895646.255 7     -2368.483 7        46.000 7
G17  21651008.997 7 113776820.211 7      1159.534 7        46.000 7
G20  20981551.672 7 110258872.220 7      1690.170 7        45.000 7
G23  20506409.627 7 107761966.919 7       -44.372 7        46.000 7
G31  24846106.833 6 130567182.665 6      1729.110 6        37.000 6
G32  24284721.280 6 127617085.671 6      2833.376 6        39.000 6
> 2014 01 11 12 21  4.0000000  0 10      0.007512206000   
G01  22601101.144 7 118769616.139 7      2896.436 7        43.000 7
G04  21864592.486 7 114899280.018 7     -2678.325 7        46.000 7
G10  23315583.091 7 122524343.105 7     -2853.712 7        43.000 7
G11  25079890.021 6 131795698.608 6      3724.156 6        38.000 6
G13  21102272.521 7 110893274.559 7     -2368.093 7        46.000 7
G17  21651229.479 7 113777976.849 7      1160.489 7        46.000 7
G20  20981872.523 7 110260559.300 7      1690.816 7        45.000 7
G23  20506401.332 7 107761919.329 7       -43.920 7        46.000 7
G31  24846437.131 6 130568909.392 6      1730.013 6        37.000 6
G32  24285263.479 6 127619915.948 6      2834.125 6        39.000 6
> 2014 01 11 12 21  5.0000000  0 10      0.007571467000   
G01  22601651.896 7 118772514.360 7      2896.724 7        43.000 7
G04  21864083.598 7 114896602.793 7     -2678.345 7        46.000 7
G10  23315038.488 7 122521490.200 7     -2853.619 7        43.000 7
G11  25080598.110 6 131799424.643 6      3724.269 6        38.000 6
G13  21101821.422 7 110890908.020 7     -2367.272 7        46.000 7
G17  21651450.958 7 113779138.728 7      1160.889 7        46.000 7
G20  20982193.540 7 110262251.258 7      1690.478 7        45.000 7
G23  20506392.885 7 107761876.941 7       -43.551 7        46.000 7
G31  24846763.468 6 130570641.303 6      1730.681 6        38.000 6
G32  24285801.029 6 127622750.791 6      2833.222 6        39.000 6
> 2014 01 11 12 21  6.0000000  0 10      0.007630728000   
G01  22602203.464 7 118775412.867 7      2897.165 7        43.000 7
G04  21863574.577 7 114893925.866 7     -2678.027 7        46.000 7
G10  23314497.911 7 122518637.445 7     -2853.886 7        43.000 7
G11  25081304.683 6 131803150.708 6      3724.577 6        37.000 6
G13  21101370.414 7 110888541.955 7     -2367.036 7        46.000 7
G17  21651671.794 7 113780301.232 7      1161.412 7        46.000 7
G20  20982515.371 7 110263943.489 7      1691.052 7        45.000 7
G23  20506384.547 7 107761835.123 7       -42.904 7        46.000 7
G31  24847092.755 6 130572373.715 6      1730.578 6        38.000 6
G32  24286340.305 6 127625585.705 6      2833.766 6        39.000 6
> 2014 01 11 12 21  7.0000000  0 10      0.007689992000   
G01  22602754.218 7 118778307.098 7      2897.904 7        43.000 7
G04  21863063.416 7 114891244.697 7     -2677.299 7        46.000 7
G10  23313950.786 7 122515780.287 7     -2853.486 7        43.000 7
G11  25082014.770 6 131806872.241 6      3724.484 6        37.000 6
G13  21100920.919 7 110886171.842 7     -2366.235 7        46.000 7
G17  21651892.639 7 113781459.781 7      1162.080 7        46.000 7
G20  20982836.762 7 110265631.410 7      1691.401 7        45.000 7
G23  20506376.969 7 107761789.299 7       -42.104 7        46.000 7
G31  24847423.757 6 130574102.146 6      1732.220 6        38.000 6
G32  24286880.607 6 127628416.009 6      2833.643 6        39.000 6
> 2014 01 11 12 21  8.0000000  0 10      0.007749254000   
G01  22603306.560 7 118781204.680 7      2897.966 7        43.000 7
G04  21862553.843 7 114888566.876 7     -2677.196 7        46.000 7
G10  23313410.367 7 122512926.364 7     -2853.671 7        43.000 7
G11  25082721.648 6 131810596.909 6      3724.823 6        37.000 6
G13  21100470.006 7 110883805.281 7     -2365.948 7        46.000 7
G17  21652112.280 7 113782622.002 7      1162.593 7        46.000 7
G20  20983159.351 7 110267322.626 7      1691.524 7        45.000 7
G23  20506367.985 7 107761747.091 7       -41.950 7        46.000 7
G31  24847750.863 6 130575834.100 6      1732.200 6        38.000 6
G32  24287419.020 6 127631249.392 6      2833.263 6        39.000 6
> 2014 01 11 12 21  9.0000000  0 10      0.007808515000   
G01  22603857.563 7 118784104.218 7      2897.191 7        43.000 7
G04  21862045.216 7 114885891.023 7     -2678.052 7        46.000 7
G10  23312866.108 7 122510074.263 7     -2853.706 7        43.000 7
G11  25083435.700 6 131814323.281 6      3724.603 6        37.000 6
G13  21100019.890 7 110881440.904 7     -2365.819 7        46.000 7
G17  21652335.021 7 113783786.511 7      1162.794 7        46.000 7
G20  20983481.166 7 110269015.775 7      1690.771 7        45.000 7
G23  20506360.571 7 107761707.129 7       -41.882 7        46.000 7
G31  24848079.724 6 130577568.275 6      1731.867 6        38.000 6
G32  24287957.944 6 127634084.456 6      2832.869 6        39.000 6
> 2014 01 11 12 21 10.0000000  0 10      0.007867779000   
G01  22604408.490 7 118786999.361 7      2898.561 7        43.000 7
G04  21861535.755 7 114883210.789 7     -2676.652 7        47.000 7
G10  23312322.502 7 122507217.597 7     -2852.983 7        43.000 7
G11  25084142.391 6 131818044.965 6      3725.367 6        37.000 6
G13  21099570.491 7 110879072.297 7     -2364.655 7        46.000 7
G17  21652556.981 7 113784946.922 7      1164.194 7        46.000 7
G20  20983803.275 7 110270704.469 7      1692.222 7        45.000 7
G23  20506351.605 7 107761663.013 7       -40.328 7        46.000 7
G31  24848408.555 6 130579298.290 6      1733.421 6        38.000 6
G32  24288497.494 6 127636914.809 6      2833.591 6        39.000 6
> 2014 01 11 12 21 11.0000000  0 10      0.007927040000   
G01  22604960.563 7 118789899.523 7      2897.848 7        43.000 7
G04  21861025.537 7 114880535.571 7     -2677.231 7        47.000 7
G10  23311781.928 7 122504365.862 7     -2853.028 7        43.000 7
G11  25084846.754 6 131821771.416 6      3724.285 6        37.000 6
G13  21099120.376 7 110876708.928 7     -2365.347 7        46.000 7
G17  21652777.861 7 113786112.653 7      1163.800 7        46.000 7
G20  20984125.379 7 110272398.137 7      1691.068 7        45.000 7
G23  20506344.598 7 107761624.188 7       -40.969 7        46.000 7
G31  24848738.953 6 130581033.547 6      1733.242 6        38.000 6
G32  24289038.708 6 127639749.909 6      2833.094 6        39.000 6
> 2014 01 11 12 21 12.0000000  0 10      0.007986303000   
G01  22605512.084 7 118792796.786 7      2899.074 7        43.000 7
G04  21860516.476 7 114877857.440 7     -2676.016 7        47.000 7
G10  23311237.148 7 122501511.022 7     -2852.880 7        43.000 7
G11  25085559.831 6 131825494.659 6      3724.320 6        37.000 6
G13  21098669.551 7 110874342.827 7     -2364.080 7        46.000 7
G17  21652998.629 7 113787275.794 7      1164.995 7        46.000 7
G20  20984447.492 7 110274088.852 7      1692.653 7        45.000 7
G23  20506336.323 7 107761582.707 7       -39.476 7        46.000 7
G31  24849068.271 6 130582766.121 6      1734.222 6        38.000 6
G32  24289578.350 6 127642581.749 6      2833.745 6        39.000 6
> 2014 01 11 12 21 13.0000000  0 10      0.008045565000   
G01  22606062.791 7 118795695.769 7      2899.290 7        43.000 7
G04  21860007.553 7 114875181.032 7     -2675.964 7        47.000 7
G10  23310693.813 7 122498657.778 7     -2853.229 7        43.000 7
G11  25086271.473 6 131829219.369 6      3724.607 6        37.000 6
G13  21098219.857 7 110871978.669 7     -2364.090 7        46.000 7
G17  21653220.355 7 113788440.972 7      1165.734 7        46.000 7
G20  20984769.545 7 110275781.254 7      1692.592 7        45.000 7
G23  20506328.811 7 107761543.227 7       -38.973 7        46.000 7
G31  24849398.910 6 130584500.641 6      1734.858 6        38.000 6
G32  24290114.655 6 127645415.045 6      2833.776 6        39.000 6
> 2014 01 11 12 21 14.0000000  0 10      0.008104827000   
G01  22606614.726 7 118798595.209 7      2899.669 7        43.000 7
G04  21859497.771 7 114872505.110 7     -2675.389 7        47.000 7
G10  23310152.259 7 122495804.894 7     -2852.275 7        43.000 7
G11  25086974.601 6 131832944.326 6      3725.829 6        37.000 6
G13  21097769.342 7 110869615.193 7     -2362.900 7        46.000 7
G17  21653442.419 7 113789606.930 7      1166.329 7        46.000 7
G20  20985091.677 7 110277474.069 7      1693.238 7        45.000 7
G23  20506321.249 7 107761504.488 7       -38.173 7        46.000 7
G31  24849729.497 6 130586235.892 6      1736.079 6        38.000 6
G32  24290655.175 6 127648248.502 6      2833.325 6        39.000 6
> 2014 01 11 12 21 15.0000000  0 10      0.008164090000   
G01  22607166.406 7 118801493.304 7      2899.947 7        43.000 7
G04  21858988.498 7 114869827.861 7     -2674.948 7        47.000 7
G10  23309608.706 7 122492950.502 7     -2852.531 7        43.000 7
G11  25087682.744 6 131836667.644 6      3724.731 6        37.000 6
G13  21097319.368 7 110867250.564 7     -2362.274 7        46.000 7
G17  21653665.432 7 113790771.870 7      1167.314 7        46.000 7
G20  20985413.165 7 110279165.500 7      1693.526 7        45.000 7
G23  20506313.101 7 107761464.673 7       -37.546 7        46.000 7
G31  24850061.010 6 130587970.001 6      1736.295 6        38.000 6
G32  24291192.913 6 127651080.334 6      2833.509 6        39.000 6
> 2014 01 11 12 21 16.0000000  0 10      0.008223353000   
G01  22607719.135 7 118804391.918 7      2900.439 7        43.000 7
G04  21858477.987 7 114867151.106 7     -2674.486 7        47.000 7
G10  23309067.507 7 122490096.484 7     -2851.813 7        43.000 7
G11  25088390.561 6 131840391.245 6      3724.710 6        37.000 6
G13  21096870.480 7 110864886.644 7     -2361.760 7        46.000 7
G17  21653886.506 7 113791937.621 7      1167.858 7        46.000 7
G20  20985734.363 7 110280857.405 7      1693.670 7        45.000 7
G23  20506306.620 7 107761425.613 7       -37.187 7        46.000 7
G31  24850391.332 6 130589704.857 6      1736.777 6        38.000 6
G32  24291732.211 6 127653912.360 6      2833.479 6        39.000 6
> 2014 01 11 12 21 17.0000000  0 10      0.008282616000   
G01  22608269.268 7 118807290.882 7      2899.839 7        43.000 7
G04  21857968.308 7 114864474.727 7     -2675.117 7        47.000 7
G10  23308523.878 7 122487242.694 7     -2852.546 7        43.000 7
G11  25089102.391 6 131844114.940 6      3724.285 6        37.000 6
G13  21096420.748 7 110862523.287 7     -2361.806 7        46.000 7
G17  21654109.229 7 113793104.041 7      1167.659 7        46.000 7
G20  20986057.141 7 110282549.618 7      1692.680 7        45.000 7
G23  20506299.879 7 107761387.190 7       -37.294 7        46.000 7
G31  24850721.767 6 130591440.302 6      1736.229 6        38.000 6
G32  24292270.953 6 127656744.470 6      2832.981 6        39.000 6
> 2014 01 11 12 21 18.0000000  0 10      0.008341879000   
G01  22608822.666 7 118810190.009 7      2899.983 7        43.000 7
G04  21857459.237 7 114861798.537 7     -2674.788 7        47.000 7
G10  23307982.731 7 122484388.945 7     -2852.402 7        43.000 7
G11  25089808.301 6 131847838.520 6      3724.182 6        37.000 6
G13  21095970.898 7 110860160.307 7     -2361.672 7        46.000 7
G17  21654331.287 7 113794270.964 7      1168.223 7        46.000 7
G20  20986379.011 7 110284242.056 7      1693.470 7        45.000 7
G23  20506292.840 7 107761349.201 7       -36.802 7        46.000 7
G31  24851051.898 6 130593176.156 6      1736.876 6        38.000 6
G32  24292809.863 6 127659576.461 6      2832.766 6        39.000 6
> 2014 01 11 12 21 19.0000000  0 10      0.008401141000   
G01  22609372.836 7 118813091.173 7      2901.271 7        43.000 7
G04  21856950.929 7 114859124.363 7     -2673.768 7        47.000 7
G10  23307440.040 7 122481537.085 7     -2851.279 7        43.000 7
G11  25090518.167 6 131851563.894 6      3725.511 6        37.000 6
G13  21095522.420 7 110857799.542 7     -2360.334 7        46.000 7
G17  21654553.217 7 113795440.211 7      1169.449 7        46.000 7
G20  20986701.430 7 110285936.376 7      1694.593 7        45.000 7
G23  20506285.287 7 107761313.506 7       -35.576 7        46.000 7
G31  24851382.270 6 130594914.272 6      1738.717 6        38.000 6
G32  24293348.337 6 127662410.163 6      2833.704 6        39.000 6
> 2014 01 11 12 21 20.0000000  0 10      0.008460403000   
G01  22609926.079 7 118815992.484 7      2901.507 7        43.000 7
G04  21856442.083 7 114856450.357 7     -2673.706 7        47.000 7
G10  23306896.777 7 122478685.218 7     -2851.433 7        43.000 7
G11  25091226.108 6 131855289.145 6      3724.843 6        37.000 6
G13  21095073.061 7 110855439.145 7     -2359.851 7        46.000 7
G17  21654775.807 7 113796609.932 7      1170.055 7        46.000 7
G20  20987024.253 7 110287630.827 7      1694.306 7        45.000 7
G23  20506278.002 7 107761278.224 7       -34.960 7        46.000 7
G31  24851711.948 6 130596652.739 6      1738.471 6        39.000 6
G32  24293887.546 6 127665243.725 6      2833.591 6        39.000 6
> 2014 01 11 12 21 21.0000000  0 10      0.008519665000   
G01  22610477.471 7 118818894.067 7      2901.773 7        43.000 7
G04  21855933.291 7 114853776.637 7     -2673.255 7        47.000 7
G10  23306353.355 7 122475833.516 7     -2850.910 7        43.000 7
G11  25091934.816 6 131859014.434 6      3725.326 6        37.000 6
G13  21094624.364 7 110853079.224 7     -2359.297 7        46.000 7
G17  21654996.992 7 113797780.263 7      1170.978 7        46.000 7
G20  20987346.741 7 110289325.513 7      1694.809 7        45.000 7
G23  20506270.634 7 107761243.505 7       -34.303 7        46.000 7
G31  24852043.633 6 130598391.758 6      1739.200 6        39.000 6
G32  24294428.654 6 127668077.263 6      2833.622 6        39.000 6
> 2014 01 11 12 21 22.0000000  0 10      0.008578928000   
G01  22611029.952 7 118821794.378 7      2901.773 7        43.000 7
G04  21855423.310 7 114851101.670 7     -2673.008 7        47.000 7
G10  23305813.472 7 122472980.416 7     -2851.043 7        43.000 7
G11  25092645.325 6 131862738.181 6      3725.480 6        37.000 6
G13  21094174.708 7 110850718.266 7     -2358.948 7        46.000 7
G17  21655219.895 7 113798949.627 7      1170.773 7        46.000 7
G20  20987669.171 7 110291018.894 7      1695.240 7        45.000 7
G23  20506264.407 7 107761207.786 7       -33.821 7        46.000 7
G31  24852371.890 6 130600129.757 6      1739.877 6        39.000 6
G32  24294967.557 6 127670909.218 6      2833.130 6        39.000 6
> 2014 01 11 12 21 23.0000000  0 10      0.008638191000   
G01  22611581.714 7 118824694.906 7      2902.523 7        43.000 7
G04  21854915.266 7 114848426.883 7     -2672.505 7        47.000 7
G10  23305269.982 7 122470127.355 7     -2850.653 7        43.000 7
G11  25093358.289 6 131866461.836 6      3724.566 6        37.000 6
G13  21093724.357 7 110848357.657 7     -2358.897 7        46.000 7
G17  21655442.134 7 113800119.504 7      1171.994 7        46.000 7
G20  20987991.627 7 110292712.412 7      1695.425 7        45.000 7
G23  20506258.265 7 107761172.508 7       -33.359 7        46.000 7
G31  24852705.548 6 130601868.143 6      1740.041 6        39.000 6
G32  24295504.926 6 127673741.112 6      2833.694 6        39.000 6
> 2014 01 11 12 21 24.0000000  0 10      0.008697453000   
G01  22612135.933 7 118827597.349 7      2902.502 7        43.000 7
G04  21854406.070 7 114845754.036 7     -2672.372 7        47.000 7
G10  23304725.309 7 122467276.079 7     -2850.920 7        44.000 7
G11  25094064.353 6 131870187.226 6      3725.326 6        37.000 6
G13  21093277.087 7 110845999.238 7     -2357.357 7        46.000 7
G17  21655665.563 7 113801291.628 7      1172.549 7        46.000 7
G20  20988314.825 7 110294407.826 7      1695.979 7        45.000 7
G23  20506251.783 7 107761139.442 7       -32.640 7        46.000 7
G31  24853036.192 6 130603608.690 6      1740.657 6        39.000 6
G32  24296042.030 6 127676574.611 6      2833.448 6        39.000 6
> 2014 01 11 12 21 25.0000000  0 10      0.008756718000   
G01  22612686.277 7 118830495.422 7      2902.841 7        43.000 7
G04  21853897.567 7 114843076.838 7     -2672.002 7        47.000 7
G10  23304182.442 7 122464420.291 7     -2851.218 7        44.000 7
G11  25094771.996 6 131873907.915 6      3725.357 6        37.000 6
G13  21092827.873 7 110843636.602 7     -2357.757 7        46.000 7
G17  21655889.359 7 113802459.684 7      1172.969 7        46.000 7
G20  20988636.231 7 110296098.829 7      1696.246 7        45.000 7
G23  20506245.469 7 107761102.266 7       -32.096 7        46.000 7
G31  24853363.580 6 130605345.122 6      1741.170 6        39.000 6
G32  24296579.961 6 127679403.460 6      2833.222 6        39.000 6
> 2014 01 11 12 21 26.0000000  0 10      0.008815982000   
G01  22613238.302 7 118833395.337 7      2903.375 7        43.000 7
G04  21853389.033 7 114840401.471 7     -2671.561 7        47.000 7
G10  23303637.997 7 122461566.213 7     -2850.263 7        44.000 7
G11  25095480.512 6 131877630.193 6      3724.505 6        37.000 6
G13  21092378.863 7 110841276.036 7     -2356.587 7        46.000 7
G17  21656112.998 7 113803629.914 7      1174.191 7        46.000 7
G20  20988959.686 7 110297791.596 7      1696.287 7        45.000 7
G23  20506239.174 7 107761067.184 7       -31.214 7        46.000 7
G31  24853694.408 6 130607083.636 6      1742.340 6        39.000 6
G32  24297121.231 6 127682233.853 6      2834.002 6        39.000 6
> 2014 01 11 12 21 27.0000000  0 10      0.008875243000   
G01  22613792.998 7 118836300.284 7      2903.744 7        43.000 7
G04  21852880.883 7 114837731.128 7     -2671.530 7        47.000 7
G10  23303095.623 7 122458717.018 7     -2850.325 7        44.000 7
G11  25096189.370 6 131881357.267 6      3725.942 6        37.000 6
G13  21091930.655 7 110838920.689 7     -2356.331 7        46.000 7
G17  21656336.695 7 113804805.450 7      1174.335 7        46.000 7
G20  20989280.287 7 110299489.365 7      1696.420 7        45.000 7
G23  20506232.363 7 107761037.389 7       -30.967 7        46.000 7
G31  24854030.035 6 130608827.372 6      1742.535 6        38.000 6
G32  24297659.588 6 127685068.938 6      2833.407 6        39.000 6
> 2014 01 11 12 21 28.0000000  0 10      0.008934505000   
G01  22614345.727 7 118839203.891 7      2903.518 7        43.000 7
G04  21852372.300 7 114835059.503 7     -2671.068 7        47.000 7
G10  23302555.255 7 122455866.369 7     -2850.294 7        44.000 7
G11  25096899.447 6 131885082.748 6      3724.823 6        37.000 6
G13  21091481.284 7 110836564.228 7     -2355.961 7        46.000 7
G17  21656559.254 7 113805980.008 7      1174.766 7        46.000 7
G20  20989603.673 7 110301185.768 7      1696.513 7        45.000 7
G23  20506225.926 7 107761006.561 7       -30.382 7        46.000 7
G31  24854359.555 6 130610570.009 6      1742.710 6        39.000 6
G32  24298199.546 6 127687902.439 6      2833.520 6        39.000 6
> 2014 01 11 12 21 29.0000000  0 10      0.008993767000   
G01  22614898.124 7 118842107.760 7      2904.514 7        43.000 7
G04  21851863.952 7 114832388.120 7     -2670.648 7        47.000 7
G10  23302010.337 7 122453015.804 7     -2850.243 7        44.000 7
G11  25097608.369 6 131888808.157 6      3725.223 6        37.000 6
G13  21091032.951 7 110834208.220 7     -2355.079 7        46.000 7
G17  21656782.486 7 113807155.098 7      1175.648 7        46.000 7
G20  20989926.523 7 110302882.358 7      1697.057 7        45.000 7
G23  20506220.151 7 107760976.216 7       -29.469 7        46.000 7
G31  24854688.793 6 130612313.163 6      1743.859 6        39.000 6
G32  24298737.971 6 127690735.879 6      2833.848 6        39.000 6
> 2014 01 11 12 21 30.0000000  0 10      0.009053029000   
G01  22615449.472 7 118845012.113 7      2904.463 7        43.000 7
G04  21851355.331 7 114829717.298 7     -2670.001 7        47.000 7
G10  23301469.498 7 122450165.674 7     -2849.093 7        44.000 7
G11  25098315.074 6 131892533.916 6      3726.455 6        37.000 6
G13  21090585.136 7 110831852.939 7     -2354.760 7        46.000 7
G17  21657006.449 7 113808331.035 7      1176.244 7        46.000 7
G20  20990248.706 7 110304579.439 7      1697.159 7        45.000 7
G23  20506215.098 7 107760946.665 7       -29.356 7        46.000 7
G31  24855023.116 6 130614057.043 6      1744.372 6        38.000 6
G32  24299280.429 6 127693569.513 6      2833.242 6        39.000 6
> 2014 01 11 12 21 31.0000000  0 10      0.009112291000   
G01  22616002.576 7 118847916.692 7      2904.647 7        43.000 7
G04  21850845.986 7 114827046.668 7     -2670.073 7        47.000 7
G10  23300927.902 7 122447315.567 7     -2849.370 7        44.000 7
G11  25099027.272 6 131896259.540 6      3725.839 6        37.000 6
G13  21090136.637 7 110829498.060 7     -2354.011 7        46.000 7
G17  21657230.512 7 113809507.493 7      1176.767 7        46.000 7
G20  20990572.250 7 110306276.673 7      1697.231 7        45.000 7
G23  20506209.948 7 107760917.601 7       -28.802 7        46.000 7
G31  24855352.956 6 130615801.367 6      1744.547 6        38.000 6
G32  24299819.453 6 127696403.106 6      2833.674 6        39.000 6
> 2014 01 11 12 21 32.0000000  0 10      0.009171554000   
G01  22616554.270 7 118850819.866 7      2904.812 7        43.000 7
G04  21850338.473 7 114824374.670 7     -2670.001 7        47.000 7
G10  23300384.114 7 122444463.944 7     -2849.596 7        44.000 7
G11  25099735.169 6 131899983.566 6      3726.404 6        37.000 6
G13  21089687.910 7 110827141.981 7     -2353.611 7        46.000 7
G17  21657453.229 7 113810682.875 7      1177.547 7        46.000 7
G20  20990895.523 7 110307972.485 7      1698.001 7        45.000 7
G23  20506204.393 7 107760887.410 7       -28.073 7        46.000 7
G31  24855688.090 6 130617544.508 6      1745.183 6        38.000 6
G32  24300357.199 6 127699234.978 6      2833.479 6        39.000 6
> 2014 01 11 12 21 33.0000000  0 10      0.009230816000   
G01  22617108.040 7 118853724.944 7      2905.314 7        43.000 7
G04  21849830.945 7 114821704.595 7     -2669.416 7        47.000 7
G10  23299843.133 7 122441614.067 7     -2849.658 7        44.000 7
G11  25100444.122 6 131903709.141 6      3725.018 6        37.000 6
G13  21089239.966 7 110824788.019 7     -2353.170 7        46.000 7
G17  21657676.937 7 113811860.470 7      1178.132 7        46.000 7
G20  20991217.815 7 110309670.144 7      1697.909 7        45.000 7
G23  20506198.109 7 107760859.384 7       -27.334 7        46.000 7
G31  24856019.443 6 130619289.781 6      1745.224 6        38.000 6
G32  24300897.152 6 127702068.452 6      2833.386 6        39.000 6
> 2014 01 11 12 21 34.0000000  0 10      0.009290079000   
G01  22617659.502 7 118856628.897 7      2905.663 7        43.000 7
G04  21849322.821 7 114819033.382 7     -2669.118 7        47.000 7
G10  23299297.537 7 122438762.941 7     -2849.114 7        44.000 7
G11  25101150.163 6 131907433.406 6      3725.665 6        37.000 6
G13  21088791.461 7 110822433.111 7     -2352.769 7        46.000 7
G17  21657902.203 7 113813037.254 7      1178.851 7        46.000 7
G20  20991541.026 7 110311366.628 7      1698.216 7        45.000 7
G23  20506193.754 7 107760830.499 7       -26.852 7        46.000 7
G31  24856349.677 6 130621034.168 6      1745.891 6        38.000 6
G32  24301436.836 6 127704900.513 6      2833.099 6        39.000 6
> 2014 01 11 12 21 35.0000000  0 10      0.009349341000   
G01  22618212.832 7 118859534.666 7      2906.043 7        43.000 7
G04  21848814.476 7 114816364.012 7     -2668.790 7        47.000 7
G10  23298755.879 7 122435913.509 7     -2848.631 7        43.000 7
G11  25101859.548 6 131911159.253 6      3725.942 6        37.000 6
G13  21088344.487 7 110820080.246 7     -2352.636 7        46.000 7
G17  21658126.926 7 113814216.178 7      1179.425 7        46.000 7
G20  20991864.013 7 110313064.933 7      1699.171 7        45.000 7
G23  20506187.702 7 107760803.694 7       -26.421 7        46.000 7
G31  24856683.159 6 130622780.632 6      1746.559 6        38.000 6
G32  24301974.528 6 127707734.104 6      2833.479 6        39.000 6
> 2014 01 11 12 21 36.0000000  0 10      0.009408602000   
G01  22618763.659 7 118862442.281 7      2906.156 7        43.000 7
G04  21848306.484 7 114813696.496 7     -2668.698 7        47.000 7
G10  23298212.830 7 122433065.769 7     -2848.518 7        43.000 7
G11  25102572.469 6 131914886.678 6      3727.030 6        37.000 6
G13  21087897.338 7 110817729.464 7     -2351.517 7        46.000 7
G17  21658351.488 7 113815397.259 7      1179.887 7        46.000 7
G20  20992187.525 7 110314765.000 7      1698.699 7        45.000 7
G23  20506183.196 7 107760779.017 7       -25.743 7        46.000 7
G31  24857016.277 6 130624529.175 6      1746.969 6        38.000 6
G32  24302514.989 6 127710569.246 6      2833.335 6        39.000 6
> 2014 01 11 12 21 37.0000000  0 10      0.009467866000   
G01  22619317.434 7 118865345.389 7      2906.402 7        43.000 7
G04  21847799.155 7 114811024.464 7     -2668.636 7        47.000 7
G10  23297672.128 7 122430213.358 7     -2848.744 7        43.000 7
G11  25103279.324 6 131918609.223 6      3725.264 6        37.000 6
G13  21087449.171 7 110815374.328 7     -2351.394 7        46.000 7
G17  21658576.583 7 113816574.144 7      1180.462 7        46.000 7
G20  20992510.170 7 110316460.516 7      1698.494 7        45.000 7
G23  20506178.257 7 107760750.064 7       -25.589 7        46.000 7
G31  24857345.913 6 130626273.425 6      1747.852 6        38.000 6
G32  24303054.539 6 127713399.597 6      2833.776 6        39.000 6
> 2014 01 11 12 21 38.0000000  0 10      0.009527127000   
G01  22619871.005 7 118868253.424 7      2906.639 7        43.000 7
G04  21847291.245 7 114808357.380 7     -2668.071 7        47.000 7
G10  23297126.825 7 122427365.775 7     -2848.652 7        43.000 7
G11  25103986.710 6 131922336.563 6      3726.055 6        37.000 6
G13  21087002.557 7 110813024.358 7     -2350.912 7        46.000 7
G17  21658800.012 7 113817756.273 7      1180.903 7        46.000 7
G20  20992833.177 7 110318160.924 7      1698.884 7        45.000 7
G23  20506173.743 7 107760726.342 7       -24.840 7        46.000 7
G31  24857681.291 6 130628022.848 6      1748.026 6        38.000 6
G32  24303594.392 6 127716234.545 6      2833.201 6        39.000 6
> 2014 01 11 12 21 39.0000000  0 10      0.009586391000   
G01  22620423.351 7 118871157.023 7      2907.121 7        43.000 7
G04  21846783.633 8 114805685.861 8     -2667.651 8        48.000 8
G10  23296587.310 7 122424513.605 7     -2848.303 7        43.000 7
G11  25104696.037 6 131926059.104 6      3723.643 6        37.000 6
G13  21086553.801 7 110810670.127 7     -2350.234 7        46.000 7
G17  21659023.799 7 113818934.279 7      1181.642 7        46.000 7
G20  20993156.852 7 110319856.851 7      1699.335 7        45.000 7
G23  20506169.001 7 107760698.423 7       -24.204 7        46.000 7
G31  24858012.820 6 130629768.047 6      1748.447 6        38.000 6
G32  24304132.014 6 127719064.767 6      2833.335 6        39.000 6
> 2014 01 11 12 21 40.0000000  0 10      0.009645652000   
G01  22620977.228 7 118874065.663 7      2907.419 7        43.000 7
G04  21846274.891 8 114803019.403 8     -2667.486 8        48.000 8
G10  23296044.734 7 122421666.345 7     -2847.861 7        43.000 7
G11  25105405.723 6 131929786.529 6      3726.280 6        37.000 6
G13  21086105.289 7 110808321.184 7     -2349.690 7        46.000 7
G17  21659250.511 7 113820117.661 7      1182.515 7        46.000 7
G20  20993479.579 7 110321557.794 7      1699.735 7        45.000 7
G23  20506163.942 7 107760675.834 7       -23.670 7        46.000 7
G31  24858347.069 6 130631518.538 6      1749.484 6        38.000 6
G32  24304670.741 6 127721899.796 6      2834.310 6        39.000 6
> 2014 01 11 12 21 41.0000000  0 10      0.009704914000   
G01  22621528.762 7 118876972.997 7      2907.675 7        43.000 7
G04  21845766.853 8 114800351.649 8     -2666.994 8        48.000 8
G10  23295501.878 7 122418817.618 7     -2848.477 7        43.000 7
G11  25106112.631 6 131933512.351 6      3726.157 6        37.000 6
G13  21085657.891 7 110805971.088 7     -2349.208 7        46.000 7
G17  21659475.507 7 113821300.022 7      1182.946 7        46.000 7
G20  20993804.138 7 110323257.363 7      1700.167 7        45.000 7
G23  20506159.064 7 107760652.203 7       -23.208 7        46.000 7
G31  24858678.068 6 130633267.945 6      1749.679 6        38.000 6
G32  24305210.093 6 127724733.108 6      2833.253 6        39.000 6
> 2014 01 11 12 21 42.0000000  0 10      0.009764176000   
G01  22622084.946 7 118879880.763 7      2908.250 7        42.000 7
G04  21845260.039 8 114797684.319 8     -2666.686 8        48.000 8
G10  23294960.412 7 122415969.199 7     -2848.036 7        43.000 7
G11  25106822.802 6 131937238.326 6      3726.024 6        36.000 6
G13  21085210.807 7 110803621.650 7     -2348.869 7        46.000 7
G17  21659699.502 7 113822483.120 7      1183.613 7        46.000 7
G20  20994126.108 7 110324957.324 7      1700.095 7        45.000 7
G23  20506155.268 7 107760629.253 7       -22.582 7        46.000 7
G31  24859011.288 6 130635018.032 6      1751.095 6        38.000 6
G32  24305749.672 6 127727566.616 6      2833.663 6        39.000 6
> 2014 01 11 12 21 43.0000000  0 10      0.009823438000   
G01  22622636.013 7 118882788.641 7      2908.322 7        42.000 7
G04  21844751.919 8 114795017.130 8     -2666.758 8        48.000 8
G10  23294417.991 7 122413120.757 7     -2847.974 7        43.000 7
G11  25107533.901 6 131940964.181 6      3726.188 6        36.000 6
G13  21084764.741 7 110801272.553 7     -2348.120 7        46.000 7
G17  21659923.961 7 113823666.662 7      1184.188 7        46.000 7
G20  20994450.756 7 110326657.362 7      1700.300 7        45.000 7
G23  20506150.789 7 107760606.719 7       -22.130 7        46.000 7
G31  24859344.005 6 130636768.470 6      1751.732 6        38.000 6
G32  24306289.980 6 127730399.956 6      2833.622 6        39.000 6
> 2014 01 11 12 21 44.0000000  0 10      0.009882702000   
G01  22623189.771 7 118885693.659 7      2908.353 7        42.000 7
G04  21844245.161 8 114792347.099 8     -2666.470 8        48.000 8
G10  23293875.189 7 122410269.314 7     -2848.128 7        43.000 7
G11  25108246.303 6 131944686.878 6      3726.547 6        36.000 6
G13  21084317.594 7 110798920.780 7     -2348.233 7        46.000 7
G17  21660148.697 7 113824847.656 7      1184.496 7        46.000 7
G20  20994773.330 7 110328354.499 7      1700.351 7        45.000 7
G23  20506146.577 7 107760581.583 7       -21.371 7        46.000 7
G31  24859677.357 6 130638516.244 6      1751.537 6        38.000 6
G32  24306827.211 6 127733230.125 6      2833.591 6        39.000 6
> 2014 01 11 12 21 45.0000000  0 10      0.009941964000   
G01  22623742.677 7 118888602.196 7      2908.753 7        42.000 7
G04  21843737.176 8 114789680.620 8     -2665.947 8        48.000 8
G10  23293334.369 7 122407421.283 7     -2847.738 7        43.000 7
G11  25108952.098 6 131948412.856 6      3725.182 6        37.000 6
G13  21083870.400 7 110796572.761 7     -2347.155 7        46.000 7
G17  21660373.975 7 113826032.499 7      1185.204 7        46.000 7
G20  20995097.519 7 110330055.124 7      1700.834 7        45.000 7
G23  20506141.943 7 107760560.232 7       -20.888 7        46.000 7
G31  24860012.377 6 130640267.787 6      1752.070 6        38.000 6
G32  24307365.441 6 127736063.541 6      2833.838 6        39.000 6
> 2014 01 11 12 21 46.0000000  0 10      0.010001225000   
G01  22624297.461 7 118891512.607 7      2909.081 7        42.000 7
G04  21843229.167 8 114787016.018 8     -2665.567 8        48.000 8
G10  23292791.596 7 122404574.993 7     -2846.989 7        43.000 7
G11  25109662.959 6 131952140.457 6      3725.942 6        37.000 6
G13  21083424.359 7 110794226.802 7     -2346.621 7        46.000 7
G17  21660599.097 7 113827219.524 7      1185.892 7        46.000 7
G20  20995420.723 7 110331757.572 7      1701.059 7        45.000 7
G23  20506137.147 7 107760541.025 7       -20.067 7        46.000 7
G31  24860346.085 6 130642021.436 6      1752.378 6        38.000 6
G32  24307905.867 6 127738898.496 6      2833.468 6        39.000 6
> 2014 01 11 12 21 47.0000000  0 10      0.010060488000   
G01  22624849.802 7 118894420.178 7      2909.369 7        42.000 7
G04  21842721.952 8 114784348.582 8     -2665.300 8        48.000 8
G10  23292249.772 7 122401725.688 7     -2847.348 7        43.000 7
G11  25110372.652 6 131955864.917 6      3726.013 6        37.000 6
G13  21082977.440 7 110791878.224 7     -2346.211 7        46.000 7
G17  21660824.310 7 113828404.027 7      1186.743 7        46.000 7
G20  20995743.758 7 110333457.133 7      1701.152 7        45.000 7
G23  20506135.855 7 107760519.237 7       -19.554 7        46.000 7
G31  24860679.488 6 130643772.479 6      1753.189 6        38.000 6
G32  24308444.180 6 127741730.354 6      2833.530 6        39.000 6
> 2014 01 11 12 21 48.0000000  0 10      0.010119749000   
G01  22625403.535 7 118897331.064 7      2909.420 7        42.000 7
G04  21842214.992 8 114781684.492 8     -2665.321 8        48.000 8
G10  23291708.177 7 122398879.585 7     -2847.646 7        43.000 7
G11  25111079.889 6 131959592.470 6      3725.665 6        37.000 6
G13  21082530.808 7 110789533.158 7     -2346.026 7        46.000 7
G17  21661049.452 7 113829592.154 7      1186.908 7        46.000 7
G20  20996068.183 7 110335159.996 7      1701.634 7        45.000 7
G23  20506131.251 7 107760501.044 7       -19.390 7        46.000 7
G31  24861013.752 6 130645527.048 6      1753.240 6        39.000 6
G32  24308981.925 6 127744565.218 6      2833.581 6        39.000 6
> 2014 01 11 12 21 49.0000000  0 10      0.010179012000   
G01  22625958.243 7 118900239.076 7      2909.820 7        42.000 7
G04  21841708.053 8 114779017.508 8     -2664.767 8        48.000 8
G10  23291166.387 7 122396030.462 7     -2847.215 7        43.000 7
G11  25111789.381 6 131963316.879 6      3725.387 6        36.000 6
G13  21082082.334 7 110787185.409 7     -2345.677 7        46.000 7
G17  21661276.579 7 113830777.717 7      1187.647 7        46.000 7
G20  20996391.666 7 110336859.913 7      1702.117 7        45.000 7
G23  20506127.290 7 107760480.230 7       -18.856 7        46.000 7
G31  24861346.369 6 130647278.967 6      1753.600 6        39.000 6
G32  24309520.202 6 127747396.884 6      2833.037 6        39.000 6
> 2014 01 11 12 21 50.0000000  0 10      0.010238273000   
G01  22626510.553 7 118903150.482 7      2910.077 7        42.000 7
G04  21841201.384 8 114776353.943 8     -2664.849 8        48.000 8
G10  23290625.790 7 122393184.605 7     -2847.348 7        43.000 7
G11  25112500.420 6 131967044.412 6      3725.264 6        36.000 6
G13  21081636.831 7 110784841.277 7     -2344.548 7        46.000 7
G17  21661504.411 7 113831966.984 7      1188.180 7        46.000 7
G20  20996715.597 7 110338563.179 7      1701.696 7        45.000 7
G23  20506122.698 7 107760463.097 7       -18.199 7        46.000 7
G31  24861679.881 6 130649034.580 6      1755.057 6        39.000 6
G32  24310058.311 6 127750231.669 6      2833.068 6        39.000 6
> 2014 01 11 12 21 51.0000000  0 10      0.010297536000   
G01  22627063.861 7 118906059.137 7      2910.282 7        42.000 7
G04  21840693.817 8 114773687.665 8     -2664.243 8        48.000 8
G10  23290081.790 7 122390335.866 7     -2846.958 7        43.000 7
G11  25113207.083 6 131970768.951 6      3725.603 6        36.000 6
G13  21081190.846 7 110782494.608 7     -2344.353 7        46.000 7
G17  21661731.403 7 113833153.833 7      1188.858 7        46.000 7
G20  20997039.190 7 110340263.675 7      1702.537 7        45.000 7
G23  20506118.965 7 107760443.479 7       -17.686 7        46.000 7
G31  24862014.420 6 130650787.599 6      1754.636 6        39.000 6
G32  24310599.269 6 127753063.421 6      2833.160 6        39.000 6
> 2014 01 11 12 21 52.0000000  0 10      0.010356799000   
G01  22627618.562 7 118908968.113 7      2910.970 7        42.000 7
G04  21840186.687 8 114771021.676 8     -2663.740 8        48.000 8
G10  23289541.627 7 122387487.291 7     -2846.702 7        43.000 7
G11  25113912.428 6 131974493.566 6      3726.763 6        36.000 6
G13  21080744.573 7 110780148.429 7     -2344.404 7        46.000 7
G17  21661954.513 7 113834341.285 7      1189.340 7        46.000 7
G20  20997362.257 7 110341964.402 7      1702.732 7        45.000 7
G23  20506115.148 7 107760424.422 7       -16.937 7        46.000 7
G31  24862346.216 6 130652541.197 6      1755.642 6        39.000 6
G32  24311140.420 6 127755895.187 6      2833.479 6        39.000 6
> 2014 01 11 12 21 53.0000000  0 10      0.010416059000   
G01  22628172.682 7 118911882.031 7      2911.124 7        42.000 7
G04  21839679.935 8 114768360.676 8     -2663.730 8        48.000 8
G10  23288998.768 7 122384643.545 7     -2846.886 7        44.000 7
G11  25114623.224 6 131978222.824 6      3725.685 6        36.000 6
G13  21080299.478 7 110777807.440 7     -2343.306 7        46.000 7
G17  21662181.485 7 113835534.029 7      1189.874 7        46.000 7
G20  20997686.266 7 110343670.083 7      1703.102 7        45.000 7
G23  20506112.330 7 107760410.615 7       -16.403 7        46.000 7
G31  24862682.042 6 130654299.974 6      1755.847 6        39.000 6
G32  24311677.892 6 127758731.623 6      2833.253 6        39.000 6
> 2014 01 11 12 21 54.0000000  0 10      0.010475323000   
G01  22628727.774 7 118914790.061 7      2911.247 7        42.000 7
G04  21839172.256 8 114765693.804 8     -2663.104 8        48.000 8
G10  23288456.672 7 122381793.814 7     -2846.209 7        44.000 7
G11  25115334.759 6 131981945.963 6      3726.640 6        36.000 6
G13  21079851.782 7 110775460.780 7     -2342.998 7        46.000 7
G17  21662406.635 7 113836721.201 7      1190.674 7        46.000 7
G20  20998009.145 7 110345369.821 7      1703.133 7        45.000 7
G23  20506109.394 7 107760391.185 7       -15.808 7        46.000 7
G31  24863018.130 6 130656053.131 6      1756.874 6        39.000 6
G32  24312217.422 6 127761561.874 6      2833.520 6        39.000 6
> 2014 01 11 12 21 55.0000000  0 10      0.010534584000   
G01  22629281.726 7 118917703.099 7      2912.006 7        42.000 7
G04  21838665.527 8 114763031.925 8     -2662.847 8        48.000 8
G10  23287914.540 7 122378948.892 7     -2846.178 7        44.000 7
G11  25116041.103 6 131985673.828 6      3726.496 6        36.000 6
G13  21079405.259 7 110773119.285 7     -2342.701 7        46.000 7
G17  21662633.936 7 113837913.677 7      1191.229 7        46.000 7
G20  20998335.247 7 110347074.501 7      1703.379 7        45.000 7
G23  20506107.647 7 107760377.003 7       -15.171 7        46.000 7
G31  24863349.115 6 130657811.467 6      1757.182 6        39.000 6
G32  24312754.800 6 127764396.811 6      2833.509 6        39.000 6
> 2014 01 11 12 21 56.0000000  0 10      0.010593847000   
G01  22629835.305 7 118920613.175 7      2911.965 7        42.000 7
G04  21838158.241 8 114760367.123 8     -2662.591 8        48.000 8
G10  23287373.539 7 122376100.909 7     -2845.993 7        44.000 7
G11  25116750.839 6 131989398.513 6      3725.634 6        36.000 6
G13  21078961.073 7 110770775.075 7     -2341.900 7        46.000 7
G17  21662860.167 7 113839103.528 7      1191.855 7        46.000 7
G20  20998658.690 7 110348776.206 7      1703.595 7        45.000 7
G23  20506104.058 7 107760360.146 7       -14.771 7        46.000 7
G31  24863685.862 6 130659567.083 6      1757.212 6        39.000 6
G32  24313294.227 6 127767228.523 6      2833.253 6        39.000 6
> 2014 01 11 12 21 57.0000000  0 10      0.010653109000   
G01  22630388.134 7 118923525.312 7      2912.489 7        42.000 7
G04  21837651.541 8 114757704.394 8     -2662.242 8        48.000 8
G10  23286832.902 7 122373254.846 7     -2845.552 7        44.000 7
G11  25117462.240 6 131993124.953 6      3726.640 6        36.000 6
G13  21078514.654 7 110768433.127 7     -2341.233 7        46.000 7
G17  21663087.801 7 113840295.751 7      1192.902 7        46.000 7
G20  20998983.469 7 110350479.931 7      1704.149 7        45.000 7
G23  20506099.772 7 107760345.621 7       -13.796 7        46.000 7
G31  24864020.388 6 130661325.027 6      1757.962 6        39.000 6
G32  24313832.089 6 127770062.003 6      2833.940 6        39.000 6
> 2014 01 11 12 21 58.0000000  0 10      0.010712372000   
G01  22630943.371 7 118926436.102 7      2912.376 7        42.000 7
G04  21837144.779 8 114755040.340 8     -2661.965 8        48.000 8
G10  23286291.415 7 122370407.310 7     -2845.429 7        44.000 7
G11  25118165.921 6 131996849.823 6      3726.876 6        36.000 6
G13  21078069.159 7 110766090.033 7     -2340.443 7        46.000 7
G17  21663314.477 7 113841486.942 7      1193.230 7        46.000 7
G20  20999307.223 7 110352182.268 7      1704.282 7        45.000 7
G23  20506097.944 7 107760330.017 7       -13.457 7        46.000 7
G31  24864353.560 6 130663081.859 6      1758.639 6        39.000 6
G32  24314371.349 6 127772893.834 6      2833.530 6        39.000 6
> 2014 01 11 12 21 59.0000000  0 10      0.010771635000   
G01  22631498.111 7 118929347.281 7      2913.125 7        42.000 7
G04  21836638.280 8 114752376.672 8     -2661.657 8        48.000 8
G10  23285749.597 7 122367560.038 7     -2845.142 7        44.000 7
G11  25118873.238 6 132000574.798 6      3726.383 6        36.000 6
G13  21077623.015 7 110763747.533 7     -2340.227 7        46.000 7
G17  21663540.713 7 113842678.823 7      1193.846 7        46.000 7
G20  20999633.323 7 110353884.936 7      1704.631 7        45.000 7
G23  20506094.908 7 107760315.058 7       -13.108 7        46.000 7
G31  24864685.887 6 130664839.248 6      1758.844 6        39.000 6
G32  24314910.430 6 127775725.725 6      2833.479 6        39.000 6
> 2014 01 11 12 22  0.0000000  0 10      0.010830899000   
G01  22632050.294 7 118932257.020 7      2913.310 7        42.000 7
G04  21836131.892 8 114749711.583 8     -2661.308 8        48.000 8
G10  23285207.097 7 122364711.179 7     -2844.967 7        44.000 7
G11  25119588.597 6 132004298.036 6      3725.552 6        36.000 6
G13  21077179.684 7 110761403.811 7     -2339.724 7        46.000 7
G17  21663768.639 7 113843869.582 7      1194.328 7        46.000 7
G20  20999955.525 7 110355586.119 7      1704.385 7        45.000 7
G23  20506091.840 7 107760298.939 7       -12.308 7        46.000 7
G31  24865021.609 6 130666595.482 6      1760.138 6        39.000 6
G32  24315451.661 6 127778555.915 6      2833.817 6        39.000 6
> 2014 01 11 12 22  1.0000000  0 10      0.010890160000   
G01  22632605.906 7 118935171.779 7      2913.628 7        42.000 7
G04  21835624.557 8 114747051.524 8     -2661.205 8        48.000 8
G10  23284666.665 7 122361867.194 7     -2845.213 7        44.000 7
G11  25120298.404 6 132008026.097 6      3726.516 6        36.000 6
G13  21076733.729 7 110759065.302 7     -2339.108 7        46.000 7
G17  21663995.297 7 113845065.676 7      1194.749 7        46.000 7
G20  21000281.153 7 110357292.305 7      1704.857 7        45.000 7
G23  20506090.157 7 107760288.095 7       -12.062 7        46.000 7
G31  24865355.281 6 130668356.940 6      1759.830 6        39.000 6
G32  24315989.979 6 127781390.792 6      2833.417 6        39.000 6
> 2014 01 11 12 22  2.0000000  0 10      0.010949423000   
G01  22633158.313 7 118938083.699 7      2913.608 7        42.000 7
G04  21835118.018 8 114744388.640 8     -2660.774 8        48.000 8
G10  23284124.907 7 122359020.232 7     -2845.131 7        44.000 7
G11  25121002.288 6 132011751.028 6      3726.065 6        36.000 6
G13  21076287.847 7 110756724.174 7     -2338.616 7        46.000 7
G17  21664222.238 7 113846259.258 7      1195.580 7        46.000 7
G20  21000605.276 7 110358995.585 7      1704.683 7        45.000 7
G23  20506088.179 7 107760274.701 7       -11.456 7        46.000 7
G31  24865691.505 6 130670115.808 6      1761.195 6        39.000 6
G32  24316529.986 6 127784222.552 6      2833.253 6        39.000 6
> 2014 01 11 12 22  3.0000000  0 10      0.011008684000   
G01  22633713.053 7 118940998.876 7      2913.628 7        42.000 7
G04  21834611.337 8 114741729.016 8     -2660.805 8        48.000 8
G10  23283584.125 7 122356176.407 7     -2844.854 7        44.000 7
G11  25121712.074 6 132015478.982 6      3725.911 6        36.000 6
G13  21075843.192 7 110754386.501 7     -2338.657 7        46.000 7
G17  21664450.238 7 113847456.409 7      1196.258 7        46.000 7
G20  21000929.443 7 110360702.091 7      1705.042 7        45.000 7
G23  20506085.725 7 107760264.804 7       -11.251 7        46.000 7
G31  24866025.730 6 130671878.173 6      1761.338 6        39.000 6
G32  24317068.850 6 127787057.299 6      2833.376 6        39.000 6
> 2014 01 11 12 22  4.0000000  0 10      0.011067947000   
G01  22634268.200 7 118943911.194 7      2914.111 7        42.000 7
G04  21834104.119 8 114739066.568 8     -2660.425 8        48.000 8
G10  23283042.204 7 122353329.591 7     -2844.772 7        44.000 7
G11  25122427.729 6 132019203.776 6      3726.147 6        36.000 6
G13  21075397.845 7 110752046.187 7     -2338.400 7        46.000 7
G17  21664676.992 7 113848651.009 7      1196.638 7        46.000 7
G20  21001253.441 7 110362405.715 7      1705.678 7        45.000 7
G23  20506084.308 7 107760252.359 7       -10.173 7        46.000 7
G31  24866361.737 6 130673637.900 6      1761.852 6        39.000 6
G32  24317606.922 6 127789888.886 6      2833.571 6        39.000 6
> 2014 01 11 12 22  5.0000000  0 10      0.011127211000   
G01  22634823.680 7 118946822.262 7      2914.152 7        42.000 7
G04  21833597.237 8 114736402.881 8     -2660.168 8        48.000 8
G10  23282500.776 7 122350481.370 7     -2844.618 7        44.000 7
G11  25123133.203 6 132022927.064 6      3726.783 6        36.000 6
G13  21074952.112 7 110749704.840 7     -2337.887 7        46.000 7
G17  21664904.900 7 113849844.673 7      1197.243 7        46.000 7
G20  21001577.762 7 110364108.032 7      1705.524 7        45.000 7
G23  20506081.174 7 107760238.889 7       -10.081 7        46.000 7
G31  24866698.309 6 130675396.598 6      1762.344 6        39.000 6
G32  24318146.409 6 127792718.911 6      2833.027 6        39.000 6
> 2014 01 11 12 22  6.0000000  0 10      0.011186473000   
G01  22635378.091 7 118949736.709 7      2914.634 7        42.000 7
G04  21833092.333 8 114733742.594 8     -2659.778 8        48.000 8
G10  23281958.259 7 122347636.422 7     -2844.259 7        44.000 7
G11  25123839.271 6 132026653.474 6      3725.757 6        36.000 6
G13  21074507.438 7 110747367.063 7     -2337.251 7        46.000 7
G17  21665133.512 7 113851042.039 7      1197.736 7        46.000 7
G20  21001902.336 7 110365813.681 7      1705.812 7        45.000 7
G23  20506078.550 7 107760229.100 7        -9.023 7        46.000 7
G31  24867034.237 6 130677158.915 6      1762.252 6        39.000 6
G32  24318685.341 6 127795552.016 6      2832.863 6        39.000 6
> 2014 01 11 12 22  7.0000000  0 10      0.011245733000   
G01  22635933.521 7 118952654.516 7      2914.993 7        42.000 7
G04  21832585.786 8 114731085.671 8     -2659.624 8        48.000 8
G10  23281416.537 7 122344794.653 7     -2844.495 7        44.000 7
G11  25124552.027 6 132030383.033 6      3726.752 6        36.000 6
G13  21074062.113 7 110745032.863 7     -2336.163 7        46.000 7
G17  21665362.062 7 113852243.073 7      1198.413 7        46.000 7
G20  21002227.734 7 110367522.656 7      1706.191 7        45.000 7
G23  20506077.941 7 107760222.900 7        -8.931 7        46.000 7
G31  24867369.516 6 130678924.817 6      1763.155 6        40.000 6
G32  24319222.006 6 127798388.211 6      2832.955 6        39.000 6
> 2014 01 11 12 22  8.0000000  0 10      0.011304996000   
G01  22636487.727 7 118955567.886 7      2914.891 7        42.000 7
G04  21832079.734 8 114728424.352 8     -2659.378 8        48.000 8
G10  23280875.479 7 122341948.376 7     -2844.310 7        44.000 7
G11  25125261.026 6 132034107.849 6      3725.921 6        36.000 6
G13  21073617.316 7 110742694.444 7     -2336.450 7        46.000 7
G17  21665590.591 7 113853440.001 7      1198.865 7        46.000 7
G20  21002551.331 7 110369227.169 7      1706.150 7        45.000 7
G23  20506076.167 7 107760212.577 7        -8.449 7        46.000 7
G31  24867704.573 6 130680686.551 6      1763.442 6        40.000 6
G32  24319762.533 6 127801219.697 6      2832.770 6        39.000 6
> 2014 01 11 12 22  9.0000000  0 10      0.011364258000   
G01  22637043.047 7 118958483.114 7      2915.465 7        42.000 7
G04  21831574.036 8 114725764.892 8     -2659.029 8        48.000 8
G10  23280332.076 7 122339103.770 7     -2844.474 7        44.000 7
G11  25125968.801 6 132037834.234 6      3726.003 6        36.000 6
G13  21073173.672 7 110740358.075 7     -2335.465 7        46.000 7
G17  21665818.959 7 113854639.086 7      1199.645 7        46.000 7
G20  21002875.839 7 110370933.470 7      1706.386 7        45.000 7
G23  20506074.222 7 107760204.353 7        -7.761 7        46.000 7
G31  24868040.019 6 130682450.331 6      1764.366 6        40.000 6
G32  24320302.019 6 127804052.719 6      2833.181 6        39.000 6
> 2014 01 11 12 22 10.0000000  0 10      0.011423518000   
G01  22637595.792 7 118961401.806 7      2915.681 7        42.000 7
G04  21831067.669 8 114723108.915 8     -2658.680 8        48.000 8
G10  23279792.354 7 122336262.516 7     -2844.392 7        44.000 7
G11  25126677.391 6 132041563.899 6      3726.814 6        36.000 6
G13  21072728.827 7 110738025.399 7     -2334.880 7        46.000 7
G17  21666048.048 7 113855841.956 7      1200.487 7        46.000 7
G20  21003201.002 7 110372643.217 7      1706.725 7        45.000 7
G23  20506073.938 7 107760199.860 7        -7.135 7        46.000 7
G31  24868375.409 6 130684217.819 6      1764.982 6        40.000 6
G32  24320841.347 6 127806888.904 6      2833.232 6        39.000 6
> 2014 01 11 12 22 11.0000000  0 10      0.011482782000   
G01  22638151.380 7 118964314.443 7      2916.020 7        42.000 7
G04  21830560.916 8 114720446.907 8     -2658.424 8        48.000 8
G10  23279250.319 7 122333415.100 7     -2843.684 7        43.000 7
G11  25127388.955 6 132045287.191 6      3726.280 6        36.000 6
G13  21072284.199 7 110735686.863 7     -2334.890 7        46.000 7
G17  21666276.233 7 113857039.075 7      1200.620 7        46.000 7
G20  21003526.525 7 110374346.847 7      1706.838 7        45.000 7
G23  20506070.653 7 107760189.601 7        -6.673 7        45.000 7
G31  24868710.832 6 130685979.477 6      1764.715 6        39.000 6
G32  24321380.606 6 127809718.729 6      2832.945 6        39.000 6
> 2014 01 11 12 22 12.0000000  0 10      0.011542044000   
G01  22638704.765 7 118967230.503 7      2916.153 7        42.000 7
G04  21830055.576 8 114717788.330 8     -2657.982 8        48.000 8
G10  23278709.664 7 122330570.940 7     -2843.746 7        43.000 7
G11  25128098.456 6 132049013.644 6      3725.880 6        36.000 6
G13  21071841.027 7 110733351.978 7     -2334.120 7        46.000 7
G17  21666504.179 7 113858239.939 7      1201.226 7        46.000 7
G20  21003850.027 7 110376053.866 7      1706.715 7        45.000 7
G23  20506070.733 7 107760183.018 7        -6.016 7        45.000 7
G31  24869047.144 6 130687744.811 6      1765.680 6        39.000 6
G32  24321920.275 6 127812551.710 6      2833.222 6        39.000 6
> 2014 01 11 12 22 13.0000000  0 10      0.011601304000   
G01  22639260.515 7 118970149.986 7      2917.512 7        42.000 7
G04  21829550.887 8 114715133.172 8     -2657.259 8        48.000 8
G10  23278167.351 7 122327730.063 7     -2843.249 7        43.000 7
G11  25128806.280 6 132052743.287 6      3727.208 6        36.000 6
G13  21071396.257 7 110731020.696 7     -2333.028 7        46.000 7
G17  21666733.402 7 113859444.518 7      1202.492 7        46.000 7
G20  21004175.315 7 110377764.263 7      1708.587 7        45.000 7
G23  20506069.230 7 107760180.121 7        -4.575 7        45.000 7
G31  24869384.149 6 130689513.785 6      1767.142 6        39.000 6
G32  24322458.440 6 127815387.783 6      2833.616 6        39.000 6
> 2014 01 11 12 22 14.0000000  0 10      0.011660565000   
G01  22639813.721 7 118973068.101 7      2916.974 7        42.000 7
G04  21829043.663 8 114712476.689 8     -2657.366 8        48.000 8
G10  23277627.040 7 122324887.711 7     -2843.263 7        43.000 7
G11  25129516.079 6 132056471.303 6      3727.173 6        37.000 6
G13  21070951.839 7 110728688.265 7     -2333.443 7        46.000 7
G17  21666962.809 7 113860648.055 7      1202.478 7        46.000 7
G20  21004500.521 7 110379473.235 7      1707.875 7        45.000 7
G23  20506069.037 7 107760176.107 7        -4.969 7        45.000 7
G31  24869719.037 6 130691281.629 6      1767.035 6        39.000 6
G32  24323000.288 6 127818222.214 6      2833.232 6        39.000 6
> 2014 01 11 12 22 15.0000000  0 10      0.011719828000   
G01  22640369.999 7 118975983.365 7      2917.820 7        42.000 7
G04  21828538.563 8 114709817.371 8     -2656.243 8        48.000 8
G10  23277084.252 7 122322042.343 7     -2842.684 7        43.000 7
G11  25130225.853 6 132060196.191 6      3727.414 6        37.000 6
G13  21070508.824 7 110726353.206 7     -2331.991 7        46.000 7
G17  21667189.641 7 113861849.066 7      1203.868 7        46.000 7
G20  21004826.133 7 110381179.338 7      1708.823 7        45.000 7
G23  20506066.836 7 107760169.540 7        -3.477 7        45.000 7
G31  24870053.804 6 130693046.844 6      1768.055 6        39.000 6
G32  24323539.821 6 127821053.480 6      2833.308 6        39.000 6
> 2014 01 11 12 22 16.0000000  0 10      0.011779090000   
G01  22640925.499 7 118978900.537 7      2917.159 7        42.000 7
G04  21828032.685 8 114707159.963 8     -2657.017 8        48.000 8
G10  23276543.903 7 122319198.791 7     -2843.202 7        43.000 7
G11  25130934.030 6 132063922.689 6      3726.352 6        37.000 6
G13  21070063.357 7 110724020.263 7     -2332.180 7        46.000 7
G17  21667418.986 7 113863052.286 7      1203.401 7        46.000 7
G20  21005150.002 7 110382887.278 7      1707.731 7        45.000 7
G23  20506066.566 7 107760165.124 7        -4.158 7        45.000 7
G31  24870392.030 6 130694814.236 6      1768.092 6        39.000 6
G32  24324077.770 6 127823886.420 6      2833.089 6        39.000 6
> 2014 01 11 12 22 17.0000000  0 10      0.011838352000   
G01  22641481.238 7 118981817.963 7      2918.415 7        42.000 7
G04  21827527.813 8 114704502.844 8     -2655.617 8        48.000 8
G10  23276002.241 7 122316355.336 7     -2841.832 7        43.000 7
G11  25131640.312 6 132067649.223 6      3726.685 6        37.000 6
G13  21069619.692 7 110721687.786 7     -2330.934 7        46.000 7
G17  21667648.634 7 113864256.094 7      1205.387 7        46.000 7
G20  21005476.202 7 110384595.473 7      1709.398 7        45.000 7
G23  20506065.260 7 107760161.258 7        -2.584 7        45.000 7
G31  24870728.816 6 130696582.054 6      1769.112 6        39.000 6
G32  24324617.034 6 127826719.272 6      2833.606 6        39.000 6
> 2014 01 11 12 22 18.0000000  0 10      0.011897614000   
G01  22642037.416 7 118984735.702 7      2917.908 7        42.000 7
G04  21827020.906 8 114701846.029 8     -2656.648 8        48.000 8
G10  23275460.608 7 122313512.037 7     -2843.058 7        43.000 7
G11  25132353.260 6 132071375.794 6      3725.808 6        37.000 6
G13  21069175.935 7 110719355.829 7     -2331.544 7        46.000 7
G17  21667878.590 7 113865460.520 7      1205.003 7        46.000 7
G20  21005799.977 7 110386303.922 7      1708.798 7        45.000 7
G23  20506064.825 7 107760157.971 7        -2.845 7        45.000 7
G31  24871065.711 6 130698350.452 6      1768.769 6        39.000 6
G32  24325155.541 6 127829552.148 6      2833.160 6        39.000 6
> 2014 01 11 12 22 19.0000000  0 10      0.011956875000   
G01  22642592.205 7 118987655.138 7      2918.980 7        42.000 7
G04  21826515.851 8 114699190.950 8     -2655.063 8        48.000 8
G10  23274921.182 7 122310670.332 7     -2842.089 7        43.000 7
G11  25133061.541 6 132075103.832 6      3727.404 6        37.000 6
G13  21068732.730 7 110717025.770 7     -2329.887 7        46.000 7
G17  21668107.974 7 113866666.942 7      1206.054 7        46.000 7
G20  21006125.965 7 110388014.001 7      1709.388 7        45.000 7
G23  20506064.762 7 107760156.641 7        -1.455 7        45.000 7
G31  24871399.931 6 130700120.787 6      1770.344 6        38.000 6
G32  24325693.744 6 127832386.423 6      2833.914 6        39.000 6
> 2014 01 11 12 22 20.0000000  0 10      0.012016138000   
G01  22643147.259 7 118990571.964 7      2918.503 7        42.000 7
G04  21826010.495 8 114696533.285 8     -2655.704 8        48.000 8
G10  23274380.665 7 122307825.895 7     -2842.463 7        43.000 7
G11  25133769.271 6 132078828.978 6      3726.332 6        37.000 6
G13  21068288.313 7 110714693.341 7     -2330.302 7        46.000 7
G17  21668337.119 7 113867871.105 7      1206.039 7        46.000 7
G20  21006450.885 7 110389721.465 7      1709.014 7        45.000 7
G23  20506064.449 7 107760152.995 7        -1.531 7        45.000 7
G31  24871737.499 6 130701888.722 6      1769.837 6        38.000 6
G32  24326232.350 6 127835217.816 6      2833.171 6        39.000 6
> 2014 01 11 12 22 21.0000000  0 10      0.012075401000   
G01  22643704.087 7 118993489.117 7      2918.709 7        42.000 7
G04  21825505.203 8 114693875.960 8     -2655.478 8        48.000 8
G10  23273839.037 7 122304981.622 7     -2842.278 7        43.000 7
G11  25134477.970 6 132082554.217 6      3725.829 6        37.000 6
G13  21067844.186 7 110712361.437 7     -2329.347 7        46.000 7
G17  21668566.762 7 113869075.887 7      1206.737 7        46.000 7
G20  21006775.858 7 110391429.208 7      1709.219 7        45.000 7
G23  20506063.484 7 107760149.927 7        -0.925 7        45.000 7
G31  24872074.415 6 130703657.225 6      1770.052 6        38.000 6
G32  24326772.860 6 127838049.216 6      2832.822 6        39.000 6
> 2014 01 11 12 22 22.0000000  0 10      0.012134664000   
G01  22644256.610 7 118996406.642 7      2919.109 7        42.000 7
G04  21824999.989 8 114691219.039 8     -2655.006 8        48.000 8
G10  23273299.363 7 122302137.615 7     -2841.765 7        43.000 7
G11  25135188.974 6 132086279.569 6      3727.101 6        37.000 6
G13  21067400.171 7 110710030.124 7     -2329.501 7        46.000 7
G17  21668797.300 7 113870281.374 7      1207.322 7        46.000 7
G20  21007101.276 7 110393137.292 7      1709.743 7        45.000 7
G23  20506063.022 7 107760147.496 7        -0.597 7        45.000 7
G31  24872413.163 6 130705426.358 6      1771.089 6        38.000 6
G32  24327310.730 6 127840880.741 6      2833.273 6        39.000 6
> 2014 01 11 12 22 23.0000000  0 10      0.012193926000   
G01  22644813.668 7 118999326.000 7      2919.550 7        42.000 7
G04  21824495.121 8 114688563.941 8     -2654.657 8        48.000 8
G10  23272760.006 7 122299295.274 7     -2842.001 7        43.000 7
G11  25135898.931 6 132090006.421 6      3726.917 6        37.000 6
G13  21066958.063 7 110707700.829 7     -2328.783 7        45.000 7
G17  21669026.338 7 113871488.975 7      1208.020 7        46.000 7
G20  21007426.650 7 110394847.143 7      1710.338 7        45.000 7
G23  20506062.196 7 107760147.156 7        -0.074 7        45.000 7
G31  24872749.255 6 130707197.533 6      1771.561 6        38.000 6
G32  24327848.882 6 127843713.747 6      2833.037 6        38.000 6
> 2014 01 11 12 22 24.0000000  0 10      0.012253187000   
G01  22645369.951 7 119002247.288 7      2920.022 7        42.000 7
G04  21823989.674 8 114685910.799 8     -2654.031 8        48.000 8
G10  23272217.186 7 122296454.739 7     -2841.744 7        43.000 7
G11  25136608.455 6 132093734.993 6      3727.409 6        37.000 6
G13  21066514.841 7 110705373.684 7     -2327.839 7        45.000 7
G17  21669256.377 7 113872698.840 7      1208.954 7        46.000 7
G20  21007752.194 7 110396558.892 7      1710.276 7        45.000 7
G23  20506064.072 7 107760149.014 7         0.799 7        45.000 7
G31  24873084.426 6 130708970.869 6      1772.033 6        38.000 6
G32  24328386.395 6 127846548.398 6      2832.986 6        38.000 6
> 2014 01 11 12 22 25.0000000  0 10      0.012312449000   
G01  22645925.415 7 119005167.274 7      2919.889 7        42.000 7
G04  21823484.552 8 114683256.365 8     -2653.959 8        48.000 8
G10  23271675.430 7 122293612.792 7     -2841.498 7        43.000 7
G11  25137316.348 6 132097461.996 6      3726.465 6        37.000 6
G13  21066071.984 7 110703045.452 7     -2327.213 7        45.000 7
G17  21669486.419 7 113873907.721 7      1209.334 7        46.000 7
G20  21008077.865 7 110398269.305 7      1710.287 7        45.000 7
G23  20506063.662 7 107760149.860 7         1.404 7        45.000 7
G31  24873425.303 6 130710743.193 6      1772.464 6        38.000 6
G32  24328926.464 6 127849381.482 6      2833.119 6        38.000 6
> 2014 01 11 12 22 26.0000000  0 10      0.012371710000   
G01  22646479.711 7 119008089.118 7      2920.084 7        42.000 7
G04  21822979.977 8 114680603.806 8     -2653.651 8        48.000 8
G10  23271135.327 7 122290772.528 7     -2841.908 7        43.000 7
G11  25138026.263 6 132101190.623 6      3726.691 6        37.000 6
G13  21065629.520 7 110700719.291 7     -2327.120 7        45.000 7
G17  21669716.493 7 113875118.767 7      1209.868 7        46.000 7
G20  21008403.503 7 110399981.544 7      1710.985 7        45.000 7
G23  20506063.846 7 107760152.826 7         1.938 7        45.000 7
G31  24873762.005 6 130712517.572 6      1773.285 6        38.000 6
G32  24329465.306 6 127852216.116 6      2832.894 6        38.000 6
> 2014 01 11 12 22 27.0000000  0 10      0.012430974000   
G01  22647034.908 7 119011006.695 7      2920.844 7        42.000 7
G04  21822475.350 8 114677946.973 8     -2653.435 8        48.000 8
G10  23270595.155 7 122287927.908 7     -2841.293 7        43.000 7
G11  25138736.253 6 132104914.646 6      3726.681 6        37.000 6
G13  21065186.281 7 110698389.053 7     -2326.545 7        45.000 7
G17  21669945.434 7 113876325.858 7      1210.637 7        46.000 7
G20  21008728.504 7 110401689.431 7      1711.036 7        45.000 7
G23  20506063.262 7 107760151.757 7         2.380 7        45.000 7
G31  24874100.222 6 130714287.915 6      1773.593 6        38.000 6
G32  24330006.135 6 127855046.190 6      2833.160 6        38.000 6
> 2014 01 11 12 22 28.0000000  0 10      0.012490235000   
G01  22647592.162 7 119013929.088 7      2921.080 7        42.000 7
G04  21821969.366 8 114675295.009 8     -2653.035 8        48.000 8
G10  23270053.021 7 122285087.972 7     -2840.328 7        43.000 7
G11  25139442.173 6 132108643.278 6      3726.486 6        37.000 6
G13  21064744.383 7 110696063.864 7     -2326.001 7        45.000 7
G17  21670175.923 7 113877538.084 7      1210.956 7        46.000 7
G20  21009054.990 7 110403402.128 7      1711.436 7        45.000 7
G23  20506064.793 7 107760155.806 7         3.160 7        45.000 7
G31  24874437.499 6 130716063.319 6      1774.291 6        38.000 6
G32  24330544.595 6 127857880.818 6      2833.540 6        38.000 6
> 2014 01 11 12 22 29.0000000  0 10      0.012549498000   
G01  22648146.447 7 119016848.874 7      2921.931 7        42.000 7
G04  21821463.076 8 114672640.434 8     -2652.317 8        48.000 8
G10  23269512.641 7 122282245.256 7     -2840.697 7        43.000 7
G11  25140153.641 6 132112369.068 6      3727.266 6        37.000 6
G13  21064301.457 7 110693736.275 7     -2325.314 7        45.000 7
G17  21670406.546 7 113878748.017 7      1211.992 7        46.000 7
G20  21009380.016 7 110405112.153 7      1711.457 7        45.000 7
G23  20506065.686 7 107760157.498 7         3.827 7        45.000 7
G31  24874774.509 6 130717836.318 6      1774.897 6        37.000 6
G32  24331084.775 6 127860712.479 6      2833.284 6        38.000 6
> 2014 01 11 12 22 30.0000000  0 10      0.012608760000   
G01  22648704.887 7 119019770.499 7      2921.973 7        42.000 7
G04  21820959.043 8 114669987.724 8     -2652.039 8        48.000 8
G10  23268971.454 7 122279404.298 7     -2839.897 7        43.000 7
G11  25140863.317 6 132116096.442 6      3727.994 6        37.000 6
G13  21063858.161 7 110691410.737 7     -2324.893 7        45.000 7
G17  21670637.390 7 113879960.114 7      1212.813 7        46.000 7
G20  21009705.581 7 110406824.009 7      1712.124 7        45.000 7
G23  20506065.461 7 107760161.316 7         4.340 7        45.000 7
G31  24875113.437 6 130719611.398 6      1775.297 6        37.000 6
G32  24331623.922 6 127863545.716 6      2833.396 6        38.000 6
> 2014 01 11 12 22 31.0000000  0 10      0.012668022000   
G01  22649261.515 7 119022692.595 7      2922.168 7        42.000 7
G04  21820455.296 8 114667335.517 8     -2651.660 8        48.000 8
G10  23268431.088 7 122276563.655 7     -2840.276 7        43.000 7
G11  25141572.642 6 132119823.972 6      3727.912 6        37.000 6
G13  21063415.186 7 110689085.888 7     -2324.277 7        46.000 7
G17  21670868.384 7 113881172.993 7      1213.511 7        46.000 7
G20  21010031.227 7 110408536.291 7      1712.740 7        45.000 7
G23  20506067.281 7 107760165.880 7         4.976 7        45.000 7
G31  24875445.855 6 130721387.262 6      1776.878 6        37.000 6
G32  24332161.962 6 127866379.137 6      2833.407 6        38.000 6
> 2014 01 11 12 22 32.0000000  0 10      0.012727285000   
G01  22649817.529 7 119025613.469 7      2922.640 7        43.000 7
G04  21819949.799 8 114664682.113 8     -2651.424 8        48.000 8
G10  23267891.985 7 122273721.655 7     -2840.164 7        43.000 7
G11  25142278.836 6 132123550.043 6      3726.896 6        37.000 6
G13  21062972.016 7 110686760.015 7     -2323.785 7        46.000 7
G17  21671097.680 7 113882384.951 7      1213.799 7        46.000 7
G20  21010357.202 7 110410247.300 7      1712.740 7        45.000 7
G23  20506067.015 7 107760169.483 7         5.777 7        45.000 7
G31  24875780.157 6 130723162.029 6      1776.539 6        37.000 6
G32  24332701.812 6 127869211.069 6      2833.581 6        38.000 6
> 2014 01 11 12 22 33.0000000  0 10      0.012786548000   
G01  22650373.211 7 119028534.598 7      2922.948 7        43.000 7
G04  21819444.920 8 114662028.956 8     -2651.064 8        48.000 8
G10  23267349.861 7 122270879.769 7     -2839.907 7        43.000 7
G11  25142988.648 6 132127276.133 6      3727.543 6        37.000 6
G13  21062530.267 7 110684434.606 7     -2322.974 7        46.000 7
G17  21671328.987 7 113883597.480 7      1214.527 7        46.000 7
G20  21010682.074 7 110411958.514 7      1713.232 7        45.000 7
G23  20506067.416 7 107760173.587 7         6.054 7        45.000 7
G31  24876119.309 6 130724937.288 6      1777.052 6        37.000 6
G32  24333240.884 6 127872042.908 6      2833.386 6        38.000 6
> 2014 01 11 12 22 34.0000000  0 10      0.012845808000   
G01  22650931.185 7 119031460.770 7      2923.307 7        43.000 7
G04  21818942.341 8 114659380.886 8     -2650.900 8        48.000 8
G10  23266807.344 7 122268042.825 7     -2839.681 7        43.000 7
G11  25143701.647 6 132131006.968 6      3726.537 6        37.000 6
G13  21062090.092 7 110682114.472 7     -2322.922 7        46.000 7
G17  21671561.699 7 113884815.391 7      1215.133 7        46.000 7
G20  21011009.045 7 110413674.759 7      1713.550 7        45.000 7
G23  20506069.024 7 107760183.036 7         6.454 7        45.000 7
G31  24876458.140 6 130726717.853 6      1778.438 6        37.000 6
G32  24333780.487 6 127874879.544 6      2833.704 6        38.000 6
> 2014 01 11 12 22 35.0000000  0 10      0.012905074000   
G01  22651485.297 7 119034377.651 7      2923.276 7        43.000 7
G04  21818436.283 8 114656723.534 8     -2650.418 8        48.000 8
G10  23266269.124 7 122265196.462 7     -2839.260 7        43.000 7
G11  25144408.846 6 132134728.325 6      3728.323 6        37.000 6
G13  21061647.049 7 110679785.266 7     -2322.389 7        46.000 7
G17  21671790.037 7 113886024.313 7      1215.605 7        46.000 7
G20  21011334.048 7 110415381.660 7      1713.674 7        45.000 7
G23  20506069.486 7 107760183.467 7         7.060 7        45.000 7
G31  24876791.439 6 130728489.351 6      1778.017 6        36.000 6
G32  24334319.218 6 127877706.595 6      2833.386 6        38.000 6
> 2014 01 11 12 22 36.0000000  0 10      0.012964337000   
G01  22652040.196 7 119037299.664 7      2923.625 7        43.000 7
G04  21817931.205 8 114654071.330 8     -2650.089 8        48.000 8
G10  23265728.235 7 122262355.071 7     -2839.168 7        43.000 7
G11  25145117.145 6 132138454.458 6      3727.112 6        37.000 6
G13  21061205.779 7 110677461.373 7     -2322.070 7        46.000 7
G17  21672022.077 7 113887238.689 7      1216.436 7        46.000 7
G20  21011660.401 7 110417093.655 7      1714.454 7        45.000 7
G23  20506071.165 7 107760189.287 7         7.942 7        45.000 7
G31  24877131.468 6 130730266.216 6      1777.689 6        36.000 6
G32  24334859.435 6 127880538.453 6      2833.509 6        38.000 6
> 2014 01 11 12 22 37.0000000  0 10      0.013023600000   
G01  22652598.559 7 119040221.881 7      2923.871 7        43.000 7
G04  21817426.174 8 114651419.375 8     -2649.781 8        48.000 8
G10  23265188.313 7 122259513.763 7     -2839.199 7        43.000 7
G11  25145826.772 6 132142180.577 6      3727.543 6        37.000 6
G13  21060762.881 7 110675137.930 7     -2321.136 7        46.000 7
G17  21672252.694 7 113888453.591 7      1216.857 7        46.000 7
G20  21011986.212 7 110418805.806 7      1713.982 7        45.000 7
G23  20506071.792 7 107760195.587 7         8.343 7        45.000 7
G31  24877469.682 6 130732043.543 6      1779.259 6        36.000 6
G32  24335399.067 6 127883370.239 6      2833.417 6        38.000 6
> 2014 01 11 12 22 38.0000000  0 10      0.013082860000   
G01  22653153.473 7 119043148.976 7      2924.005 7        43.000 7
G04  21816922.640 8 114648772.286 8     -2649.812 8        48.000 8
G10  23264646.818 7 122256677.187 7     -2839.199 7        43.000 7
G11  25146536.508 6 132145911.263 6      3726.722 6        37.000 6
G13  21060321.895 7 110672819.533 7     -2320.972 7        46.000 7
G17  21672484.866 7 113889673.662 7      1217.617 7        46.000 7
G20  21012312.559 7 110420522.772 7      1714.115 7        45.000 7
G23  20506073.207 7 107760207.021 7         8.866 7        45.000 7
G31  24877810.760 6 130733825.919 6      1779.823 6        36.000 6
G32  24335937.857 6 127886206.602 6      2833.530 6        38.000 6
> 2014 01 11 12 22 39.0000000  0 10      0.013142122000   
G01  22653711.111 7 119046073.383 7      2924.682 7        43.000 7
G04  21816418.793 8 114646122.550 8     -2649.094 8        48.000 8
G10  23264107.073 7 122253837.806 7     -2838.840 7        43.000 7
G11  25147244.551 6 132149639.054 6      3727.933 6        37.000 6
G13  21059879.110 7 110670498.681 7     -2319.956 7        46.000 7
G17  21672715.444 7 113890891.361 7      1218.068 7        46.000 7
G20  21012638.203 7 110422237.041 7      1714.792 7        45.000 7
G23  20506074.541 7 107760216.031 7         9.482 7        45.000 7
G31  24878146.807 6 130735605.861 6      1780.080 6        36.000 6
G32  24336477.410 6 127889039.973 6      2833.171 6        38.000 6
> 2014 01 11 12 22 40.0000000  0 10      0.013201382000   
G01  22654266.382 7 119049001.351 7      2925.011 7        43.000 7
G04  21815915.810 8 114643476.356 8     -2648.878 8        48.000 8
G10  23263566.263 7 122251001.828 7     -2838.696 7        43.000 7
G11  25147953.782 6 132153370.085 6      3726.794 6        37.000 6
G13  21059438.181 7 110668181.583 7     -2319.217 7        46.000 7
G17  21672949.426 7 113892112.944 7      1219.074 7        46.000 7
G20  21012966.987 7 110423954.813 7      1714.926 7        46.000 7
G23  20506077.368 7 107760228.887 7        10.498 7        45.000 7
G31  24878492.150 6 130737389.654 6      1781.856 6        36.000 6
G32  24337015.687 6 127891876.634 6      2834.023 6        39.000 6
> 2014 01 11 12 22 41.0000000  0 10      0.013260646000   
G01  22654823.357 7 119051923.274 7      2925.134 7        43.000 7
G04  21815411.308 8 114640824.182 8     -2648.714 8        48.000 8
G10  23263027.714 7 122248159.734 7     -2838.367 7        43.000 7
G11  25148665.248 6 132157094.866 6      3726.978 6        37.000 6
G13  21058996.336 7 110665858.674 7     -2319.463 7        46.000 7
G17  21673179.271 7 113893328.787 7      1219.279 7        46.000 7
G20  21013291.760 7 110425666.507 7      1715.080 7        46.000 7
G23  20506079.474 7 107760235.955 7        10.786 7        45.000 7
G31  24878829.520 6 130739167.542 6      1781.004 6        36.000 6
G32  24337556.182 6 127894706.956 6      2833.653 6        39.000 6
> 2014 01 11 12 22 42.0000000  0 10      0.013319907000   
G01  22655379.609 7 119054850.397 7      2925.739 7        43.000 7
G04  21814907.223 8 114638177.197 8     -2647.996 8        48.000 8
G10  23262487.257 7 122245322.615 7     -2838.213 7        43.000 7
G11  25149373.274 6 132160824.568 6      3727.368 6        37.000 6
G13  21058555.897 7 110663541.150 7     -2318.222 7        46.000 7
G17  21673412.637 7 113894550.134 7      1220.131 7        46.000 7
G20  21013618.274 7 110427383.349 7      1715.347 7        46.000 7
G23  20506081.666 7 107760248.471 7        11.309 7        45.000 7
G31  24879168.126 6 130740950.930 6      1782.933 6        36.000 6
G32  24338092.658 6 127897542.154 6      2834.176 6        39.000 6
> 2014 01 11 12 22 43.0000000  0 10      0.013379169000   
G01  22655938.048 7 119057776.017 7      2925.688 7        43.000 7
G04  21814402.862 8 114635528.760 8     -2647.965 8        48.000 8
G10  23261947.455 7 122242483.938 7     -2838.296 7        43.000 7
G11  25150083.066 6 132164552.550 6      3727.728 6        37.000 6
G13  21058115.218 7 110661222.366 7     -2318.098 7        46.000 7
G17  21673643.877 7 113895770.308 7      1220.480 7        46.000 7
G20  21013944.879 7 110429098.667 7      1715.819 7        46.000 7
G23  20506084.962 7 107760259.793 7        11.925 7        45.000 7
G31  24879507.045 6 130742732.960 6      1781.445 6        36.000 6
G32  24338629.745 6 127900375.565 6      2833.386 6        38.000 6
> 2014 01 11 12 22 44.0000000  0 10      0.013438434000   
G01  22656493.600 7 119060697.462 7      2926.263 7        43.000 7
G04  21813898.466 8 114632876.145 8     -2647.400 8        48.000 8
G10  23261405.879 7 122239640.934 7     -2837.485 7        43.000 7
G11  25150792.955 6 132168276.042 6      3728.497 6        37.000 6
G13  21057673.022 7 110658899.612 7     -2317.503 7        46.000 7
G17  21673876.666 7 113896986.620 7      1221.640 7        46.000 7
G20  21014270.870 7 110430809.766 7      1716.075 7        46.000 7
G23  20506085.990 7 107760267.195 7        12.520 7        45.000 7
G31  24879846.759 6 130744511.167 6      1783.200 6        36.000 6
G32  24339171.308 6 127903204.502 6      2833.602 6        38.000 6
> 2014 01 11 12 22 45.0000000  0 10      0.013497694000   
G01  22657049.779 7 119063627.202 7      2926.838 7        43.000 7
G04  21813395.466 8 114630231.858 8     -2646.979 8        48.000 8
G10  23260864.141 7 122236806.083 7     -2837.454 7        43.000 7
G11  25151504.552 6 132172007.511 6      3727.635 6        37.000 6
G13  21057233.018 7 110656585.375 7     -2316.579 7        46.000 7
G17  21674108.239 7 113898211.547 7      1222.235 7        46.000 7
G20  21014598.623 7 110432529.117 7      1716.352 7        46.000 7
G23  20506088.648 7 107760283.164 7        13.341 7        45.000 7
G31  24880185.038 6 130746297.835 6      1783.662 6        36.000 6
G32  24339710.404 6 127906041.467 6      2833.581 6        38.000 6
> 2014 01 11 12 22 46.0000000  0 10      0.013556956000   
G01  22657606.370 7 119066554.106 7      2927.248 7        43.000 7
G04  21812891.355 8 114627584.738 8     -2646.682 8        48.000 8
G10  23260324.123 7 122233968.267 7     -2837.269 7        43.000 7
G11  25152213.102 6 132175735.969 6      3727.799 6        37.000 6
G13  21056791.750 7 110654268.498 7     -2316.241 7        46.000 7
G17  21674340.851 7 113899433.930 7      1222.862 7        46.000 7
G20  21014924.493 7 110434245.573 7      1716.814 7        46.000 7
G23  20506091.386 7 107760296.554 7        13.854 7        45.000 7
G31  24880524.720 6 130748081.878 6      1784.216 6        36.000 6
G32  24340249.664 6 127908875.297 6      2833.848 6        38.000 6
> 2014 01 11 12 22 47.0000000  0 10      0.013616220000   
G01  22658163.000 7 119069478.216 7      2927.289 7        43.000 7
G04  21812387.291 8 114624934.866 8     -2646.374 8        48.000 8
G10  23259784.691 7 122231127.537 7     -2837.187 7        43.000 7
G11  25152916.695 6 132179461.370 6      3727.420 6        37.000 6
G13  21056351.134 7 110651949.045 7     -2315.656 7        46.000 7
G17  21674572.994 7 113900653.849 7      1223.323 7        46.000 7
G20  21015250.589 7 110435959.220 7      1716.753 7        46.000 7
G23  20506093.079 7 107760307.446 7        14.542 7        45.000 7
G31  24880860.683 6 130749863.373 6      1784.699 6        36.000 6
G32  24340788.149 6 127911706.056 6      2833.858 6        38.000 6
> 2014 01 11 12 22 48.0000000  0 10      0.013675482000   
G01  22658721.231 7 119072405.741 7      2926.884 7        43.000 7
G04  21811883.120 8 114622288.426 8     -2647.076 8        48.000 8
G10  23259245.505 7 122228290.095 7     -2837.746 7        43.000 7
G11  25153630.592 6 132183189.925 6      3726.933 6        37.000 6
G13  21055908.737 7 110649633.233 7     -2316.255 7        46.000 7
G17  21674806.422 7 113901877.519 7      1223.237 7        46.000 7
G20  21015577.710 7 110437676.256 7      1716.625 7        46.000 7
G23  20506096.042 7 107760322.017 7        14.178 7        45.000 7
G31  24881203.625 6 130751648.549 6      1785.064 6        36.000 6
G32  24341328.936 6 127914539.913 6      2833.228 6        38.000 6
> 2014 01 11 12 22 49.0000000  0 10      0.013734744000   
G01  22659278.033 7 119075333.755 7      2927.398 7        43.000 7
G04  21811379.229 8 114619642.462 8     -2646.265 8        48.000 8
G10  23258704.859 7 122225452.981 7     -2837.335 7        43.000 7
G11  25154342.244 6 132186918.682 6      3727.713 6        37.000 6
G13  21055468.749 7 110647318.079 7     -2315.455 7        46.000 7
G17  21675039.234 7 113903101.955 7      1224.048 7        46.000 7
G20  21015903.958 7 110439393.699 7      1717.179 7        46.000 7
G23  20506098.952 7 107760337.310 7        14.948 7        45.000 7
G31  24881540.990 6 130753434.414 6      1785.033 6        36.000 6
G32  24341868.807 6 127917373.951 6      2833.700 6        38.000 6
> 2014 01 11 12 22 50.0000000  0 10      0.013794009000   
G01  22659834.213 7 119078257.497 7      2927.593 7        43.000 7
G04  21810875.676 8 114616992.275 8     -2646.050 8        48.000 8
G10  23258166.042 7 122222611.476 7     -2837.387 7        43.000 7
G11  25155047.893 6 132190642.895 6      3728.062 6        37.000 6
G13  21055028.375 7 110644998.896 7     -2314.767 7        46.000 7
G17  21675271.675 7 113904322.443 7      1224.725 7        46.000 7
G20  21016229.769 7 110441106.845 7      1716.882 7        46.000 7
G23  20506101.484 7 107760348.619 7        15.564 7        45.000 7
G31  24881885.391 6 130755216.252 6      1786.419 6        36.000 6
G32  24342406.664 6 127920203.410 6      2833.207 6        38.000 6
> 2014 01 11 12 22 51.0000000  0 10      0.013853272000   
G01  22660392.016 7 119081184.774 7      2928.085 7        43.000 7
G04  21810371.846 8 114614345.631 8     -2645.619 8        48.000 8
G10  23257625.022 7 122219773.398 7     -2836.843 7        43.000 7
G11  25155754.360 6 132194370.404 6      3728.708 6        37.000 6
G13  21054586.623 7 110642683.473 7     -2314.254 7        46.000 7
G17  21675504.470 7 113905546.786 7      1225.495 7        46.000 7
G20  21016557.006 7 110442823.488 7      1717.652 7        46.000 7
G23  20506103.980 7 107760363.734 7        16.159 7        45.000 7
G31  24882224.982 6 130757001.815 6      1785.854 6        36.000 6
G32  24342946.856 6 127923036.140 6      2833.300 6        38.000 6
> 2014 01 11 12 22 52.0000000  0 10      0.013912534000   
G01  22660948.653 7 119084113.922 7      2928.486 7        43.000 7
G04  21809868.567 8 114611700.880 8     -2645.044 8        48.000 8
G10  23257082.990 7 122216936.998 7     -2837.109 7        43.000 7
G11  25156467.026 6 132198099.489 6      3728.052 6        37.000 6
G13  21054146.596 7 110640370.117 7     -2313.628 7        46.000 7
G17  21675738.248 7 113906773.303 7      1226.090 7        46.000 7
G20  21016884.210 7 110444541.956 7      1717.600 7        46.000 7
G23  20506107.452 7 107760380.980 7        16.724 7        45.000 7
G31  24882566.699 6 130758789.549 6      1787.681 6        36.000 6
G32  24343483.919 6 127925870.422 6      2833.587 6        38.000 6
> 2014 01 11 12 22 53.0000000  0 10      0.013971797000   
G01  22661505.054 7 119087041.830 7      2928.537 7        43.000 7
G04  21809363.728 8 114609054.935 8     -2644.675 8        48.000 8
G10  23256544.325 7 122214099.299 7     -2836.596 7        43.000 7
G11  25157178.464 6 132201827.118 6      3728.134 6        37.000 6
G13  21053705.234 7 110638055.744 7     -2313.053 7        46.000 7
G17  21675971.285 7 113907998.917 7      1226.634 7        46.000 7
G20  21017210.601 7 110446259.153 7      1718.083 7        46.000 7
G23  20506110.555 7 107760397.285 7        17.360 7        45.000 7
G31  24882910.495 6 130760576.211 6      1787.106 6        36.000 6
G32  24344022.414 6 127928703.233 6      2833.915 6        39.000 6
> 2014 01 11 12 22 54.0000000  0 10      0.014031059000   
G01  22662061.632 7 119089971.667 7      2929.071 7        43.000 7
G04  21808861.536 8 114606410.897 8     -2644.295 8        48.000 8
G10  23256004.665 7 122211263.364 7     -2836.288 7        43.000 7
G11  25157887.358 6 132205556.384 6      3728.247 6        38.000 6
G13  21053265.039 7 110635743.501 7     -2312.324 7        46.000 7
G17  21676204.552 7 113909226.744 7      1227.342 7        46.000 7
G20  21017537.353 7 110447978.249 7      1718.544 7        46.000 7
G23  20506112.928 7 107760415.755 7        18.027 7        45.000 7
G31  24883249.189 6 130762365.063 6      1788.482 6        36.000 6
G32  24344563.301 6 127931537.615 6      2833.546 6        39.000 6
> 2014 01 11 12 22 55.0000000  0 10      0.014090323000   
G01  22662619.420 7 119092898.860 7      2928.892 7        43.000 7
G04  21808357.907 8 114603764.308 8     -2644.628 8        48.000 8
G10  23255464.670 7 122208424.669 7     -2836.519 7        43.000 7
G11  25158595.507 6 132209282.731 6      3726.928 6        37.000 6
G13  21052823.810 7 110633428.829 7     -2312.452 7        46.000 7
G17  21676438.711 7 113910452.261 7      1227.400 7        46.000 7
G20  21017865.113 7 110449694.640 7      1718.181 7        46.000 7
G23  20506116.563 7 107760431.860 7        17.838 7        45.000 7
G31  24883589.710 6 130764151.513 6      1787.882 6        36.000 6
G32  24345101.348 6 127934369.070 6      2832.967 6        39.000 6
> 2014 01 11 12 22 56.0000000  0 10      0.014149586000   
G01  22663178.333 7 119095827.969 7      2930.169 7        43.000 7
G04  21807854.071 8 114601119.632 8     -2643.566 8        48.000 8
G10  23254924.819 7 122205587.736 7     -2835.847 7        43.000 7
G11  25159304.548 6 132213010.765 6      3727.959 6        37.000 6
G13  21052385.080 7 110631116.287 7     -2311.329 7        46.000 7
G17  21676673.293 7 113911679.995 7      1228.595 7        46.000 7
G20  21018190.947 7 110451412.905 7      1719.376 7        46.000 7
G23  20506120.236 7 107760450.158 7        19.300 7        45.000 7
G31  24883927.790 6 130765940.135 6      1788.399 6        36.000 6
G32  24345638.944 6 127937202.156 6      2833.669 6        39.000 6
> 2014 01 11 12 22 57.0000000  0 10      0.014208852000   
G01  22663734.511 7 119098752.705 7      2930.477 7        43.000 7
G04  21807350.931 8 114598470.612 8     -2643.238 8        48.000 8
G10  23254386.586 7 122202746.302 7     -2835.939 7        43.000 7
G11  25160016.320 6 132216734.156 6      3728.657 6        38.000 6
G13  21051943.846 7 110628799.588 7     -2310.775 7        46.000 7
G17  21676906.721 7 113912903.667 7      1229.056 7        46.000 7
G20  21018517.466 7 110453126.777 7      1719.694 7        46.000 7
G23  20506122.934 7 107760464.335 7        19.885 7        45.000 7
G31  24884269.647 6 130767724.603 6      1789.970 6        36.000 6
G32  24346180.221 6 127940030.586 6      2833.731 6        38.000 6
> 2014 01 11 12 22 58.0000000  0 10      0.014268113000   
G01  22664291.267 7 119101685.478 7      2930.528 7        43.000 7
G04  21806848.371 8 114595829.644 8     -2643.155 8        48.000 8
G10  23253845.677 7 122199912.808 7     -2835.375 7        43.000 7
G11  25160720.821 6 132220465.330 6      3728.585 6        38.000 6
G13  21051504.757 7 110626491.158 7     -2310.231 7        46.000 7
G17  21677140.600 7 113914135.711 7      1229.929 7        46.000 7
G20  21018845.317 7 110454848.644 7      1719.622 7        46.000 7
G23  20506127.786 7 107760486.834 7        20.439 7        45.000 7
G31  24884610.022 6 130769517.286 6      1789.436 6        37.000 6
G32  24346716.506 6 127942866.783 6      2833.536 6        38.000 6
> 2014 01 11 12 22 59.0000000  0 10      0.014327375000   
G01  22664850.093 7 119104617.126 7      2930.216 7        43.000 7
G04  21806345.029 8 114593187.561 8     -2643.591 8        48.000 8
G10  23253305.476 7 122197078.029 7     -2836.200 7        43.000 7
G11  25161433.240 6 132224195.120 6      3728.745 6        37.000 6
G13  21051064.921 7 110624181.808 7     -2310.502 7        46.000 7
G17  21677374.324 7 113915366.937 7      1229.945 7        46.000 7
G20  21019172.370 7 110456569.318 7      1719.361 7        46.000 7
G23  20506130.762 7 107760508.474 7        20.219 7        45.000 7
G31  24884951.951 6 130771309.137 6      1789.883 6        37.000 6
G32  24347256.132 6 127945701.534 6      2832.946 6        38.000 6
> 2014 01 11 12 23  0.0000000  0 10      0.014386638000   
G01  22665406.778 7 119107547.527 7      2931.000 7        43.000 7
G04  21805842.977 8 114590544.263 8     -2642.006 8        48.000 8
G10  23252766.726 7 122194241.879 7     -2835.221 7        43.000 7
G11  25162144.797 6 132227923.377 6      3729.057 6        37.000 6
G13  21050625.459 7 110621871.418 7     -2309.461 7        46.000 7
G17  21677607.677 7 113916597.217 7      1231.222 7        46.000 7
G20  21019499.373 7 110458288.733 7      1720.341 7        46.000 7
G23  20506134.311 7 107760529.125 7        21.527 7        45.000 7
G31  24885290.820 6 130773099.906 6      1791.017 6        37.000 6
G32  24347795.846 6 127948534.752 6      2833.967 6        38.000 6
> 2014 01 11 12 23  1.0000000  0 10      0.014445901000   
G01  22665965.788 7 119110478.144 7      2931.390 7        43.000 7
G04  21805339.828 8 114587901.195 8     -2642.098 8        48.000 8
G10  23252226.853 7 122191405.827 7     -2835.190 7        43.000 7
G11  25162854.057 6 132231651.562 6      3728.503 6        38.000 6
G13  21050185.888 7 110619561.457 7     -2308.640 7        46.000 7
G17  21677843.226 7 113917828.036 7      1231.817 7        46.000 7
G20  21019825.457 7 110460008.313 7      1720.464 7        46.000 7
G23  20506138.337 7 107760550.278 7        22.215 7        45.000 7
G31  24885630.932 6 130774891.205 6      1791.653 6        37.000 6
G32  24348334.784 6 127951367.889 6      2834.121 6        38.000 6
> 2014 01 11 12 23  2.0000000  0 10      0.014505164000   
G01  22666524.102 7 119113409.106 7      2930.914 7        43.000 7
G04  21804836.364 8 114585258.477 8     -2642.554 8        48.000 8
G10  23251687.972 7 122188569.990 7     -2835.246 7        43.000 7
G11  25163559.919 6 132235379.889 6      3728.273 6        38.000 6
G13  21049746.800 7 110617252.035 7     -2308.942 7        46.000 7
G17  21678077.188 7 113919059.512 7      1231.659 7        46.000 7
G20  21020151.975 7 110461728.180 7      1719.720 7        46.000 7
G23  20506142.473 7 107760572.018 7        21.738 7        45.000 7
G31  24885971.520 6 130776683.009 6      1791.597 6        37.000 6
G32  24348874.679 6 127954201.059 6      2832.946 6        38.000 6
> 2014 01 11 12 23  3.0000000  0 10      0.014564428000   
G01  22667081.219 7 119116338.773 7      2931.211 7        43.000 7
G04  21804333.614 8 114582614.507 8     -2642.144 8        48.000 8
G10  23251148.626 7 122185732.706 7     -2835.626 7        43.000 7
G11  25164268.913 6 132239106.677 6      3728.745 6        37.000 6
G13  21049307.515 7 110614941.575 7     -2308.480 7        46.000 7
G17  21678310.961 7 113920289.997 7      1232.080 7        46.000 7
G20  21020480.149 7 110463446.744 7      1720.234 7        46.000 7
G23  20506145.662 7 107760592.772 7        22.488 7        45.000 7
G31  24886313.049 6 130778473.755 6      1791.823 6        37.000 6
G32  24349413.132 6 127957032.649 6      2833.121 6        38.000 6
> 2014 01 11 12 23  4.0000000  0 10      0.014623691000   
G01  22667639.323 7 119119270.630 7      2931.550 7        43.000 7
G04  21803830.714 8 114579972.749 8     -2641.466 8        48.000 8
G10  23250608.343 7 122182897.503 7     -2834.733 7        43.000 7
G11  25164982.060 6 132242835.296 6      3727.606 6        37.000 6
G13  21048868.112 7 110612633.496 7     -2307.854 7        46.000 7
G17  21678546.165 7 113921523.005 7      1233.075 7        46.000 7
G20  21020806.447 7 110465167.452 7      1720.459 7        45.000 7
G23  20506150.652 7 107760615.994 7        23.555 7        45.000 7
G31  24886655.041 6 130780266.936 6      1792.778 6        37.000 6
G32  24349951.566 6 127959866.139 6      2833.069 6        38.000 6
> 2014 01 11 12 23  5.0000000  0 10      0.014682955000   
G01  22668195.665 7 119122201.228 7      2931.920 7        43.000 7
G04  21803327.955 8 114577329.733 8     -2641.579 8        48.000 8
G10  23250068.745 7 122180060.897 7     -2835.328 7        43.000 7
G11  25165693.022 6 132246562.425 6      3727.832 6        38.000 6
G13  21048428.132 7 110610324.388 7     -2307.587 7        46.000 7
G17  21678780.808 7 113922755.060 7      1233.506 7        46.000 7
G20  21021134.782 7 110466886.866 7      1720.572 7        45.000 7
G23  20506155.065 7 107760638.188 7        23.391 7        45.000 7
G31  24886996.844 6 130782059.123 6      1793.506 6        37.000 6
G32  24350491.800 6 127962698.089 6      2832.885 6        38.000 6
> 2014 01 11 12 23  6.0000000  0 10      0.014742215000   
G01  22668754.027 7 119125138.439 7      2932.371 7        43.000 7
G04  21802825.509 8 114574693.359 8     -2641.076 8        48.000 8
G10  23249528.863 7 122177230.796 7     -2834.271 7        43.000 7
G11  25166399.114 6 132250295.963 6      3728.242 6        38.000 6
G13  21047990.782 7 110608022.096 7     -2306.858 7        46.000 7
G17  21679015.246 7 113923994.043 7      1234.286 7        46.000 7
G20  21021462.271 7 110468612.832 7      1721.044 7        45.000 7
G23  20506160.600 7 107760667.274 7        24.253 7        45.000 7
G31  24887337.275 6 130783858.099 6      1793.958 6        37.000 6
G32  24351029.997 6 127965536.332 6      2833.234 6        38.000 6
> 2014 01 11 12 23  7.0000000  0 10      0.014801480000   
G01  22669311.919 7 119128068.180 7      2932.628 7        43.000 7
G04  21802322.406 8 114572049.538 8     -2640.471 8        48.000 8
G10  23248989.240 7 122174393.056 7     -2834.158 7        43.000 7
G11  25167110.197 6 132254021.729 6      3728.222 6        38.000 6
G13  21047551.101 7 110605712.558 7     -2305.678 7        46.000 7
G17  21679250.414 7 113925225.858 7      1234.820 7        46.000 7
G20  21021789.284 7 110470331.294 7      1721.701 7        45.000 7
G23  20506164.006 7 107760689.171 7        25.095 7        45.000 7
G31  24887679.567 6 130785649.856 6      1794.584 6        37.000 6
G32  24351570.908 6 127968366.835 6      2833.213 6        38.000 6
> 2014 01 11 12 23  8.0000000  0 10      0.014860744000   
G01  22669869.231 7 119130999.875 7      2933.336 7        43.000 7
G04  21801819.865 8 114569407.664 8     -2640.019 8        48.000 8
G10  23248450.917 7 122171557.154 7     -2833.819 7        43.000 7
G11  25167818.551 6 132257749.154 6      3728.909 6        38.000 6
G13  21047111.636 7 110603405.155 7     -2305.493 7        46.000 7
G17  21679485.061 7 113926459.934 7      1235.908 7        46.000 7
G20  21022116.468 7 110472051.659 7      1721.753 7        45.000 7
G23  20506169.164 7 107760713.278 7        25.823 7        45.000 7
G31  24888021.129 6 130787443.777 6      1795.528 6        37.000 6
G32  24352109.657 6 127971198.983 6      2833.203 6        38.000 6
> 2014 01 11 12 23  9.0000000  0 10      0.014920008000   
G01  22670427.935 7 119133931.883 7      2933.603 7        43.000 7
G04  21801316.633 8 114566766.165 8     -2639.496 8        48.000 8
G10  23247912.062 7 122168721.450 7     -2833.891 7        43.000 7
G11  25168528.444 6 132261476.667 6      3728.427 6        38.000 6
G13  21046673.043 7 110601098.331 7     -2305.052 7        46.000 7
G17  21679720.401 7 113927694.657 7      1236.237 7        46.000 7
G20  21022444.469 7 110473772.316 7      1722.297 7        45.000 7
G23  20506174.247 7 107760737.990 7        26.388 7        45.000 7
G31  24888360.521 6 130789238.290 6      1795.631 6        38.000 6
G32  24352648.414 6 127974031.171 6      2833.377 6        39.000 6
> 2014 01 11 12 23 10.0000000  0 10      0.014979272000   
G01  22670985.587 7 119136864.364 7      2933.972 7        43.000 7
G04  21800814.634 8 114564125.139 8     -2639.444 8        48.000 8
G10  23247370.606 7 122165886.079 7     -2833.737 7        43.000 7
G11  25169237.232 6 132265204.375 6      3728.027 6        38.000 6
G13  21046235.527 7 110598792.169 7     -2304.446 7        46.000 7
G17  21679955.894 7 113928930.179 7      1237.027 7        46.000 7
G20  21022772.359 7 110475493.390 7      1722.132 7        45.000 7
G23  20506179.280 7 107760763.437 7        27.188 7        45.000 7
G31  24888702.515 6 130791033.480 6      1796.391 6        38.000 6
G32  24353188.919 6 127976863.544 6      2833.644 6        39.000 6
> 2014 01 11 12 23 11.0000000  0 10      0.015038534000   
G01  22671545.219 7 119139800.250 7      2934.342 7        43.000 7
G04  21800312.527 8 114561487.552 8     -2639.013 8        48.000 8
G10  23246831.102 7 122163053.967 7     -2833.193 7        43.000 7
G11  25169949.297 6 132268935.298 6      3729.720 6        38.000 6
G13  21045795.276 7 110596489.633 7     -2303.995 7        46.000 7
G17  21680190.380 7 113930169.411 7      1238.022 7        46.000 7
G20  21023099.371 7 110477217.851 7      1722.871 7        45.000 7
G23  20506184.629 7 107760792.548 7        27.702 7        45.000 7
G31  24889044.628 6 130792832.298 6      1797.930 6        38.000 6
G32  24353727.159 6 127979699.013 6      2833.726 6        39.000 6
> 2014 01 11 12 23 12.0000000  0 10      0.015097797000   
G01  22672102.343 7 119142734.959 7      2934.373 7        43.000 7
G04  21799810.771 8 114558848.806 8     -2638.747 8        48.000 8
G10  23246293.068 7 122160220.578 7     -2833.111 7        43.000 7
G11  25170655.737 6 132272664.664 6      3728.170 6        37.000 6
G13  21045358.459 7 110594186.147 7     -2303.410 7        46.000 7
G17  21680425.460 7 113931407.765 7      1238.105 7        46.000 7
G20  21023428.242 7 110478941.079 7      1723.056 7        45.000 7
G23  20506189.807 7 107760820.757 7        28.143 7        45.000 7
G31  24889386.756 6 130794630.192 6      1797.550 6        38.000 6
G32  24354263.405 6 127982533.004 6      2833.429 6        39.000 6
> 2014 01 11 12 23 13.0000000  0 10      0.015157060000   
G01  22672661.616 7 119145669.957 7      2935.040 7        43.000 7
G04  21799308.505 8 114556210.379 8     -2638.059 8        48.000 8
G10  23245753.915 7 122157387.310 7     -2833.316 7        43.000 7
G11  25171362.767 6 132276394.133 6      3729.032 6        37.000 6
G13  21044918.882 7 110591883.153 7     -2302.732 7        46.000 7
G17  21680660.844 7 113932646.715 7      1239.121 7        46.000 7
G20  21023756.396 7 110480664.538 7      1723.549 7        45.000 7
G23  20506195.850 7 107760849.515 7        29.077 7        45.000 7
G31  24889728.406 6 130796428.578 6      1798.443 6        38.000 6
G32  24354802.696 6 127985366.995 6      2833.839 6        39.000 6
> 2014 01 11 12 23 14.0000000  0 10      0.015216325000   
G01  22673219.989 7 119148602.228 7      2935.266 7        43.000 7
G04  21798805.919 8 114553569.275 8     -2637.915 8        48.000 8
G10  23245213.463 7 122154551.214 7     -2833.255 7        43.000 7
G11  25172073.986 6 132280120.615 6      3729.340 6        37.000 6
G13  21044480.165 7 110589577.681 7     -2301.860 7        46.000 7
G17  21680896.343 7 113933883.271 7      1239.726 7        46.000 7
G20  21024083.649 7 110482385.265 7      1723.785 7        45.000 7
G23  20506200.667 7 107760875.825 7        29.529 7        45.000 7
G31  24890072.250 6 130798224.488 6      1798.269 6        38.000 6
G32  24355343.704 6 127988198.014 6      2834.229 6        39.000 6
> 2014 01 11 12 23 15.0000000  0 10      0.015275587000   
G01  22673778.030 7 119151539.754 7      2934.892 7        43.000 7
G04  21798303.955 8 114550933.435 8     -2638.217 8        48.000 8
G10  23244674.364 7 122151720.233 7     -2833.475 7        44.000 7
G11  25172789.767 6 132283852.074 6      3729.408 6        37.000 6
G13  21044041.909 7 110587277.631 7     -2302.141 7        46.000 7
G17  21681132.138 7 113935125.383 7      1239.393 7        46.000 7
G20  21024412.081 7 110484111.189 7      1723.195 7        45.000 7
G23  20506206.533 7 107760907.653 7        29.452 7        45.000 7
G31  24890413.146 6 130800025.907 6      1798.521 6        38.000 6
G32  24355882.986 6 127991033.962 6      2833.393 6        39.000 6
> 2014 01 11 12 23 16.0000000  0 10      0.015334855000   
G01  22674337.365 7 119154468.080 7      2935.148 7        43.000 7
G04  21797800.814 8 114548288.410 8     -2637.653 8        48.000 8
G10  23244135.582 7 122148879.911 7     -2833.680 7        44.000 7
G11  25173494.423 6 132287574.061 6      3728.987 6        37.000 6
G13  21043603.852 7 110584968.624 7     -2301.669 7        46.000 7
G17  21681367.955 7 113936358.609 7      1240.194 7        46.000 7
G20  21024738.942 7 110485827.851 7      1723.349 7        45.000 7
G23  20506210.125 7 107760930.530 7        29.647 7        45.000 7
G31  24890756.709 6 130801818.343 6      1799.127 6        38.000 6
G32  24356423.119 6 127993860.378 6      2832.860 6        39.000 6
> 2014 01 11 12 23 17.0000000  0 10      0.015394118000   
G01  22674896.728 7 119157404.549 7      2935.425 7        43.000 7
G04  21797299.230 8 114545651.567 8     -2637.314 8        48.000 8
G10  23243593.956 7 122146047.647 7     -2832.756 7        44.000 7
G11  25174198.494 6 132291303.977 6      3728.966 6        37.000 6
G13  21043167.002 7 110582667.964 7     -2301.259 7        46.000 7
G17  21681604.241 7 113937600.300 7      1240.861 7        46.000 7
G20  21025066.019 7 110487552.654 7      1724.006 7        45.000 7
G23  20506216.471 7 107760961.878 7        30.971 7        45.000 7
G31  24891100.534 6 130803619.156 6      1799.506 6        38.000 6
G32  24356964.561 6 127996694.674 6      2832.891 6        39.000 6
> 2014 01 11 12 23 18.0000000  0 10      0.015453383000   
G01  22675453.686 7 119160338.385 7      2935.672 7        43.000 7
G04  21796797.715 8 114543012.089 8     -2637.581 8        48.000 8
G10  23243056.366 7 122143212.595 7     -2832.582 7        43.000 7
G11  25174912.470 6 132295030.950 6      3728.330 6        37.000 6
G13  21042728.554 7 110580364.900 7     -2300.828 7        46.000 7
G17  21681840.277 7 113938839.678 7      1241.631 7        46.000 7
G20  21025394.296 7 110489274.760 7      1724.016 7        45.000 7
G23  20506221.788 7 107760990.818 7        31.238 7        45.000 7
G31  24891439.142 6 130805417.554 6      1800.892 6        38.000 6
G32  24357503.738 6 127999526.072 6      2833.527 6        39.000 6
> 2014 01 11 12 23 19.0000000  0 10      0.015512644000   
G01  22676012.094 7 119163278.837 7      2935.959 7        43.000 7
G04  21796295.186 8 114540379.282 8     -2636.431 8        48.000 8
G10  23242517.344 7 122140384.012 7     -2833.105 7        43.000 7
G11  25175624.617 6 132298764.308 6      3729.274 6        37.000 6
G13  21042290.833 7 110578068.662 7     -2300.089 7        46.000 7
G17  21682078.011 7 113940085.979 7      1242.298 7        46.000 7
G20  21025724.014 7 110491003.439 7      1724.191 7        45.000 7
G23  20506228.607 7 107761026.652 7        31.587 7        45.000 7
G31  24891782.859 6 130807222.799 6      1800.748 6        38.000 6
G32  24358039.354 6 128002363.749 6      2833.393 6        39.000 6
> 2014 01 11 12 23 20.0000000  0 10      0.015571908000   
G01  22676571.947 7 119166214.888 7      2936.431 7        43.000 7
G04  21795794.489 8 114537742.104 8     -2636.401 8        48.000 8
G10  23241978.219 7 122137550.895 7     -2832.828 7        43.000 7
G11  25176333.014 6 132302492.956 6      3729.942 6        37.000 6
G13  21041852.696 7 110575768.236 7     -2299.391 7        46.000 7
G17  21682312.874 7 113941328.194 7      1242.975 7        46.000 7
G20  21026051.746 7 110492727.682 7      1724.632 7        45.000 7
G23  20506234.832 7 107761058.366 7        32.326 7        45.000 7
G31  24892124.253 6 130809023.836 6      1800.933 6        38.000 6
G32  24358579.602 6 128005196.771 6      2833.445 6        39.000 6
> 2014 01 11 12 23 21.0000000  0 10      0.015631173000   
G01  22677130.245 7 119169149.762 7      2936.965 7        43.000 7
G04  21795292.807 8 114535103.746 8     -2636.011 8        48.000 8
G10  23241440.754 7 122134716.497 7     -2831.915 7        43.000 7
G11  25177038.664 6 132306220.174 6      3729.244 6        37.000 6
G13  21041414.184 7 110573466.842 7     -2298.693 7        46.000 7
G17  21682549.286 7 113942569.546 7      1243.797 7        46.000 7
G20  21026379.818 7 110494450.716 7      1725.464 7        45.000 7
G23  20506240.122 7 107761089.165 7        33.188 7        45.000 7
G31  24892467.189 6 130810823.977 6      1802.175 6        38.000 6
G32  24359116.902 6 128008028.303 6      2833.609 6        39.000 6
> 2014 01 11 12 23 22.0000000  0 10      0.015690437000   
G01  22677690.436 7 119172086.587 7      2937.170 7        43.000 7
G04  21794791.504 8 114532467.381 8     -2635.785 8        48.000 8
G10  23240900.590 7 122131883.916 7     -2831.853 7        43.000 7
G11  25177749.973 6 132309949.128 6      3729.654 6        37.000 6
G13  21040976.280 7 110571167.639 7     -2298.467 7        46.000 7
G17  21682786.130 7 113943813.172 7      1244.176 7        46.000 7
G20  21026708.823 7 110496175.646 7      1725.792 7        45.000 7
G23  20506247.550 7 107761122.200 7        33.568 7        45.000 7
G31  24892806.734 6 130812626.299 6      1802.832 6        38.000 6
G32  24359656.417 6 128010861.473 6      2833.219 6        39.000 6
> 2014 01 11 12 23 23.0000000  0 10      0.015749701000   
G01  22678247.632 7 119175023.669 7      2937.447 7        43.000 7
G04  21794289.299 8 114529831.276 8     -2635.713 8        48.000 8
G10  23240361.970 7 122129051.449 7     -2831.822 7        43.000 7
G11  25178462.599 6 132313678.004 6      3728.166 6        37.000 6
G13  21040539.601 7 110568868.875 7     -2297.728 7        46.000 7
G17  21683022.131 7 113945057.365 7      1244.864 7        45.000 7
G20  21027036.539 7 110497900.809 7      1725.597 7        45.000 7
G23  20506253.745 7 107761155.753 7        34.174 7        45.000 7
G31  24893152.643 6 130814429.064 6      1802.401 6        38.000 6
G32  24360195.929 6 128013694.626 6      2833.424 6        39.000 6
> 2014 01 11 12 23 24.0000000  0 10      0.015808964000   
G01  22678807.114 7 119177962.766 7      2938.022 7        43.000 7
G04  21793788.058 8 114527197.235 8     -2634.861 8        48.000 8
G10  23239822.001 7 122126220.889 7     -2831.483 7        43.000 7
G11  25179169.664 6 132317408.656 6      3728.299 6        37.000 6
G13  21040102.402 7 110566572.379 7     -2297.266 7        46.000 7
G17  21683260.857 7 113946303.880 7      1245.346 7        45.000 7
G20  21027364.819 7 110499627.929 7      1725.833 7        46.000 7
G23  20506260.376 7 107761191.598 7        35.077 7        45.000 7
G31  24893495.184 6 130816234.128 6      1804.412 6        38.000 6
G32  24360735.007 6 128016529.502 6      2833.866 6        39.000 6
> 2014 01 11 12 23 25.0000000  0 10      0.015868231000   
G01  22679366.599 7 119180895.880 7      2937.950 7        43.000 7
G04  21793285.875 8 114524557.244 8     -2634.358 8        48.000 8
G10  23239282.580 7 122123384.216 7     -2831.514 7        43.000 7
G11  25179877.076 6 132321133.132 6      3729.008 6        37.000 6
G13  21039666.387 7 110564270.104 7     -2296.784 7        46.000 7
G17  21683496.226 7 113947544.752 7      1245.993 7        45.000 7
G20  21027693.672 7 110501349.064 7      1726.274 7        46.000 7
G23  20506266.110 7 107761221.732 7        35.416 7        45.000 7
G31  24893838.718 6 130818033.413 6      1803.786 6        38.000 6
G32  24361274.606 6 128019358.115 6      2833.332 6        39.000 6
> 2014 01 11 12 23 26.0000000  0 10      0.015927495000   
G01  22679925.536 7 119183834.113 7      2938.422 7        43.000 7
G04  21792785.049 8 114521922.385 8     -2634.071 8        48.000 8
G10  23238744.110 7 122120552.538 7     -2831.258 7        43.000 7
G11  25180588.638 6 132324862.411 6      3729.110 6        37.000 6
G13  21039227.963 7 110561973.172 7     -2296.086 7        46.000 7
G17  21683733.766 7 113948791.031 7      1246.824 7        45.000 7
G20  21028022.152 7 110503075.239 7      1726.305 7        46.000 7
G23  20506272.676 7 107761257.239 7        35.980 7        45.000 7
G31  24894181.751 6 130819838.062 6      1805.100 6        38.000 6
G32  24361812.461 6 128022191.559 6      2833.691 6        39.000 6
> 2014 01 11 12 23 27.0000000  0 10      0.015986759000   
G01  22680484.720 7 119186772.646 7      2938.966 7        43.000 7
G04  21792282.761 8 114519287.845 8     -2633.557 8        48.000 8
G10  23238204.528 7 122117721.012 7     -2830.601 7        43.000 7
G11  25181297.538 6 132328591.710 6      3729.079 6        37.000 6
G13  21038791.917 7 110559676.734 7     -2295.490 7        46.000 7
G17  21683971.612 7 113950037.919 7      1247.379 7        45.000 7
G20  21028350.116 7 110504801.700 7      1726.849 7        46.000 7
G23  20506279.350 7 107761293.310 7        36.606 7        45.000 7
G31  24894525.650 6 130821643.264 6      1806.147 6        38.000 6
G32  24362350.699 6 128025025.023 6      2833.814 6        38.000 6
> 2014 01 11 12 23 28.0000000  0 10      0.016046023000   
G01  22681044.187 7 119189711.668 7      2938.592 7        43.000 7
G04  21791781.903 8 114516653.819 8     -2634.198 8        48.000 8
G10  23237666.154 7 122114889.838 7     -2831.498 7        43.000 7
G11  25182006.867 6 132332321.258 6      3729.208 6        37.000 6
G13  21038354.674 7 110557381.006 7     -2296.070 7        46.000 7
G17  21684208.279 7 113951285.612 7      1247.467 7        46.000 7
G20  21028677.971 7 110506528.590 7      1726.260 7        46.000 7
G23  20506286.932 7 107761330.153 7        36.632 7        45.000 7
G31  24894869.484 6 130823449.121 6      1805.568 6        38.000 6
G32  24362888.395 6 128027858.634 6      2833.112 6        38.000 6
> 2014 01 11 12 23 29.0000000  0 10      0.016105289000   
G01  22681603.740 7 119192648.137 7      2938.818 7        43.000 7
G04  21791279.998 8 114514017.289 8     -2633.541 8        48.000 8
G10  23237127.271 7 122112055.989 7     -2830.934 7        43.000 7
G11  25182718.520 6 132336048.019 6      3728.172 6        37.000 6
G13  21037917.366 7 110555082.936 7     -2295.372 7        46.000 7
G17  21684444.902 7 113952531.076 7      1248.442 7        46.000 7
G20  21029005.714 7 110508252.890 7      1726.773 7        46.000 7
G23  20506294.840 7 107761364.709 7        37.474 7        45.000 7
G31  24895212.306 6 130825252.666 6      1805.886 6        38.000 6
G32  24363429.936 6 128030689.447 6      2833.256 6        38.000 6
> 2014 01 11 12 23 30.0000000  0 10      0.016164551000   
G01  22682162.472 7 119195591.292 7      2939.516 7        43.000 7
G04  21790778.606 7 114511387.456 7     -2633.049 7        47.000 7
G10  23236588.306 7 122109228.711 7     -2830.780 7        43.000 7
G11  25183427.984 6 132339781.279 6      3729.814 6        37.000 6
G13  21037480.045 7 110552791.800 7     -2294.551 7        46.000 7
G17  21684683.237 7 113953783.535 7      1248.986 7        46.000 7
G20  21029335.296 7 110509983.858 7      1727.574 7        46.000 7
G23  20506303.119 7 107761406.218 7        38.059 7        45.000 7
G31  24895556.449 6 130827063.147 6      1806.974 6        38.000 6
G32  24363968.692 6 128033526.632 6      2833.225 6        38.000 6
> 2014 01 11 12 23 31.0000000  0 10      0.016223817000   
G01  22682721.012 7 119198528.440 7      2939.927 7        43.000 7
G04  21790276.259 7 114508751.607 7     -2633.285 7        47.000 7
G10  23236051.217 7 122106395.286 7     -2830.400 7        43.000 7
G11  25184136.991 6 132343508.135 6      3730.214 6        37.000 6
G13  21037044.466 7 110550494.820 7     -2294.007 7        46.000 7
G17  21684920.105 7 113955030.284 7      1249.591 7        46.000 7
G20  21029663.913 7 110511708.748 7      1727.533 7        46.000 7
G23  20506309.922 7 107761441.967 7        38.470 7        45.000 7
G31  24895898.920 6 130828867.847 6      1807.928 6        38.000 6
G32  24364508.717 6 128036357.481 6      2832.855 6        38.000 6
> 2014 01 11 12 23 32.0000000  0 10      0.016283082000   
G01  22683281.031 7 119201467.358 7      2940.029 7        43.000 7
G04  21789776.546 7 114506117.600 7     -2632.710 7        47.000 7
G10  23235508.727 7 122103563.483 7     -2830.677 7        43.000 7
G11  25184847.047 6 132347236.506 6      3729.917 6        37.000 6
G13  21036607.562 7 110548199.872 7     -2293.309 7        46.000 7
G17  21685157.944 7 113956279.136 7      1250.269 7        46.000 7
G20  21029992.671 7 110513435.383 7      1727.686 7        46.000 7
G23  20506317.500 7 107761479.791 7        39.065 7        45.000 7
G31  24896245.007 6 130830674.544 6      1808.113 6        38.000 6
G32  24365047.700 6 128039189.857 6      2833.348 6        39.000 6
> 2014 01 11 12 23 33.0000000  0 10      0.016342346000   
G01  22683839.715 7 119204408.265 7      2940.214 7        43.000 7
G04  21789275.503 7 114503485.596 7     -2632.392 7        47.000 7
G10  23234971.358 7 122100733.588 7     -2830.503 7        43.000 7
G11  25185555.535 6 132350966.632 6      3729.834 6        37.000 6
G13  21036170.502 7 110545907.108 7     -2293.319 7        46.000 7
G17  21685396.791 7 113957530.289 7      1250.925 7        46.000 7
G20  21030321.420 7 110515163.973 7      1727.994 7        46.000 7
G23  20506324.176 7 107761519.870 7        39.825 7        45.000 7
G31  24896587.145 6 130832483.490 6      1808.462 6        38.000 6
G32  24365588.907 6 128042023.919 6      2832.999 6        39.000 6
> 2014 01 11 12 23 34.0000000  0 10      0.016401611000   
G01  22684398.911 7 119207347.861 7      2940.625 7        43.000 7
G04  21788774.024 7 114500852.311 7     -2631.889 7        47.000 7
G10  23234433.898 7 122097902.218 7     -2830.318 7        43.000 7
G11  25186266.578 6 132354695.192 6      3729.783 6        37.000 6
G13  21035734.950 7 110543613.265 7     -2292.405 7        46.000 7
G17  21685635.067 7 113958780.438 7      1251.593 7        46.000 7
G20  21030650.293 7 110516891.211 7      1728.343 7        46.000 7
G23  20506330.462 7 107761558.902 7        40.215 7        45.000 7
G31  24896933.069 6 130834291.333 6      1809.437 6        38.000 6
G32  24366125.628 6 128044856.409 6      2833.841 6        39.000 6
> 2014 01 11 12 23 35.0000000  0 10      0.016460875000   
G01  22684960.209 7 119210289.502 7      2940.974 7        43.000 7
G04  21788272.748 7 114498221.084 7     -2631.437 7        47.000 7
G10  23233892.998 7 122095072.771 7     -2829.918 7        43.000 7
G11  25186976.241 6 132358425.494 6      3728.911 6        37.000 6
G13  21035299.256 7 110541321.678 7     -2291.779 7        46.000 7
G17  21685873.413 7 113960032.953 7      1252.198 7        46.000 7
G20  21030979.549 7 110518620.463 7      1728.939 7        46.000 7
G23  20506337.948 7 107761600.241 7        40.882 7        45.000 7
G31  24897277.146 6 130836101.471 6      1809.458 6        38.000 6
G32  24366664.768 6 128047690.607 6      2833.512 6        39.000 6
> 2014 01 11 12 23 36.0000000  0 10      0.016520141000   
G01  22685518.697 7 119213228.375 7      2941.507 7        43.000 7
G04  21787772.662 7 114495587.114 7     -2631.140 7        47.000 7
G10  23233354.595 7 122092240.441 7     -2829.527 7        43.000 7
G11  25187685.145 6 132362152.809 6      3729.434 6        37.000 6
G13  21034862.506 7 110539027.539 7     -2291.040 7        46.000 7
G17  21686110.909 7 113961283.001 7      1252.927 7        46.000 7
G20  21031307.694 7 110520346.878 7      1728.733 7        46.000 7
G23  20506347.244 7 107761639.096 7        41.621 7        45.000 7
G31  24897622.637 6 130837909.037 6      1809.376 6        38.000 6
G32  24367203.329 6 128050521.763 6      2833.687 6        39.000 6
> 2014 01 11 12 23 37.0000000  0 10      0.016579407000   
G01  22686076.687 7 119216167.629 7      2941.774 7        43.000 7
G04  21787272.465 7 114492953.563 7     -2630.668 7        47.000 7
G10  23232816.241 7 122089408.371 7     -2828.758 7        43.000 7
G11  25188399.770 6 132365880.193 6      3728.120 6        37.000 6
G13  21034427.012 7 110536734.003 7     -2290.096 7        46.000 7
G17  21686349.870 7 113962533.749 7      1253.563 7        46.000 7
G20  21031636.482 7 110522073.669 7      1729.421 7        46.000 7
G23  20506353.809 7 107761678.594 7        42.411 7        45.000 7
G31  24897967.303 6 130839717.273 6      1811.593 6        38.000 6
G32  24367741.333 6 128053352.995 6      2833.882 6        39.000 6
> 2014 01 11 12 23 38.0000000  0 10      0.016638672000   
G01  22686638.267 7 119219108.753 7      2942.041 7        43.000 7
G04  21786771.679 7 114490321.915 7     -2630.134 7        47.000 7
G10  23232276.880 7 122086578.010 7     -2828.963 7        43.000 7
G11  25189107.672 6 132369609.243 6      3729.906 6        37.000 6
G13  21033989.251 7 110534442.553 7     -2290.240 7        46.000 7
G17  21686587.915 7 113963786.684 7      1254.148 7        46.000 7
G20  21031965.807 7 110523802.285 7      1729.832 7        46.000 7
G23  20506362.878 7 107761720.250 7        42.822 7        45.000 7
G31  24898310.074 6 130841527.546 6      1811.346 6        38.000 6
G32  24368281.347 6 128056185.785 6      2833.338 6        39.000 6
> 2014 01 11 12 23 39.0000000  0 10      0.016697935000   
G01  22687198.245 7 119222053.459 7      2942.883 7        43.000 7
G04  21786270.619 7 114487693.829 7     -2630.082 7        47.000 7
G10  23231740.076 7 122083751.089 7     -2828.922 7        43.000 7
G11  25189817.152 6 132373341.582 6      3730.450 6        37.000 6
G13  21033553.158 7 110532154.870 7     -2289.378 7        46.000 7
G17  21686826.887 7 113965043.489 7      1254.785 7        46.000 7
G20  21032295.418 7 110525534.405 7      1729.965 7        46.000 7
G23  20506371.341 7 107761765.725 7        43.694 7        45.000 7
G31  24898653.580 6 130843341.681 6      1812.054 6        38.000 6
G32  24368820.659 6 128059021.891 6      2833.759 6        39.000 6
> 2014 01 11 12 23 40.0000000  0 10      0.016757202000   
G01  22687756.339 7 119224992.265 7      2942.006 7        43.000 7
G04  21785769.592 7 114485059.913 7     -2630.580 7        47.000 7
G10  23231200.991 7 122080918.177 7     -2829.573 7        43.000 7
G11  25190524.316 6 132377067.755 6      3729.337 6        37.000 6
G13  21033117.134 7 110529861.549 7     -2289.977 7        46.000 7
G17  21687065.754 7 113966294.745 7      1254.698 7        46.000 7
G20  21032624.481 7 110527260.638 7      1729.868 7        46.000 7
G23  20506378.738 7 107761805.596 7        43.310 7        45.000 7
G31  24899000.954 6 130845150.145 6      1812.399 6        38.000 6
G32  24369360.510 6 128061851.827 6      2833.149 6        39.000 6
> 2014 01 11 12 23 41.0000000  0 10      0.016816469000   
G01  22688317.385 7 119227931.577 7      2942.427 7        43.000 7
G04  21785268.665 7 114482426.522 7     -2630.036 7        47.000 7
G10  23230663.308 7 122078085.634 7     -2829.080 7        43.000 7
G11  25191233.429 6 132380794.171 6      3729.645 6        37.000 6
G13  21032680.486 7 110527568.946 7     -2289.279 7        46.000 7
G17  21687304.392 7 113967546.796 7      1255.458 7        46.000 7
G20  21032952.672 7 110528987.297 7      1729.714 7        46.000 7
G23  20506386.663 7 107761846.241 7        44.080 7        45.000 7
G31  24899346.366 6 130846959.298 6      1811.968 6        38.000 6
G32  24369898.868 6 128064681.917 6      2832.902 6        39.000 6
> 2014 01 11 12 23 42.0000000  0 10      0.016875734000   
G01  22688876.998 7 119230874.364 7      2942.673 7        43.000 7
G04  21784767.260 7 114479796.623 7     -2629.605 7        47.000 7
G10  23230124.924 7 122075256.408 7     -2828.998 7        43.000 7
G11  25191946.196 6 132384523.788 6      3729.768 6        37.000 6
G13  21032245.111 7 110525280.036 7     -2288.417 7        46.000 7
G17  21687543.746 7 113968802.612 7      1255.632 7        46.000 7
G20  21033282.660 7 110530717.393 7      1730.279 7        46.000 7
G23  20506394.914 7 107761890.600 7        44.357 7        45.000 7
G31  24899691.157 6 130848772.186 6      1813.271 6        38.000 6
G32  24370437.650 6 128067515.238 6      2833.015 6        39.000 6
> 2014 01 11 12 23 43.0000000  0 10      0.016934997000   
G01  22689436.849 7 119233820.403 7      2943.888 7        43.000 7
G04  21784268.008 7 114477170.036 7     -2628.358 7        47.000 7
G10  23229587.904 7 122072430.351 7     -2828.121 7        43.000 7
G11  25192656.289 6 132388256.347 6      3730.050 6        38.000 6
G13  21031809.636 7 110522994.601 7     -2287.202 7        46.000 7
G17  21687782.837 7 113970062.044 7      1257.412 7        46.000 7
G20  21033612.309 7 110532450.714 7      1730.827 7        46.000 7
G23  20506404.796 7 107761938.534 7        45.880 7        45.000 7
G31  24900033.750 6 130850588.526 6      1813.604 6        39.000 6
G32  24370974.902 6 128070351.512 6      2833.728 6        39.000 6
> 2014 01 11 12 23 44.0000000  0 10      0.016994263000   
G01  22689997.018 7 119236762.112 7      2943.371 7        43.000 7
G04  21783766.601 7 114474539.125 7     -2628.907 7        47.000 7
G10  23229048.699 7 122069599.810 7     -2828.670 7        43.000 7
G11  25193360.381 6 132391984.374 6      3729.050 6        38.000 6
G13  21031373.946 7 110520705.036 7     -2287.668 7        46.000 7
G17  21688021.917 7 113971317.417 7      1257.028 7        46.000 7
G20  21033940.747 7 110534179.667 7      1730.679 7        46.000 7
G23  20506412.377 7 107761982.372 7        45.711 7        45.000 7
G31  24900378.617 6 130852400.812 6      1813.939 6        39.000 6
G32  24371511.654 6 128073183.164 6      2832.810 6        38.000 6
> 2014 01 11 12 23 45.0000000  0 10      0.017053527000   
G01  22690555.186 7 119239707.304 7      2943.361 7        43.000 7
G04  21783268.340 7 114471911.745 7     -2628.671 7        47.000 7
G10  23228509.758 7 122066772.650 7     -2828.485 7        43.000 7
G11  25194074.417 6 132395715.660 6      3728.958 6        38.000 6
G13  21030938.967 7 110518419.204 7     -2286.888 7        46.000 7
G17  21688261.536 7 113972576.625 7      1257.664 7        46.000 7
G20  21034270.224 7 110535912.080 7      1730.812 7        46.000 7
G23  20506421.058 7 107762029.991 7        46.276 7        45.000 7
G31  24900725.519 6 130854216.796 6      1814.051 6        39.000 6
G32  24372055.106 6 128076018.023 6      2832.759 6        38.000 6
> 2014 01 11 12 23 46.0000000  0 10      0.017112793000   
G01  22691116.073 7 119242649.785 7      2943.966 7        43.000 7
G04  21782766.519 7 114469281.659 7     -2628.393 7        47.000 7
G10  23227970.456 7 122063942.603 7     -2828.516 7        43.000 7
G11  25194786.166 6 132399443.931 6      3729.214 6        38.000 6
G13  21030504.651 7 110516130.858 7     -2286.303 7        46.000 7
G17  21688500.694 7 113973833.406 7      1258.629 7        46.000 7
G20  21034599.747 7 110537641.732 7      1731.695 7        46.000 7
G23  20506429.840 7 107762075.139 7        46.830 7        45.000 7
G31  24901070.043 6 130856030.282 6      1814.862 6        39.000 6
G32  24372595.122 6 128078849.828 6      2832.882 6        38.000 6
> 2014 01 11 12 23 46.0000000  4  2
END OF FILE                                                 COMMENT             
                                                            END OF HEADER       
